Timestamp,roll,pitch,heading,rollRate,pitchRate,yawRate,groundSpeed,airSpeed,climbRate,altitudeRelative,altitudeAMSL,flightDistance,flightTime,distanceToHome,headingToNextWP,headingToHome,distanceToGCS,throttlePct,hobbs,battery.voltage,battery.percentRemaining,battery.mahConsumed,battery.current,battery.temperature,battery.instantPower,battery.timeRemaining,battery.chargeState,battery2.voltage,battery2.percentRemaining,battery2.mahConsumed,battery2.current,battery2.temperature,battery2.instantPower,battery2.timeRemaining,battery2.chargeState,clock.currentTime,clock.currentDate,distanceSensor.rotationNone,distanceSensor.rotationYaw45,distanceSensor.rotationYaw90,distanceSensor.rotationYaw135,distanceSensor.rotationYaw180,distanceSensor.rotationYaw225,distanceSensor.rotationYaw270,distanceSensor.rotationYaw315,distanceSensor.rotationPitch90,distanceSensor.rotationPitch270,estimatorStatus.goodAttitudeEsimate,estimatorStatus.goodHorizVelEstimate,estimatorStatus.goodVertVelEstimate,estimatorStatus.goodHorizPosRelEstimate,estimatorStatus.goodHorizPosAbsEstimate,estimatorStatus.goodVertPosAbsEstimate,estimatorStatus.goodVertPosAGLEstimate,estimatorStatus.goodConstPosModeEstimate,estimatorStatus.goodPredHorizPosRelEstimate,estimatorStatus.goodPredHorizPosAbsEstimate,estimatorStatus.gpsGlitch,estimatorStatus.accelError,estimatorStatus.velRatio,estimatorStatus.horizPosRatio,estimatorStatus.vertPosRatio,estimatorStatus.magRatio,estimatorStatus.haglRatio,estimatorStatus.tasRatio,estimatorStatus.horizPosAccuracy,estimatorStatus.vertPosAccuracy,gps.lat,gps.lon,gps.mgrs,gps.hdop,gps.vdop,gps.courseOverGround,gps.lock,gps.count,temperature.temperature1,temperature.temperature2,temperature.temperature3,vibration.xAxis,vibration.yAxis,vibration.zAxis,vibration.clipCount1,vibration.clipCount2,vibration.clipCount3,wind.direction,wind.speed,wind.verticalSpeed
2020-08-02 10:13:05.805,-1.1,-1.0,29,0.1,0.0,-0.1,0.0,-2.9,-0.0,-0.0,-0.0,0.0,00:00:00,0.0,308,--.--,--.--,0,0004:43:18,12.14,100,0,-1.00,--.--,-12.14,--.--,0,--.--,--.--,--.--,--.--,--.--,--.--,--.--,0,10:13:05,2020-08-02,--.--,--.--,--.--,--.--,--.--,--.--,--.--,0.00,--.--,--.--,true,true,true,true,true,true,true,false,true,true,false,false,0.02,0.00,0.01,0.00,0.00,0.00,0.44,0.21,43.9451638,-78.8968383,17TPJ 68775 67932,0.0,0.0,6.7,3,10,--.--,--.--,--.--,0.0,0.0,0.0,0,0,0,--.--,--.--,--.--
2020-08-02 10:13:06.810,0.5,-0.1,29,0.2,1.5,0.1,0.0,1.8,0.0,0.0,0.0,0.0,00:00:01,0.0,308,--.--,--.--,59,0004:43:18,12.12,99,0,-1.00,--.--,-12.12,--.--,0,--.--,--.--,--.--,--.--,--.--,--.--,--.--,0,10:13:06,2020-08-02,--.--,--.--,--.--,--.--,--.--,--.--,--.--,0.00,--.--,--.--,true,true,true,true,true,true,true,false,true,true,false,false,0.01,0.00,0.01,0.01,0.00,0.00,0.44,0.21,43.9451638,-78.8968383,17TPJ 68775 67932,0.0,0.0,325.3,3,10,--.--,--.--,--.--,0.0,0.0,0.0,0,0,0,--.--,--.--,--.--
2020-08-02 10:13:07.811,-0.9,-0.8,29,-0.2,-0.2,-0.2,0.0,1.8,1.3,1.0,0.9,0.0,00:00:02,0.1,308,--.--,--.--,62,0004:43:18,12.10,98,0,-1.00,--.--,-12.10,--.--,0,--.--,--.--,--.--,--.--,--.--,--.--,--.--,0,10:13:07,2020-08-02,--.--,--.--,--.--,--.--,--.--,--.--,--.--,0.00,--.--,--.--,true,true,true,true,true,true,true,false,true,true,false,false,0.01,0.00,0.01,0.01,0.00,0.00,0.44,0.21,43.9451635,-78.8968379,17TPJ 68775 67932,0.0,0.0,142.5,3,10,--.--,--.--,--.--,0.0,0.0,0.0,0,0,0,--.--,--.--,--.--
2020-08-02 10:13:08.811,-1.2,-1.0,29,-0.1,0.1,-0.3,0.0,-1.1,2.4,3.1,3.1,0.0,00:00:03,0.1,308,--.--,--.--,54,0004:43:18,12.07,96,0,-1.00,--.--,-12.07,--.--,0,--.--,--.--,--.--,--.--,--.--,--.--,--.--,0,10:13:08,2020-08-02,--.--,--.--,--.--,--.--,--.--,--.--,--.--,0.00,--.--,--.--,true,true,true,true,true,true,true,false,true,true,false,false,0.03,0.01,0.01,0.01,0.00,0.00,0.43,0.21,43.9451629,-78.8968374,17TPJ 68775 67932,0.0,0.0,103.8,3,10,--.--,--.--,--.--,0.0,0.0,0.0,0,0,0,--.--,--.--,--.--
2020-08-02 10:13:09.810,-1.4,-1.2,29,-0.1,-0.2,-0.2,0.0,0.3,1.7,5.1,5.1,0.0,00:00:04,0.1,308,--.--,--.--,57,0004:43:18,12.05,94,0,-1.00,--.--,-12.05,--.--,0,--.--,--.--,--.--,--.--,--.--,--.--,--.--,0,10:13:09,2020-08-02,--.--,--.--,--.--,--.--,--.--,--.--,--.--,0.00,--.--,--.--,true,true,true,true,true,true,true,false,true,true,false,false,0.03,0.01,0.01,0.01,0.00,0.00,0.43,0.21,43.9451627,-78.8968372,17TPJ 68775 67932,0.0,0.0,166.9,3,10,--.--,--.--,--.--,0.0,0.0,0.0,0,0,0,--.--,--.--,--.--
2020-08-02 10:13:10.812,-1.4,-1.3,29,-0.2,0.3,-0.3,0.0,-2.3,1.5,6.7,6.7,0.0,00:00:05,0.1,308,--.--,--.--,58,0004:43:18,12.02,93,0,-1.00,--.--,-12.02,--.--,0,--.--,--.--,--.--,--.--,--.--,--.--,--.--,0,10:13:10,2020-08-02,--.--,--.--,--.--,--.--,--.--,--.--,--.--,0.00,--.--,--.--,true,true,true,true,true,true,false,false,true,true,false,false,0.01,0.01,0.01,0.00,0.00,0.00,0.42,0.20,43.9451628,-78.8968373,17TPJ 68775 67932,0.0,0.0,344.1,3,10,--.--,--.--,--.--,0.0,0.0,0.0,0,0,0,--.--,--.--,--.--
2020-08-02 10:13:11.812,-1.4,-1.1,29,0.0,0.2,0.0,0.0,2.2,1.5,8.3,8.3,0.0,00:00:06,0.1,308,--.--,--.--,58,0004:43:18,11.99,91,0,-1.00,--.--,-11.99,--.--,0,--.--,--.--,--.--,--.--,--.--,--.--,--.--,0,10:13:11,2020-08-02,--.--,--.--,--.--,--.--,--.--,--.--,--.--,0.00,--.--,--.--,true,true,true,true,true,true,false,false,true,true,false,false,0.01,0.01,0.01,0.00,0.00,0.00,0.42,0.20,43.9451633,-78.8968375,17TPJ 68775 67932,0.0,0.0,340.5,3,10,--.--,--.--,--.--,0.0,0.0,0.0,0,0,0,--.--,--.--,--.--
2020-08-02 10:13:12.812,-1.4,-1.0,29,-0.6,-0.5,-0.2,0.0,1.6,1.5,9.8,9.8,0.0,00:00:07,0.1,308,--.--,--.--,58,0004:43:18,11.97,89,0,-1.00,--.--,-11.97,--.--,0,--.--,--.--,--.--,--.--,--.--,--.--,--.--,0,10:13:12,2020-08-02,--.--,--.--,--.--,--.--,--.--,--.--,--.--,0.00,--.--,--.--,true,true,true,true,true,true,false,false,true,true,false,false,0.01,0.00,0.00,0.01,0.00,0.00,0.46,0.21,43.9451637,-78.8968378,17TPJ 68775 67932,0.0,0.0,338.0,3,10,--.--,--.--,--.--,0.0,0.0,0.0,0,0,0,--.--,--.--,--.--
2020-08-02 10:13:13.813,-0.9,-0.8,29,-0.1,-0.7,0.1,0.0,1.5,2.7,11.8,11.8,0.0,00:00:08,0.0,308,--.--,--.--,67,0004:43:18,11.94,88,0,-1.00,--.--,-11.94,--.--,0,--.--,--.--,--.--,--.--,--.--,--.--,--.--,0,10:13:13,2020-08-02,--.--,--.--,--.--,--.--,--.--,--.--,--.--,0.00,--.--,--.--,true,true,true,true,true,true,false,false,true,true,false,false,0.01,0.00,0.00,0.01,0.00,0.00,0.46,0.21,43.9451639,-78.8968383,17TPJ 68775 67932,0.0,0.0,293.8,3,10,--.--,--.--,--.--,0.0,0.0,0.0,0,0,0,--.--,--.--,--.--
2020-08-02 10:13:14.813,-1.1,-1.0,29,0.1,-0.0,0.2,0.0,3.7,2.9,14.8,14.7,0.0,00:00:09,0.0,308,--.--,--.--,60,0004:43:18,11.91,86,0,-1.00,--.--,-11.91,--.--,0,--.--,--.--,--.--,--.--,--.--,--.--,--.--,0,10:13:14,2020-08-02,--.--,--.--,--.--,--.--,--.--,--.--,--.--,0.00,--.--,--.--,true,true,true,true,true,true,false,false,true,true,false,false,0.03,0.00,0.01,0.01,0.00,0.00,0.45,0.21,43.9451639,-78.8968384,17TPJ 68775 67932,0.0,0.0,210.8,3,10,--.--,--.--,--.--,0.0,0.0,0.0,0,0,0,--.--,--.--,--.--
2020-08-02 10:13:15.812,-1.1,-1.2,29,0.1,-0.1,0.1,0.0,-0.9,2.9,17.8,17.8,0.0,00:00:10,0.0,308,--.--,--.--,60,0004:43:18,11.88,84,0,-1.00,--.--,-11.88,--.--,0,--.--,--.--,--.--,--.--,--.--,--.--,--.--,0,10:13:15,2020-08-02,--.--,--.--,--.--,--.--,--.--,--.--,--.--,0.00,--.--,--.--,true,true,true,true,true,true,false,false,true,true,false,false,0.03,0.00,0.01,0.01,0.00,0.00,0.45,0.21,43.9451638,-78.8968385,17TPJ 68775 67932,0.0,0.0,55.2,3,10,--.--,--.--,--.--,0.0,0.0,0.0,0,0,0,--.--,--.--,--.--
2020-08-02 10:13:16.813,-1.1,-1.3,29,0.6,0.1,0.3,0.0,2.3,2.9,20.8,20.7,0.0,00:00:11,0.0,308,--.--,--.--,60,0004:43:18,11.86,83,0,-1.00,--.--,-11.86,--.--,0,--.--,--.--,--.--,--.--,--.--,--.--,--.--,0,10:13:16,2020-08-02,--.--,--.--,--.--,--.--,--.--,--.--,--.--,0.00,--.--,--.--,true,true,true,true,true,true,false,false,true,true,false,false,0.02,0.00,0.00,0.00,0.00,0.00,0.44,0.21,43.9451640,-78.8968384,17TPJ 68775 67932,0.0,0.0,310.3,3,10,--.--,--.--,--.--,0.0,0.0,0.0,0,0,0,--.--,--.--,--.--
2020-08-02 10:13:17.805,-1.0,-1.2,29,0.9,0.5,0.2,0.0,2.8,2.9,23.7,23.7,0.0,00:00:12,0.0,308,--.--,--.--,60,0004:43:18,11.83,81,0,-1.00,--.--,-11.83,--.--,0,--.--,--.--,--.--,--.--,--.--,--.--,--.--,0,10:13:17,2020-08-02,--.--,--.--,--.--,--.--,--.--,--.--,--.--,0.00,--.--,--.--,true,true,true,true,true,true,false,false,true,true,false,false,0.02,0.00,0.00,0.00,0.00,0.00,0.44,0.21,43.9451641,-78.8968383,17TPJ 68775 67932,0.0,0.0,13.6,3,10,--.--,--.--,--.--,0.0,0.0,0.0,0,0,0,--.--,--.--,--.--
2020-08-02 10:13:18.815,-0.9,-1.3,29,0.4,0.6,0.2,0.0,3.3,2.9,26.7,26.7,0.0,00:00:13,0.0,308,--.--,--.--,60,0004:43:18,11.80,79,0,-1.00,--.--,-11.80,--.--,0,--.--,--.--,--.--,--.--,--.--,--.--,--.--,0,10:13:18,2020-08-02,--.--,--.--,--.--,--.--,--.--,--.--,--.--,0.00,--.--,--.--,true,true,true,true,true,true,false,false,true,true,false,false,0.01,0.01,0.00,0.00,0.00,0.00,0.42,0.20,43.9451643,-78.8968380,17TPJ 68775 67932,0.0,0.0,48.2,3,10,--.--,--.--,--.--,0.0,0.0,0.0,0,0,0,--.--,--.--,--.--
2020-08-02 10:13:19.815,-1.0,-1.2,29,-0.1,0.5,-0.1,0.0,-1.9,2.9,29.7,29.7,0.0,00:00:14,0.0,308,--.--,--.--,60,0004:43:18,11.77,78,0,-1.00,--.--,-11.77,--.--,0,--.--,--.--,--.--,--.--,--.--,--.--,--.--,0,10:13:19,2020-08-02,--.--,--.--,--.--,--.--,--.--,--.--,--.--,0.00,--.--,--.--,true,true,true,true,true,true,false,false,true,true,false,false,0.01,0.01,0.00,0.00,0.00,0.00,0.42,0.20,43.9451644,-78.8968377,17TPJ 68775 67932,0.0,0.0,82.2,3,10,--.--,--.--,--.--,0.0,0.0,0.0,0,0,0,--.--,--.--,--.--
2020-08-02 10:13:20.815,-1.1,-1.2,29,-0.3,-0.4,-0.2,0.0,-1.9,3.0,32.7,32.6,0.0,00:00:15,0.0,308,--.--,--.--,60,0004:43:18,11.75,76,0,-1.00,--.--,-11.75,--.--,0,--.--,--.--,--.--,--.--,--.--,--.--,--.--,0,10:13:20,2020-08-02,--.--,--.--,--.--,--.--,--.--,--.--,--.--,0.00,--.--,--.--,true,true,true,true,true,true,false,false,true,true,false,false,0.02,0.01,0.00,0.01,0.00,0.00,0.41,0.20,43.9451645,-78.8968373,17TPJ 68775 67932,0.0,0.0,75.8,3,10,--.--,--.--,--.--,0.0,0.0,0.0,0,0,0,--.--,--.--,--.--
2020-08-02 10:13:21.815,-1.2,-1.2,29,-0.5,-0.1,0.3,0.1,2.1,3.0,35.6,35.6,0.0,00:00:16,0.1,308,--.--,--.--,60,0004:43:18,11.72,74,0,-1.00,--.--,-11.72,--.--,0,--.--,--.--,--.--,--.--,--.--,--.--,--.--,0,10:13:21,2020-08-02,--.--,--.--,--.--,--.--,--.--,--.--,--.--,0.00,--.--,--.--,true,true,true,true,true,true,false,false,true,true,false,false,0.02,0.01,0.00,0.01,0.00,0.00,0.41,0.20,43.9451646,-78.8968372,17TPJ 68775 67932,0.0,0.0,327.8,3,10,--.--,--.--,--.--,0.0,0.0,0.0,0,0,0,--.--,--.--,--.--
2020-08-02 10:13:22.804,-1.3,-1.2,29,-0.1,0.7,-0.2,0.1,1.6,2.9,38.6,38.6,0.0,00:00:17,0.1,308,--.--,--.--,60,0004:43:18,11.69,73,0,-1.00,--.--,-11.69,--.--,0,--.--,--.--,--.--,--.--,--.--,--.--,--.--,0,10:13:22,2020-08-02,--.--,--.--,--.--,--.--,--.--,--.--,--.--,0.00,--.--,--.--,true,true,true,true,true,true,false,false,true,true,false,false,0.03,0.01,0.02,0.04,0.00,0.00,0.41,0.20,43.9451646,-78.8968371,17TPJ 68775 67932,0.0,0.0,9.5,3,10,--.--,--.--,--.--,0.0,0.0,0.0,0,0,0,--.--,--.--,--.--
2020-08-02 10:13:23.815,-1.4,-1.1,29,0.3,0.1,-0.3,0.1,2.9,2.8,41.5,41.4,0.0,00:00:18,0.1,308,--.--,--.--,56,0004:43:18,11.66,71,0,-1.00,--.--,-11.66,--.--,0,--.--,--.--,--.--,--.--,--.--,--.--,--.--,0,10:13:23,2020-08-02,--.--,--.--,--.--,--.--,--.--,--.--,--.--,0.00,--.--,--.--,true,true,true,true,true,true,false,false,true,true,false,false,0.03,0.01,0.02,0.04,0.00,0.00,0.41,0.20,43.9451648,-78.8968371,17TPJ 68775 67932,0.0,0.0,321.7,3,10,--.--,--.--,--.--,0.0,0.0,0.0,0,0,0,--.--,--.--,--.--
2020-08-02 10:13:24.804,-1.2,-1.2,29,0.2,-0.3,0.0,0.1,-2.8,2.0,43.7,43.7,0.0,00:00:19,0.1,308,--.--,--.--,57,0004:43:18,11.64,69,0,-1.00,--.--,-11.64,--.--,0,--.--,--.--,--.--,--.--,--.--,--.--,--.--,0,10:13:24,2020-08-02,--.--,--.--,--.--,--.--,--.--,--.--,--.--,0.00,--.--,--.--,true,true,true,true,true,true,false,false,true,true,false,false,0.03,0.01,0.01,0.01,0.00,0.00,0.44,0.21,43.9451649,-78.8968372,17TPJ 68775 67932,0.0,0.0,309.2,3,10,--.--,--.--,--.--,0.0,0.0,0.0,0,0,0,--.--,--.--,--.--
2020-08-02 10:13:25.805,-1.2,-1.1,29,0.5,1.0,-0.3,0.1,1.3,1.5,45.3,45.3,0.0,00:00:20,0.1,308,--.--,--.--,56,0004:43:18,11.61,68,0,-1.00,--.--,-11.61,--.--,0,--.--,--.--,--.--,--.--,--.--,--.--,--.--,0,10:13:25,2020-08-02,--.--,--.--,--.--,--.--,--.--,--.--,--.--,0.00,--.--,--.--,true,true,true,true,true,true,false,false,true,true,false,false,0.03,0.01,0.01,0.01,0.00,0.00,0.44,0.21,43.9451650,-78.8968373,17TPJ 68775 67932,0.0,0.0,327.1,3,10,--.--,--.--,--.--,0.0,0.0,0.0,0,0,0,--.--,--.--,--.--
2020-08-02 10:13:26.805,-1.2,-1.1,29,0.1,0.5,-0.1,0.1,-3.1,1.1,46.5,46.5,0.0,00:00:21,0.1,308,--.--,--.--,56,0004:43:18,11.58,66,0,-1.00,--.--,-11.58,--.--,0,--.--,--.--,--.--,--.--,--.--,--.--,--.--,0,10:13:26,2020-08-02,--.--,--.--,--.--,--.--,--.--,--.--,--.--,0.00,--.--,--.--,true,true,true,true,true,true,false,false,true,true,false,false,0.03,0.01,0.00,0.00,0.00,0.00,0.43,0.21,43.9451650,-78.8968375,17TPJ 68775 67932,0.0,0.0,324.6,3,10,--.--,--.--,--.--,0.0,0.0,0.0,0,0,0,--.--,--.--,--.--
2020-08-02 10:13:27.804,-1.3,-1.0,29,-0.1,-0.2,0.2,0.1,-1.5,0.8,47.4,47.4,0.0,00:00:22,0.1,308,--.--,--.--,56,0004:43:18,11.55,64,0,-1.00,--.--,-11.55,--.--,0,--.--,--.--,--.--,--.--,--.--,--.--,--.--,0,10:13:27,2020-08-02,--.--,--.--,--.--,--.--,--.--,--.--,--.--,0.00,--.--,--.--,true,true,true,true,true,true,false,false,true,true,false,false,0.03,0.01,0.00,0.00,0.00,0.00,0.43,0.21,43.9451650,-78.8968377,17TPJ 68775 67932,0.0,0.0,258.8,3,10,--.--,--.--,--.--,0.0,0.0,0.0,0,0,0,--.--,--.--,--.--
2020-08-02 10:13:28.805,-1.1,-1.0,29,0.3,0.5,-0.2,0.1,2.9,0.6,48.1,48.1,0.0,00:00:23,0.1,308,--.--,--.--,56,0004:43:18,11.53,63,0,-1.00,--.--,-11.53,--.--,0,--.--,--.--,--.--,--.--,--.--,--.--,--.--,0,10:13:28,2020-08-02,--.--,--.--,--.--,--.--,--.--,--.--,--.--,0.00,--.--,--.--,true,true,true,true,true,true,false,false,true,true,false,false,0.04,0.01,0.00,0.01,0.00,0.00,0.42,0.21,43.9451650,-78.8968381,17TPJ 68775 67932,0.0,0.0,240.1,3,10,--.--,--.--,--.--,0.0,0.0,0.0,0,0,0,--.--,--.--,--.--
2020-08-02 10:13:29.805,-1.2,-1.1,29,0.4,0.0,0.1,0.0,-1.6,0.4,48.6,48.6,0.0,00:00:24,0.0,308,--.--,--.--,56,0004:43:18,11.50,61,0,-1.00,--.--,-11.50,--.--,0,--.--,--.--,--.--,--.--,--.--,--.--,--.--,0,10:13:29,2020-08-02,--.--,--.--,--.--,--.--,--.--,--.--,--.--,0.00,--.--,--.--,true,true,true,true,true,true,false,false,true,true,false,false,0.04,0.01,0.00,0.01,0.00,0.00,0.42,0.21,43.9451647,-78.8968384,17TPJ 68775 67932,0.0,0.0,214.5,3,10,--.--,--.--,--.--,0.0,0.0,0.0,0,0,0,--.--,--.--,--.--
2020-08-02 10:13:30.804,-1.1,-1.1,29,0.0,-0.2,0.1,0.0,-0.3,0.3,49.0,49.0,0.0,00:00:25,0.0,308,--.--,--.--,56,0004:43:18,11.47,59,0,-1.00,--.--,-11.47,--.--,0,--.--,--.--,--.--,--.--,--.--,--.--,--.--,0,10:13:30,2020-08-02,--.--,--.--,--.--,--.--,--.--,--.--,--.--,0.00,--.--,--.--,true,true,true,true,true,true,false,false,true,true,false,false,0.02,0.00,0.00,0.03,0.00,0.00,0.41,0.20,43.9451644,-78.8968388,17TPJ 68775 67932,0.0,0.0,248.5,3,10,--.--,--.--,--.--,0.0,0.0,0.0,0,0,0,--.--,--.--,--.--
2020-08-02 10:13:31.805,-1.0,-1.1,29,0.4,0.2,-0.2,0.0,2.5,0.2,49.3,49.3,0.0,00:00:26,0.0,308,--.--,--.--,56,0004:43:18,11.44,58,0,-1.00,--.--,-11.44,--.--,0,--.--,--.--,--.--,--.--,--.--,--.--,--.--,0,10:13:31,2020-08-02,--.--,--.--,--.--,--.--,--.--,--.--,--.--,0.00,--.--,--.--,true,true,true,true,true,true,false,false,true,true,false,false,0.02,0.00,0.00,0.03,0.00,0.00,0.41,0.20,43.9451642,-78.8968391,17TPJ 68775 67932,0.0,0.0,215.8,3,10,--.--,--.--,--.--,0.0,0.0,0.0,0,0,0,--.--,--.--,--.--
2020-08-02 10:13:32.804,-22.5,-17.7,2,-9.0,-6.1,-47.7,1.2,3.6,0.2,49.5,49.5,0.0,00:00:27,0.6,308,--.--,--.--,61,0004:43:18,11.42,56,0,-1.00,--.--,-11.42,--.--,0,--.--,--.--,--.--,--.--,--.--,--.--,--.--,0,10:13:32,2020-08-02,--.--,--.--,--.--,--.--,--.--,--.--,--.--,0.00,--.--,--.--,true,true,true,true,true,true,false,false,true,true,false,false,0.04,0.01,0.01,0.02,0.00,0.00,0.41,0.20,43.9451644,-78.8968403,17TPJ 68775 67932,0.0,0.0,304.4,3,10,--.--,--.--,--.--,0.0,0.0,0.0,0,0,0,--.--,--.--,--.--
2020-08-02 10:13:33.819,-2.6,-35.3,316,5.5,5.9,-27.5,3.5,2.4,0.1,49.6,49.6,2.0,00:00:28,3.4,308,125,--.--,68,0004:43:18,11.39,54,0,-1.00,--.--,-11.39,--.--,0,--.--,--.--,--.--,--.--,--.--,--.--,--.--,0,10:13:33,2020-08-02,--.--,--.--,--.--,--.--,--.--,--.--,--.--,0.00,--.--,--.--,true,true,true,true,true,true,false,false,true,true,false,false,0.04,0.01,0.01,0.02,0.00,0.00,0.41,0.20,43.9451737,-78.8968618,17TPJ 68773 67933,0.0,0.0,299.2,3,10,--.--,--.--,--.--,0.0,0.0,0.0,0,0,0,--.--,--.--,--.--
2020-08-02 10:13:34.820,3.7,-31.0,306,3.7,0.1,-0.4,4.0,3.6,0.1,49.6,49.6,6.1,00:00:29,7.4,308,124,--.--,68,0004:43:18,11.36,53,0,-1.00,--.--,-11.36,--.--,0,--.--,--.--,--.--,--.--,--.--,--.--,--.--,0,10:13:34,2020-08-02,--.--,--.--,--.--,--.--,--.--,--.--,--.--,0.00,--.--,--.--,true,true,true,true,true,true,false,false,true,true,false,false,0.16,0.06,0.00,0.01,0.00,0.00,0.44,0.21,43.9451877,-78.8968955,17TPJ 68771 67935,0.0,0.0,301.3,3,10,--.--,--.--,--.--,0.0,0.0,0.0,0,0,0,--.--,--.--,--.--
2020-08-02 10:13:35.820,5.1,-30.9,306,1.1,-0.7,0.7,3.9,1.7,0.1,49.6,49.6,10.2,00:00:30,11.3,308,124,--.--,68,0004:43:18,11.34,51,0,-1.00,--.--,-11.34,--.--,0,--.--,--.--,--.--,--.--,--.--,--.--,--.--,0,10:13:35,2020-08-02,--.--,--.--,--.--,--.--,--.--,--.--,--.--,0.00,--.--,--.--,true,true,true,true,true,true,false,false,true,true,false,false,0.16,0.06,0.00,0.01,0.00,0.00,0.44,0.21,43.9452080,-78.8969395,17TPJ 68767 67937,0.0,0.0,304.9,3,10,--.--,--.--,--.--,0.0,0.0,0.0,0,0,0,--.--,--.--,--.--
2020-08-02 10:13:36.819,5.1,-31.2,307,-0.5,1.0,0.2,4.0,2.5,0.1,49.7,49.7,14.2,00:00:31,15.3,308,125,--.--,68,0004:43:18,11.33,51,0,-1.00,--.--,-11.33,--.--,0,--.--,--.--,--.--,--.--,--.--,--.--,--.--,0,10:13:36,2020-08-02,--.--,--.--,--.--,--.--,--.--,--.--,--.--,0.00,--.--,--.--,true,true,true,true,true,true,false,false,true,true,false,false,0.09,0.04,0.01,0.02,0.00,0.00,0.44,0.21,43.9452307,-78.8969804,17TPJ 68764 67939,0.0,0.0,309.8,3,10,--.--,--.--,--.--,0.0,0.0,0.0,0,0,0,--.--,--.--,--.--
2020-08-02 10:13:37.803,4.7,-31.4,307,0.2,-0.2,0.0,4.1,0.8,0.1,49.8,49.8,18.3,00:00:32,19.5,308,126,--.--,68,0004:43:18,11.33,51,0,-1.00,--.--,-11.33,--.--,0,--.--,--.--,--.--,--.--,--.--,--.--,--.--,0,10:13:37,2020-08-02,--.--,--.--,--.--,--.--,--.--,--.--,--.--,0.00,--.--,--.--,true,true,true,true,true,true,false,false,true,true,false,false,0.09,0.04,0.01,0.02,0.00,0.00,0.44,0.21,43.9452555,-78.8970202,17TPJ 68760 67942,0.0,0.0,311.2,3,10,--.--,--.--,--.--,0.0,0.0,0.0,0,0,0,--.--,--.--,--.--
2020-08-02 10:13:38.820,4.2,-31.6,307,-0.1,-0.1,0.2,4.2,4.2,0.0,49.9,49.8,22.4,00:00:33,23.8,308,127,--.--,68,0004:43:18,11.33,51,0,-1.00,--.--,-11.33,--.--,0,--.--,--.--,--.--,--.--,--.--,--.--,--.--,0,10:13:38,2020-08-02,--.--,--.--,--.--,--.--,--.--,--.--,--.--,0.00,--.--,--.--,true,true,true,true,true,true,false,false,true,true,false,false,0.03,0.05,0.00,0.01,0.00,0.00,0.44,0.21,43.9452808,-78.8970603,17TPJ 68757 67945,0.0,0.0,310.9,3,10,--.--,--.--,--.--,0.0,0.0,0.0,0,0,0,--.--,--.--,--.--
2020-08-02 10:13:39.826,3.8,-32.0,307,0.1,-1.7,-0.0,4.2,5.5,0.0,49.9,49.9,26.6,00:00:34,28.0,308,127,--.--,69,0004:43:18,11.32,51,0,-1.00,--.--,-11.32,--.--,0,--.--,--.--,--.--,--.--,--.--,--.--,--.--,0,10:13:39,2020-08-02,--.--,--.--,--.--,--.--,--.--,--.--,--.--,0.00,--.--,--.--,true,true,true,true,true,true,false,false,true,true,false,false,0.03,0.05,0.00,0.01,0.00,0.00,0.44,0.21,43.9453059,-78.8971010,17TPJ 68754 67947,0.0,0.0,310.4,3,10,--.--,--.--,--.--,0.0,0.0,0.0,0,0,0,--.--,--.--,--.--
2020-08-02 10:13:40.823,3.8,-33.1,307,-0.0,-0.4,-0.2,4.4,4.5,-0.0,49.9,49.9,30.6,00:00:35,32.3,308,127,--.--,69,0004:43:18,11.32,51,0,-1.00,--.--,-11.32,--.--,0,--.--,--.--,--.--,--.--,--.--,--.--,--.--,0,10:13:40,2020-08-02,--.--,--.--,--.--,--.--,--.--,--.--,--.--,0.00,--.--,--.--,true,true,true,true,true,true,false,false,true,true,false,false,0.03,0.01,0.00,0.00,0.00,0.00,0.42,0.21,43.9453310,-78.8971430,17TPJ 68750 67950,0.0,0.0,308.9,3,10,--.--,--.--,--.--,0.0,0.0,0.0,0,0,0,--.--,--.--,--.--
2020-08-02 10:13:41.807,3.8,-33.2,307,0.2,0.1,-0.0,4.4,1.2,-0.0,50.0,49.9,34.7,00:00:36,36.6,308,128,--.--,70,0004:43:18,11.32,51,0,-1.00,--.--,-11.32,--.--,0,--.--,--.--,--.--,--.--,--.--,--.--,--.--,0,10:13:41,2020-08-02,--.--,--.--,--.--,--.--,--.--,--.--,--.--,0.00,--.--,--.--,true,true,true,true,true,true,false,false,true,true,false,false,0.03,0.01,0.00,0.00,0.00,0.00,0.42,0.21,43.9453564,-78.8971868,17TPJ 68747 67953,0.0,0.0,308.5,3,10,--.--,--.--,--.--,0.0,0.0,0.0,0,0,0,--.--,--.--,--.--
2020-08-02 10:13:42.810,3.8,-33.4,307,0.3,0.5,0.2,4.5,3.8,-0.0,50.0,50.0,40.8,00:00:37,41.1,308,128,--.--,70,0004:43:18,11.32,51,0,-1.00,--.--,-11.32,--.--,0,--.--,--.--,--.--,--.--,--.--,--.--,--.--,0,10:13:42,2020-08-02,--.--,--.--,--.--,--.--,--.--,--.--,--.--,0.00,--.--,--.--,true,true,true,true,true,true,false,false,true,true,false,false,0.02,0.03,0.00,0.01,0.00,0.00,0.42,0.20,43.9453821,-78.8972319,17TPJ 68743 67955,0.0,0.0,308.1,3,10,--.--,--.--,--.--,0.0,0.0,0.0,0,0,0,--.--,--.--,--.--
2020-08-02 10:13:43.822,3.8,-33.6,307,0.0,-0.1,0.2,4.5,4.9,-0.0,50.0,50.0,44.9,00:00:38,45.7,308,128,--.--,70,0004:43:18,11.32,51,0,-1.00,--.--,-11.32,--.--,0,--.--,--.--,--.--,--.--,--.--,--.--,--.--,0,10:13:43,2020-08-02,--.--,--.--,--.--,--.--,--.--,--.--,--.--,0.00,--.--,--.--,true,true,true,true,true,true,false,false,true,true,false,false,0.02,0.03,0.00,0.01,0.00,0.00,0.42,0.20,43.9454080,-78.8972773,17TPJ 68739 67958,0.0,0.0,308.1,3,10,--.--,--.--,--.--,0.0,0.0,0.0,0,0,0,--.--,--.--,--.--
2020-08-02 10:13:44.807,3.8,-34.2,307,-0.2,-0.3,0.1,4.6,4.8,-0.0,50.0,50.0,48.9,00:00:39,50.3,308,128,--.--,70,0004:43:18,11.32,51,0,-1.00,--.--,-11.32,--.--,0,--.--,--.--,--.--,--.--,--.--,--.--,--.--,0,10:13:44,2020-08-02,--.--,--.--,--.--,--.--,--.--,--.--,--.--,0.00,--.--,--.--,true,true,true,true,true,true,false,false,true,true,false,false,0.01,0.03,0.00,0.02,0.00,0.00,0.43,0.20,43.9454290,-78.8973141,17TPJ 68736 67960,0.0,0.0,308.1,3,10,--.--,--.--,--.--,0.0,0.0,0.0,0,0,0,--.--,--.--,--.--
2020-08-02 10:13:45.824,3.8,-34.3,307,0.1,-0.3,0.1,4.6,4.2,-0.0,50.0,50.0,53.0,00:00:40,54.9,308,128,--.--,70,0004:43:18,11.32,51,0,-1.00,--.--,-11.32,--.--,0,--.--,--.--,--.--,--.--,--.--,--.--,--.--,0,10:13:45,2020-08-02,--.--,--.--,--.--,--.--,--.--,--.--,--.--,0.00,--.--,--.--,true,true,true,true,true,true,false,false,true,true,false,false,0.01,0.03,0.00,0.02,0.00,0.00,0.43,0.20,43.9454550,-78.8973604,17TPJ 68733 67963,0.0,0.0,307.9,3,10,--.--,--.--,--.--,0.0,0.0,0.0,0,0,0,--.--,--.--,--.--
2020-08-02 10:13:46.807,3.8,-34.4,307,0.7,0.2,0.0,4.7,5.2,0.0,50.0,50.0,59.2,00:00:41,59.6,308,128,--.--,70,0004:43:18,11.32,51,0,-1.00,--.--,-11.32,--.--,0,--.--,--.--,--.--,--.--,--.--,--.--,--.--,0,10:13:46,2020-08-02,--.--,--.--,--.--,--.--,--.--,--.--,--.--,0.00,--.--,--.--,true,true,true,true,true,true,false,false,true,true,false,false,0.02,0.02,0.00,0.00,0.00,0.00,0.43,0.20,43.9454815,-78.8974074,17TPJ 68729 67966,0.0,0.0,308.2,3,10,--.--,--.--,--.--,0.0,0.0,0.0,0,0,0,--.--,--.--,--.--
2020-08-02 10:13:47.824,3.9,-34.4,307,0.0,0.6,0.3,4.7,4.1,-0.0,50.0,50.0,63.4,00:00:42,64.4,308,128,--.--,71,0004:43:18,11.32,51,0,-1.00,--.--,-11.32,--.--,0,--.--,--.--,--.--,--.--,--.--,--.--,--.--,0,10:13:47,2020-08-02,--.--,--.--,--.--,--.--,--.--,--.--,--.--,0.00,--.--,--.--,true,true,true,true,true,true,false,false,true,true,false,false,0.02,0.02,0.00,0.00,0.00,0.00,0.43,0.20,43.9455082,-78.8974549,17TPJ 68725 67969,0.0,0.0,308.4,3,10,--.--,--.--,--.--,0.0,0.0,0.0,0,0,0,--.--,--.--,--.--
2020-08-02 10:13:48.808,3.9,-34.5,307,-0.2,-0.1,0.5,4.7,2.3,-0.0,50.0,50.0,67.5,00:00:43,69.2,308,128,--.--,71,0004:43:18,11.32,51,0,-1.00,--.--,-11.32,--.--,0,--.--,--.--,--.--,--.--,--.--,--.--,--.--,0,10:13:48,2020-08-02,--.--,--.--,--.--,--.--,--.--,--.--,--.--,0.00,--.--,--.--,true,true,true,true,true,true,false,false,true,true,false,false,0.02,0.03,0.00,0.00,0.00,0.00,0.43,0.20,43.9455350,-78.8975024,17TPJ 68721 67972,0.0,0.0,308.1,3,10,--.--,--.--,--.--,0.0,0.0,0.0,0,0,0,--.--,--.--,--.--
2020-08-02 10:13:49.825,3.9,-34.7,307,0.2,-1.7,0.2,4.7,3.4,-0.0,50.0,50.0,73.6,00:00:44,74.0,308,128,--.--,71,0004:43:18,11.32,51,0,-1.00,--.--,-11.32,--.--,0,--.--,--.--,--.--,--.--,--.--,--.--,--.--,0,10:13:49,2020-08-02,--.--,--.--,--.--,--.--,--.--,--.--,--.--,0.00,--.--,--.--,true,true,true,true,true,true,false,false,true,true,false,false,0.02,0.03,0.00,0.00,0.00,0.00,0.43,0.20,43.9455620,-78.8975504,17TPJ 68717 67975,0.0,0.0,308.1,3,10,--.--,--.--,--.--,0.0,0.0,0.0,0,0,0,--.--,--.--,--.--
2020-08-02 10:13:50.809,3.9,-34.6,307,-0.1,0.6,0.2,4.8,5.3,-0.0,50.0,50.0,77.6,00:00:45,78.8,308,128,--.--,71,0004:43:18,11.32,51,0,-1.00,--.--,-11.32,--.--,0,--.--,--.--,--.--,--.--,--.--,--.--,--.--,0,10:13:50,2020-08-02,--.--,--.--,--.--,--.--,--.--,--.--,--.--,0.00,--.--,--.--,true,true,true,true,true,true,false,false,true,true,false,false,0.03,0.04,0.01,0.01,0.00,0.00,0.42,0.20,43.9455890,-78.8975983,17TPJ 68713 67978,0.0,0.0,308.0,3,10,--.--,--.--,--.--,0.0,0.0,0.0,0,0,0,--.--,--.--,--.--
2020-08-02 10:13:51.810,3.9,-34.8,307,0.2,0.3,-0.0,4.8,3.2,-0.0,50.0,50.0,81.7,00:00:46,83.6,308,128,--.--,71,0004:43:18,11.32,51,0,-1.00,--.--,-11.32,--.--,0,--.--,--.--,--.--,--.--,--.--,--.--,--.--,0,10:13:51,2020-08-02,--.--,--.--,--.--,--.--,--.--,--.--,--.--,0.00,--.--,--.--,true,true,true,true,true,true,false,false,true,true,false,false,0.03,0.04,0.01,0.01,0.00,0.00,0.42,0.20,43.9456160,-78.8976466,17TPJ 68709 67981,0.0,0.0,307.9,3,10,--.--,--.--,--.--,0.0,0.0,0.0,0,0,0,--.--,--.--,--.--
2020-08-02 10:13:52.809,3.8,-34.9,307,-0.2,-0.1,0.0,4.8,4.0,-0.0,50.0,50.0,87.9,00:00:47,88.5,308,128,--.--,71,0004:43:18,11.32,51,0,-1.00,--.--,-11.32,--.--,0,--.--,--.--,--.--,--.--,--.--,--.--,--.--,0,10:13:52,2020-08-02,--.--,--.--,--.--,--.--,--.--,--.--,--.--,0.00,--.--,--.--,true,true,true,true,true,true,false,false,true,true,false,false,0.02,0.02,0.00,0.01,0.00,0.00,0.42,0.20,43.9456432,-78.8976954,17TPJ 68705 67983,0.0,0.0,307.8,3,10,--.--,--.--,--.--,0.0,0.0,0.0,0,0,0,--.--,--.--,--.--
2020-08-02 10:13:53.826,3.9,-35.2,307,0.3,-1.4,0.1,4.8,2.7,-0.0,50.0,50.0,92.0,00:00:48,93.3,308,128,--.--,71,0004:43:18,11.32,51,0,-1.00,--.--,-11.32,--.--,0,--.--,--.--,--.--,--.--,--.--,--.--,--.--,0,10:13:53,2020-08-02,--.--,--.--,--.--,--.--,--.--,--.--,--.--,0.00,--.--,--.--,true,true,true,true,true,true,false,false,true,true,false,false,0.02,0.02,0.00,0.01,0.00,0.00,0.42,0.20,43.9456701,-78.8977441,17TPJ 68701 67986,0.0,0.0,307.2,3,10,--.--,--.--,--.--,0.0,0.0,0.0,0,0,0,--.--,--.--,--.--
2020-08-02 10:13:54.827,4.0,-35.3,307,-0.3,0.4,0.0,4.9,4.4,-0.0,50.0,50.0,98.1,00:00:49,98.1,308,128,--.--,71,0004:43:18,11.32,51,0,-1.00,--.--,-11.32,--.--,0,--.--,--.--,--.--,--.--,--.--,--.--,--.--,0,10:13:54,2020-08-02,--.--,--.--,--.--,--.--,--.--,--.--,--.--,0.00,--.--,--.--,true,true,true,true,true,true,false,false,true,true,false,false,0.02,0.02,0.01,0.01,0.00,0.00,0.43,0.20,43.9456971,-78.8977932,17TPJ 68697 67989,0.0,0.0,307.5,3,10,--.--,--.--,--.--,0.0,0.0,0.0,0,0,0,--.--,--.--,--.--
2020-08-02 10:13:55.810,4.0,-35.2,307,-0.1,0.3,-0.4,4.9,2.8,-0.0,50.0,50.0,102.2,00:00:50,103.0,308,128,--.--,71,0004:43:18,11.32,51,0,-1.00,--.--,-11.32,--.--,0,--.--,--.--,--.--,--.--,--.--,--.--,--.--,0,10:13:55,2020-08-02,--.--,--.--,--.--,--.--,--.--,--.--,--.--,0.00,--.--,--.--,true,true,true,true,true,true,false,false,true,true,false,false,0.02,0.02,0.01,0.01,0.00,0.00,0.43,0.20,43.9457246,-78.8978430,17TPJ 68693 67992,0.0,0.0,307.3,3,10,--.--,--.--,--.--,0.0,0.0,0.0,0,0,0,--.--,--.--,--.--
2020-08-02 10:13:56.810,4.1,-35.2,307,-0.0,0.2,-0.2,4.9,3.9,0.0,50.0,50.0,106.4,00:00:51,107.9,308,128,--.--,71,0004:43:18,11.32,51,0,-1.00,--.--,-11.32,--.--,0,--.--,--.--,--.--,--.--,--.--,--.--,--.--,0,10:13:56,2020-08-02,--.--,--.--,--.--,--.--,--.--,--.--,--.--,0.00,--.--,--.--,true,true,true,true,true,true,false,false,true,true,false,false,0.01,0.02,0.00,0.04,0.00,0.00,0.43,0.20,43.9457519,-78.8978926,17TPJ 68689 67995,0.0,0.0,307.5,3,10,--.--,--.--,--.--,0.0,0.0,0.0,0,0,0,--.--,--.--,--.--
2020-08-02 10:13:57.827,4.2,-35.2,307,0.3,0.5,-0.0,4.9,4.0,0.0,50.0,50.0,112.6,00:00:52,112.9,308,128,--.--,71,0004:43:18,11.32,51,0,-1.00,--.--,-11.32,--.--,0,--.--,--.--,--.--,--.--,--.--,--.--,--.--,0,10:13:57,2020-08-02,--.--,--.--,--.--,--.--,--.--,--.--,--.--,0.00,--.--,--.--,true,true,true,true,true,true,false,false,true,true,false,false,0.01,0.02,0.00,0.04,0.00,0.00,0.43,0.20,43.9457794,-78.8979424,17TPJ 68685 67998,0.0,0.0,307.7,3,10,--.--,--.--,--.--,0.0,0.0,0.0,0,0,0,--.--,--.--,--.--
2020-08-02 10:13:58.811,4.3,-35.4,307,0.1,-0.8,-0.4,4.9,3.0,0.0,50.0,50.0,116.8,00:00:53,117.8,308,128,--.--,71,0004:43:18,11.32,51,0,-1.00,--.--,-11.32,--.--,0,--.--,--.--,--.--,--.--,--.--,--.--,--.--,0,10:13:58,2020-08-02,--.--,--.--,--.--,--.--,--.--,--.--,--.--,0.00,--.--,--.--,true,true,true,true,true,true,false,false,true,true,false,false,0.01,0.05,0.01,0.00,0.00,0.00,0.42,0.20,43.9458013,-78.8979818,17TPJ 68682 68000,0.0,0.0,307.8,3,10,--.--,--.--,--.--,0.0,0.0,0.0,0,0,0,--.--,--.--,--.--
2020-08-02 10:13:59.811,4.4,-35.7,307,0.2,0.9,0.0,4.9,3.9,0.0,50.0,50.0,120.9,00:00:54,122.6,308,128,--.--,72,0004:43:18,11.32,51,0,-1.00,--.--,-11.32,--.--,0,--.--,--.--,--.--,--.--,--.--,--.--,--.--,0,10:13:59,2020-08-02,--.--,--.--,--.--,--.--,--.--,--.--,--.--,0.00,--.--,--.--,true,true,true,true,true,true,false,false,true,true,false,false,0.01,0.05,0.01,0.00,0.00,0.00,0.42,0.20,43.9458290,-78.8980316,17TPJ 68678 68003,0.0,0.0,307.5,3,10,--.--,--.--,--.--,0.0,0.0,0.0,0,0,0,--.--,--.--,--.--
2020-08-02 10:14:00.828,4.5,-35.7,307,0.2,-0.6,-0.6,4.9,1.1,0.0,50.0,50.0,127.0,00:00:55,127.6,308,128,--.--,72,0004:43:18,11.32,51,0,-1.00,--.--,-11.32,--.--,0,--.--,--.--,--.--,--.--,--.--,--.--,--.--,0,10:14:00,2020-08-02,--.--,--.--,--.--,--.--,--.--,--.--,--.--,0.00,--.--,--.--,true,true,true,true,true,true,false,false,true,true,false,false,0.01,0.01,0.01,0.02,0.00,0.00,0.42,0.20,43.9458568,-78.8980815,17TPJ 68674 68006,0.0,0.0,307.7,3,10,--.--,--.--,--.--,0.0,0.0,0.0,0,0,0,--.--,--.--,--.--
2020-08-02 10:14:01.828,4.4,-35.6,307,-0.3,0.1,0.0,4.9,4.4,0.0,50.0,50.0,131.2,00:00:56,132.6,308,128,--.--,72,0004:43:18,11.32,51,0,-1.00,--.--,-11.32,--.--,0,--.--,--.--,--.--,--.--,--.--,--.--,--.--,0,10:14:01,2020-08-02,--.--,--.--,--.--,--.--,--.--,--.--,--.--,0.00,--.--,--.--,true,true,true,true,true,true,false,false,true,true,false,false,0.01,0.01,0.01,0.02,0.00,0.00,0.42,0.20,43.9458848,-78.8981318,17TPJ 68669 68009,0.0,0.0,307.8,3,10,--.--,--.--,--.--,0.0,0.0,0.0,0,0,0,--.--,--.--,--.--
2020-08-02 10:14:02.830,4.4,-35.4,307,0.0,0.0,-0.3,4.9,1.6,0.0,50.0,50.0,137.2,00:00:57,137.5,308,128,--.--,72,0004:43:18,11.32,51,0,-1.00,--.--,-11.32,--.--,0,--.--,--.--,--.--,--.--,--.--,--.--,--.--,0,10:14:02,2020-08-02,--.--,--.--,--.--,--.--,--.--,--.--,--.--,0.00,--.--,--.--,true,true,true,true,true,true,false,false,true,true,false,false,0.01,0.03,0.00,0.01,0.00,0.00,0.41,0.20,43.9459127,-78.8981818,17TPJ 68665 68012,0.0,0.0,308.0,3,10,--.--,--.--,--.--,0.0,0.0,0.0,0,0,0,--.--,--.--,--.--
2020-08-02 10:14:03.831,4.3,-35.4,307,0.4,-0.1,0.1,4.9,3.9,0.0,50.0,50.0,141.3,00:00:58,142.6,308,128,--.--,72,0004:43:18,11.32,51,0,-1.00,--.--,-11.32,--.--,0,--.--,--.--,--.--,--.--,--.--,--.--,--.--,0,10:14:03,2020-08-02,--.--,--.--,--.--,--.--,--.--,--.--,--.--,0.00,--.--,--.--,true,true,true,true,true,true,false,false,true,true,false,false,0.01,0.03,0.00,0.01,0.00,0.00,0.41,0.20,43.9459407,-78.8982321,17TPJ 68661 68015,0.0,0.0,307.2,3,10,--.--,--.--,--.--,0.0,0.0,0.0,0,0,0,--.--,--.--,--.--
2020-08-02 10:14:04.829,4.4,-35.8,307,-0.0,-0.1,0.0,5.0,4.9,0.0,50.0,50.0,147.5,00:00:59,147.4,308,128,--.--,72,0004:43:18,11.32,51,0,-1.00,--.--,-11.32,--.--,0,--.--,--.--,--.--,--.--,--.--,--.--,--.--,0,10:14:04,2020-08-02,--.--,--.--,--.--,--.--,--.--,--.--,--.--,0.00,--.--,--.--,true,true,true,true,true,true,false,false,true,true,false,false,0.01,0.01,0.01,0.00,0.00,0.00,0.43,0.20,43.9459682,-78.8982820,17TPJ 68657 68018,0.0,0.0,307.2,3,10,--.--,--.--,--.--,0.0,0.0,0.0,0,0,0,--.--,--.--,--.--
2020-08-02 10:14:05.812,4.5,-35.8,307,0.3,-0.7,-0.4,5.0,5.0,0.0,50.0,50.0,151.6,00:01:00,152.4,308,128,--.--,72,0004:43:18,11.32,51,0,-1.00,--.--,-11.32,--.--,0,--.--,--.--,--.--,--.--,--.--,--.--,--.--,0,10:14:05,2020-08-02,--.--,--.--,--.--,--.--,--.--,--.--,--.--,0.00,--.--,--.--,true,true,true,true,true,true,false,false,true,true,false,false,0.01,0.01,0.01,0.00,0.00,0.00,0.43,0.20,43.9459961,-78.8983328,17TPJ 68653 68021,0.0,0.0,307.4,3,10,--.--,--.--,--.--,0.0,0.0,0.0,0,0,0,--.--,--.--,--.--
2020-08-02 10:14:06.815,4.7,-35.8,307,0.5,-0.2,0.2,5.0,3.6,-0.0,50.0,50.0,155.7,00:01:01,157.4,308,128,--.--,72,0004:43:18,11.32,51,0,-1.00,--.--,-11.32,--.--,0,--.--,--.--,--.--,--.--,--.--,--.--,--.--,0,10:14:06,2020-08-02,--.--,--.--,--.--,--.--,--.--,--.--,--.--,0.00,--.--,--.--,true,true,true,true,true,true,false,false,true,true,false,false,0.02,0.02,0.00,0.00,0.00,0.00,0.43,0.20,43.9460241,-78.8983833,17TPJ 68649 68024,0.0,0.0,308.0,3,10,--.--,--.--,--.--,0.0,0.0,0.0,0,0,0,--.--,--.--,--.--
2020-08-02 10:14:07.814,4.7,-35.5,307,-0.1,-0.1,0.1,5.0,3.4,-0.0,50.0,50.0,161.7,00:01:02,162.5,308,128,--.--,72,0004:43:18,11.32,51,0,-1.00,--.--,-11.32,--.--,0,--.--,--.--,--.--,--.--,--.--,--.--,--.--,0,10:14:07,2020-08-02,--.--,--.--,--.--,--.--,--.--,--.--,--.--,0.00,--.--,--.--,true,true,true,true,true,true,false,false,true,true,false,false,0.02,0.02,0.00,0.00,0.00,0.00,0.43,0.20,43.9460522,-78.8984333,17TPJ 68645 68027,0.0,0.0,308.1,3,10,--.--,--.--,--.--,0.0,0.0,0.0,0,0,0,--.--,--.--,--.--
2020-08-02 10:14:08.804,4.6,-35.4,307,-0.6,0.4,0.2,4.9,4.5,-0.0,50.0,50.0,165.7,00:01:03,167.5,308,128,--.--,71,0004:43:18,11.32,51,0,-1.00,--.--,-11.32,--.--,0,--.--,--.--,--.--,--.--,--.--,--.--,--.--,0,10:14:08,2020-08-02,--.--,--.--,--.--,--.--,--.--,--.--,--.--,0.00,--.--,--.--,true,true,true,true,true,true,false,false,true,true,false,false,0.01,0.03,0.00,0.02,0.00,0.00,0.43,0.20,43.9460746,-78.8984730,17TPJ 68642 68030,0.0,0.0,308.2,3,10,--.--,--.--,--.--,0.0,0.0,0.0,0,0,0,--.--,--.--,--.--
2020-08-02 10:14:09.814,4.6,-36.1,307,0.2,0.8,-0.2,5.0,4.6,-0.0,50.0,50.0,171.8,00:01:04,172.4,308,128,--.--,72,0004:43:18,11.32,51,0,-1.00,--.--,-11.32,--.--,0,--.--,--.--,--.--,--.--,--.--,--.--,--.--,0,10:14:09,2020-08-02,--.--,--.--,--.--,--.--,--.--,--.--,--.--,0.00,--.--,--.--,true,true,true,true,true,true,false,false,true,true,false,false,0.01,0.03,0.00,0.02,0.00,0.00,0.43,0.20,43.9461026,-78.8985227,17TPJ 68637 68033,0.0,0.0,307.8,3,10,--.--,--.--,--.--,0.0,0.0,0.0,0,0,0,--.--,--.--,--.--
2020-08-02 10:14:10.815,4.5,-36.1,307,-0.0,0.8,-0.1,5.0,3.9,-0.0,50.0,50.0,175.9,00:01:05,177.3,308,128,--.--,72,0004:43:18,11.32,51,0,-1.00,--.--,-11.32,--.--,0,--.--,--.--,--.--,--.--,--.--,--.--,--.--,0,10:14:10,2020-08-02,--.--,--.--,--.--,--.--,--.--,--.--,--.--,0.00,--.--,--.--,true,true,true,true,true,true,false,false,true,true,false,false,0.01,0.00,0.00,0.00,0.00,0.00,0.42,0.20,43.9461306,-78.8985728,17TPJ 68633 68036,0.0,0.0,307.9,3,10,--.--,--.--,--.--,0.0,0.0,0.0,0,0,0,--.--,--.--,--.--
2020-08-02 10:14:11.817,4.7,-35.9,307,0.4,0.7,-0.4,5.0,5.1,-0.0,50.0,50.0,182.1,00:01:06,182.3,308,128,--.--,72,0004:43:18,11.32,51,0,-1.00,--.--,-11.32,--.--,0,--.--,--.--,--.--,--.--,--.--,--.--,--.--,0,10:14:11,2020-08-02,--.--,--.--,--.--,--.--,--.--,--.--,--.--,0.00,--.--,--.--,true,true,true,true,true,true,false,false,true,true,false,false,0.01,0.00,0.00,0.00,0.00,0.00,0.42,0.20,43.9461590,-78.8986238,17TPJ 68629 68039,0.0,0.0,307.4,3,10,--.--,--.--,--.--,0.0,0.0,0.0,0,0,0,--.--,--.--,--.--
2020-08-02 10:14:12.804,4.7,-35.7,307,0.0,0.2,-0.1,5.0,5.2,-0.0,50.0,50.0,186.1,00:01:07,187.3,308,128,--.--,72,0004:43:18,11.32,51,0,-1.00,--.--,-11.32,--.--,0,--.--,--.--,--.--,--.--,--.--,--.--,--.--,0,10:14:12,2020-08-02,--.--,--.--,--.--,--.--,--.--,--.--,--.--,0.00,--.--,--.--,true,true,true,true,true,true,false,false,true,true,false,false,0.01,0.03,0.00,0.00,0.00,0.00,0.41,0.20,43.9461872,-78.8986744,17TPJ 68625 68042,0.0,0.0,308.3,3,10,--.--,--.--,--.--,0.0,0.0,0.0,0,0,0,--.--,--.--,--.--
2020-08-02 10:14:13.804,4.7,-35.5,307,-0.0,0.1,-0.2,5.0,4.3,-0.0,50.0,50.0,192.2,00:01:08,192.3,308,128,--.--,71,0004:43:18,11.32,51,0,-1.00,--.--,-11.32,--.--,0,--.--,--.--,--.--,--.--,--.--,--.--,--.--,0,10:14:13,2020-08-02,--.--,--.--,--.--,--.--,--.--,--.--,--.--,0.00,--.--,--.--,true,true,true,true,true,true,false,false,true,true,false,false,0.01,0.03,0.00,0.00,0.00,0.00,0.41,0.20,43.9462153,-78.8987241,17TPJ 68621 68045,0.0,0.0,308.1,3,10,--.--,--.--,--.--,0.0,0.0,0.0,0,0,0,--.--,--.--,--.--
2020-08-02 10:14:14.816,4.6,-36.2,307,0.2,0.3,-0.1,5.0,5.2,-0.0,50.0,50.0,196.3,00:01:09,197.3,308,128,--.--,72,0004:43:18,11.32,51,0,-1.00,--.--,-11.32,--.--,0,--.--,--.--,--.--,--.--,--.--,--.--,--.--,0,10:14:14,2020-08-02,--.--,--.--,--.--,--.--,--.--,--.--,--.--,0.00,--.--,--.--,true,true,true,true,true,true,false,false,true,true,false,false,0.01,0.02,0.00,0.02,0.00,0.00,0.43,0.20,43.9462434,-78.8987740,17TPJ 68617 68048,0.0,0.0,308.1,3,10,--.--,--.--,--.--,0.0,0.0,0.0,0,0,0,--.--,--.--,--.--
2020-08-02 10:14:15.804,4.7,-36.2,307,-0.2,0.5,-0.1,5.0,2.8,-0.0,50.0,50.0,200.4,00:01:10,202.2,308,128,--.--,72,0004:43:18,11.32,51,0,-1.00,--.--,-11.32,--.--,0,--.--,--.--,--.--,--.--,--.--,--.--,--.--,0,10:14:15,2020-08-02,--.--,--.--,--.--,--.--,--.--,--.--,--.--,0.00,--.--,--.--,true,true,true,true,true,true,false,false,true,true,false,false,0.01,0.02,0.00,0.02,0.00,0.00,0.43,0.20,43.9462715,-78.8988241,17TPJ 68613 68051,0.0,0.0,308.0,3,10,--.--,--.--,--.--,0.0,0.0,0.0,0,0,0,--.--,--.--,--.--
2020-08-02 10:14:16.804,4.8,-36.0,307,0.2,0.1,-0.0,5.0,5.7,-0.0,50.0,50.0,206.6,00:01:11,207.2,308,128,--.--,72,0004:43:18,11.32,51,0,-1.00,--.--,-11.32,--.--,0,--.--,--.--,--.--,--.--,--.--,--.--,--.--,0,10:14:16,2020-08-02,--.--,--.--,--.--,--.--,--.--,--.--,--.--,0.00,--.--,--.--,true,true,true,true,true,true,false,false,true,true,false,false,0.01,0.02,0.00,0.01,0.00,0.00,0.43,0.20,43.9463000,-78.8988751,17TPJ 68609 68054,0.0,0.0,307.9,3,10,--.--,--.--,--.--,0.0,0.0,0.0,0,0,0,--.--,--.--,--.--
2020-08-02 10:14:17.804,4.7,-35.8,307,-0.5,-0.5,-0.2,5.0,3.9,-0.0,50.0,50.0,210.7,00:01:12,212.3,308,128,--.--,71,0004:43:18,11.32,51,0,-1.00,--.--,-11.32,--.--,0,--.--,--.--,--.--,--.--,--.--,--.--,--.--,0,10:14:17,2020-08-02,--.--,--.--,--.--,--.--,--.--,--.--,--.--,0.00,--.--,--.--,true,true,true,true,true,true,false,false,true,true,false,false,0.01,0.02,0.00,0.01,0.00,0.00,0.43,0.20,43.9463282,-78.8989252,17TPJ 68605 68057,0.0,0.0,308.1,3,10,--.--,--.--,--.--,0.0,0.0,0.0,0,0,0,--.--,--.--,--.--
2020-08-02 10:14:18.818,4.7,-35.5,307,0.3,-0.1,-0.3,5.0,4.7,-0.0,50.0,50.0,216.7,00:01:13,217.5,308,128,--.--,71,0004:43:18,11.32,51,0,-1.00,--.--,-11.32,--.--,0,--.--,--.--,--.--,--.--,--.--,--.--,--.--,0,10:14:18,2020-08-02,--.--,--.--,--.--,--.--,--.--,--.--,--.--,0.00,--.--,--.--,true,true,true,true,true,true,false,false,true,true,false,false,0.02,0.03,0.00,0.00,0.00,0.00,0.43,0.20,43.9463565,-78.8989750,17TPJ 68600 68060,0.0,0.0,308.3,3,10,--.--,--.--,--.--,0.0,0.0,0.0,0,0,0,--.--,--.--,--.--
2020-08-02 10:14:19.819,4.7,-36.2,307,0.1,-1.3,0.2,5.0,0.9,0.0,50.0,50.0,220.7,00:01:14,222.4,308,128,--.--,72,0004:43:18,11.32,51,0,-1.00,--.--,-11.32,--.--,0,--.--,--.--,--.--,--.--,--.--,--.--,--.--,0,10:14:19,2020-08-02,--.--,--.--,--.--,--.--,--.--,--.--,--.--,0.00,--.--,--.--,true,true,true,true,true,true,false,false,true,true,false,false,0.02,0.03,0.00,0.00,0.00,0.00,0.43,0.20,43.9463787,-78.8990145,17TPJ 68597 68062,0.0,0.0,308.0,3,10,--.--,--.--,--.--,0.0,0.0,0.0,0,0,0,--.--,--.--,--.--
2020-08-02 10:14:20.820,4.6,-36.3,307,0.2,-0.3,-0.1,5.0,3.7,0.0,50.0,50.0,226.9,00:01:15,227.3,308,128,--.--,72,0004:43:18,11.32,51,0,-1.00,--.--,-11.32,--.--,0,--.--,--.--,--.--,--.--,--.--,--.--,--.--,0,10:14:20,2020-08-02,--.--,--.--,--.--,--.--,--.--,--.--,--.--,0.00,--.--,--.--,true,true,true,true,true,true,false,false,true,true,false,false,0.02,0.01,0.01,0.02,0.00,0.00,0.42,0.20,43.9464071,-78.8990647,17TPJ 68593 68066,0.0,0.0,307.8,3,10,--.--,--.--,--.--,0.0,0.0,0.0,0,0,0,--.--,--.--,--.--
2020-08-02 10:14:21.819,4.7,-36.1,307,-0.2,0.3,0.2,5.0,5.0,0.0,50.0,50.0,231.0,00:01:16,232.3,308,128,--.--,72,0004:43:18,11.32,51,0,-1.00,--.--,-11.32,--.--,0,--.--,--.--,--.--,--.--,--.--,--.--,--.--,0,10:14:21,2020-08-02,--.--,--.--,--.--,--.--,--.--,--.--,--.--,0.00,--.--,--.--,true,true,true,true,true,true,false,false,true,true,false,false,0.02,0.01,0.01,0.02,0.00,0.00,0.42,0.20,43.9464352,-78.8991155,17TPJ 68589 68069,0.0,0.0,307.8,3,10,--.--,--.--,--.--,0.0,0.0,0.0,0,0,0,--.--,--.--,--.--
2020-08-02 10:14:22.819,4.5,-35.7,307,-0.4,0.2,0.3,5.0,-3.4,0.0,50.0,49.9,237.0,00:01:17,237.3,308,128,--.--,72,0004:43:18,11.32,51,0,-1.00,--.--,-11.32,--.--,0,--.--,--.--,--.--,--.--,--.--,--.--,--.--,0,10:14:22,2020-08-02,--.--,--.--,--.--,--.--,--.--,--.--,--.--,0.00,--.--,--.--,true,true,true,true,true,true,false,false,true,true,false,false,0.04,0.02,0.01,0.00,0.00,0.00,0.41,0.20,43.9464635,-78.8991666,17TPJ 68585 68072,0.0,0.0,307.5,3,10,--.--,--.--,--.--,0.0,0.0,0.0,0,0,0,--.--,--.--,--.--
2020-08-02 10:14:23.820,4.5,-35.5,307,0.5,0.2,-0.2,5.0,4.1,0.0,50.0,49.9,241.1,00:01:18,242.5,308,128,--.--,72,0004:43:18,11.32,51,0,-1.00,--.--,-11.32,--.--,0,--.--,--.--,--.--,--.--,--.--,--.--,--.--,0,10:14:23,2020-08-02,--.--,--.--,--.--,--.--,--.--,--.--,--.--,0.00,--.--,--.--,true,true,true,true,true,true,false,false,true,true,false,false,0.04,0.02,0.01,0.00,0.00,0.00,0.41,0.20,43.9464912,-78.8992171,17TPJ 68581 68075,0.0,0.0,307.0,3,10,--.--,--.--,--.--,0.0,0.0,0.0,0,0,0,--.--,--.--,--.--
2020-08-02 10:14:24.808,4.5,-36.1,307,0.2,-0.7,0.3,5.0,2.4,0.0,50.0,49.9,247.2,00:01:19,247.3,308,128,--.--,72,0004:43:18,11.32,51,0,-1.00,--.--,-11.32,--.--,0,--.--,--.--,--.--,--.--,--.--,--.--,--.--,0,10:14:24,2020-08-02,--.--,--.--,--.--,--.--,--.--,--.--,--.--,0.00,--.--,--.--,true,true,true,true,true,true,false,false,true,true,false,false,0.02,0.03,0.00,0.01,0.00,0.00,0.43,0.20,43.9465188,-78.8992677,17TPJ 68577 68078,0.0,0.0,306.9,3,10,--.--,--.--,--.--,0.0,0.0,0.0,0,0,0,--.--,--.--,--.--
2020-08-02 10:14:25.805,4.6,-36.3,307,0.1,0.7,-0.1,5.0,4.3,0.0,50.0,49.9,251.3,00:01:20,252.2,308,128,--.--,72,0004:43:18,11.32,51,0,-1.00,--.--,-11.32,--.--,0,--.--,--.--,--.--,--.--,--.--,--.--,--.--,0,10:14:25,2020-08-02,--.--,--.--,--.--,--.--,--.--,--.--,--.--,0.00,--.--,--.--,true,true,true,true,true,true,false,false,true,true,false,false,0.02,0.03,0.00,0.01,0.00,0.00,0.43,0.20,43.9465462,-78.8993187,17TPJ 68572 68080,0.0,0.0,306.8,3,10,--.--,--.--,--.--,0.0,0.0,0.0,0,0,0,--.--,--.--,--.--
2020-08-02 10:14:26.820,4.7,-35.9,307,-0.1,0.9,-0.0,5.0,5.2,0.0,50.0,49.9,255.4,00:01:21,257.3,308,128,--.--,72,0004:43:18,11.32,51,0,-1.00,--.--,-11.32,--.--,0,--.--,--.--,--.--,--.--,--.--,--.--,--.--,0,10:14:26,2020-08-02,--.--,--.--,--.--,--.--,--.--,--.--,--.--,0.00,--.--,--.--,true,true,true,true,true,true,false,false,true,true,false,false,0.03,0.02,0.01,0.01,0.00,0.00,0.43,0.20,43.9465740,-78.8993700,17TPJ 68568 68083,0.0,0.0,307.1,3,10,--.--,--.--,--.--,0.0,0.0,0.0,0,0,0,--.--,--.--,--.--
2020-08-02 10:14:27.821,4.8,-35.7,307,-0.1,0.4,0.1,5.0,4.9,0.0,50.0,50.0,261.5,00:01:22,262.2,308,128,--.--,72,0004:43:18,11.32,51,0,-1.00,--.--,-11.32,--.--,0,--.--,--.--,--.--,--.--,--.--,--.--,--.--,0,10:14:27,2020-08-02,--.--,--.--,--.--,--.--,--.--,--.--,--.--,0.00,--.--,--.--,true,true,true,true,true,true,false,false,true,true,false,false,0.03,0.02,0.01,0.01,0.00,0.00,0.43,0.20,43.9466022,-78.8994213,17TPJ 68564 68086,0.0,0.0,307.3,3,10,--.--,--.--,--.--,0.0,0.0,0.0,0,0,0,--.--,--.--,--.--
2020-08-02 10:14:28.821,4.8,-35.6,307,-0.3,-0.8,0.4,5.0,3.5,0.0,50.0,50.0,265.6,00:01:23,267.3,308,128,--.--,71,0004:43:18,11.32,51,0,-1.00,--.--,-11.32,--.--,0,--.--,--.--,--.--,--.--,--.--,--.--,--.--,0,10:14:28,2020-08-02,--.--,--.--,--.--,--.--,--.--,--.--,--.--,0.00,--.--,--.--,true,true,true,true,true,true,false,false,true,true,false,false,0.03,0.04,0.01,0.02,0.00,0.00,0.43,0.20,43.9466299,-78.8994716,17TPJ 68560 68089,0.0,0.0,307.8,3,10,--.--,--.--,--.--,0.0,0.0,0.0,0,0,0,--.--,--.--,--.--
2020-08-02 10:14:29.823,4.8,-36.1,307,-0.3,-1.1,0.0,4.9,4.0,0.0,50.0,50.0,271.7,00:01:24,272.2,308,128,--.--,72,0004:43:18,11.32,51,0,-1.00,--.--,-11.32,--.--,0,--.--,--.--,--.--,--.--,--.--,--.--,--.--,0,10:14:29,2020-08-02,--.--,--.--,--.--,--.--,--.--,--.--,--.--,0.00,--.--,--.--,true,true,true,true,true,true,false,false,true,true,false,false,0.03,0.04,0.01,0.02,0.00,0.00,0.43,0.20,43.9466522,-78.8995116,17TPJ 68557 68092,0.0,0.0,307.7,3,10,--.--,--.--,--.--,0.0,0.0,0.0,0,0,0,--.--,--.--,--.--
2020-08-02 10:14:30.808,4.8,-36.3,307,0.2,1.1,0.1,5.0,5.2,0.0,50.0,50.0,275.8,00:01:25,277.1,308,128,--.--,72,0004:43:18,11.32,51,0,-1.00,--.--,-11.32,--.--,0,--.--,--.--,--.--,--.--,--.--,--.--,--.--,0,10:14:30,2020-08-02,--.--,--.--,--.--,--.--,--.--,--.--,--.--,0.00,--.--,--.--,true,true,true,true,true,true,false,false,true,true,false,false,0.03,0.02,0.01,0.00,0.00,0.00,0.42,0.20,43.9466801,-78.8995618,17TPJ 68552 68095,0.0,0.0,307.6,3,10,--.--,--.--,--.--,0.0,0.0,0.0,0,0,0,--.--,--.--,--.--
2020-08-02 10:14:31.805,4.9,-36.1,308,0.1,0.6,-0.1,5.0,3.8,0.0,50.0,50.0,281.9,00:01:26,282.2,308,128,--.--,72,0004:43:18,11.32,51,0,-1.00,--.--,-11.32,--.--,0,--.--,--.--,--.--,--.--,--.--,--.--,--.--,0,10:14:31,2020-08-02,--.--,--.--,--.--,--.--,--.--,--.--,--.--,0.00,--.--,--.--,true,true,true,true,true,true,false,false,true,true,false,false,0.03,0.02,0.01,0.00,0.00,0.00,0.42,0.20,43.9467087,-78.8996130,17TPJ 68548 68098,0.0,0.0,307.7,3,10,--.--,--.--,--.--,0.0,0.0,0.0,0,0,0,--.--,--.--,--.--
2020-08-02 10:14:32.806,4.8,-35.7,308,0.2,0.8,-0.1,5.0,-1.6,0.0,50.0,50.0,286.0,00:01:27,287.3,308,128,--.--,72,0004:43:18,11.32,51,0,-1.00,--.--,-11.32,--.--,0,--.--,--.--,--.--,--.--,--.--,--.--,--.--,0,10:14:32,2020-08-02,--.--,--.--,--.--,--.--,--.--,--.--,--.--,0.00,--.--,--.--,true,true,true,true,true,true,false,false,true,true,false,false,0.03,0.04,0.00,0.01,0.00,0.00,0.41,0.20,43.9467370,-78.8996636,17TPJ 68544 68101,0.0,0.0,308.1,3,10,--.--,--.--,--.--,0.0,0.0,0.0,0,0,0,--.--,--.--,--.--
2020-08-02 10:14:33.808,4.7,-35.5,308,-0.0,-0.7,-0.2,4.9,4.5,0.0,50.0,49.9,292.1,00:01:28,292.3,308,128,--.--,71,0004:43:18,11.32,51,0,-1.00,--.--,-11.32,--.--,0,--.--,--.--,--.--,--.--,--.--,--.--,--.--,0,10:14:33,2020-08-02,--.--,--.--,--.--,--.--,--.--,--.--,--.--,0.00,--.--,--.--,true,true,true,true,true,true,false,false,true,true,false,false,0.03,0.04,0.00,0.01,0.00,0.00,0.41,0.20,43.9467652,-78.8997140,17TPJ 68540 68104,0.0,0.0,308.2,3,10,--.--,--.--,--.--,0.0,0.0,0.0,0,0,0,--.--,--.--,--.--
2020-08-02 10:14:34.807,4.6,-36.2,308,0.8,-1.2,-0.0,4.9,3.7,0.0,50.0,49.9,296.1,00:01:29,297.3,308,128,--.--,72,0004:43:18,11.32,51,0,-1.00,--.--,-11.32,--.--,0,--.--,--.--,--.--,--.--,--.--,--.--,--.--,0,10:14:34,2020-08-02,--.--,--.--,--.--,--.--,--.--,--.--,--.--,0.00,--.--,--.--,true,true,true,true,true,true,false,false,true,true,false,false,0.03,0.04,0.00,0.01,0.00,0.00,0.44,0.20,43.9467930,-78.8997636,17TPJ 68536 68107,0.0,0.0,308.0,3,10,--.--,--.--,--.--,0.0,0.0,0.0,0,0,0,--.--,--.--,--.--
2020-08-02 10:14:35.823,4.6,-36.4,308,0.8,-0.8,0.4,5.0,4.0,0.0,50.0,50.0,300.2,00:01:30,302.2,308,128,--.--,72,0004:43:18,11.32,51,0,-1.00,--.--,-11.32,--.--,0,--.--,--.--,--.--,--.--,--.--,--.--,--.--,0,10:14:35,2020-08-02,--.--,--.--,--.--,--.--,--.--,--.--,--.--,0.00,--.--,--.--,true,true,true,true,true,true,false,false,true,true,false,false,0.03,0.04,0.00,0.01,0.00,0.00,0.44,0.20,43.9468209,-78.8998140,17TPJ 68532 68110,0.0,0.0,307.7,3,10,--.--,--.--,--.--,0.0,0.0,0.0,0,0,0,--.--,--.--,--.--
2020-08-02 10:14:36.825,4.6,-34.3,308,2.9,20.4,-0.9,5.0,4.8,0.0,50.0,49.9,306.3,00:01:31,307.2,308,128,--.--,70,0004:43:18,11.32,51,0,-1.00,--.--,-11.32,--.--,0,--.--,--.--,--.--,--.--,--.--,--.--,--.--,0,10:14:36,2020-08-02,--.--,--.--,--.--,--.--,--.--,--.--,--.--,0.00,--.--,--.--,true,true,true,true,true,true,false,false,true,true,false,false,0.04,0.03,0.01,0.02,0.00,0.00,0.43,0.20,43.9468491,-78.8998648,17TPJ 68528 68113,0.0,0.0,307.9,3,10,--.--,--.--,--.--,0.0,0.0,0.0,0,0,0,--.--,--.--,--.--
2020-08-02 10:14:37.826,3.9,-17.0,309,0.1,9.5,-0.6,3.4,-1.6,0.0,49.9,49.9,310.4,00:01:32,311.4,308,128,--.--,63,0004:43:18,11.32,51,0,-1.00,--.--,-11.32,--.--,0,--.--,--.--,--.--,--.--,--.--,--.--,--.--,0,10:14:37,2020-08-02,--.--,--.--,--.--,--.--,--.--,--.--,--.--,0.00,--.--,--.--,true,true,true,true,true,true,false,false,true,true,false,false,0.04,0.03,0.01,0.02,0.00,0.00,0.43,0.20,43.9468755,-78.8999103,17TPJ 68524 68116,0.0,0.0,310.8,3,10,--.--,--.--,--.--,0.0,0.0,0.0,0,0,0,--.--,--.--,--.--
2020-08-02 10:14:38.827,2.9,-9.2,308,-3.1,7.4,-0.1,2.0,0.8,0.0,50.0,49.9,312.4,00:01:33,314.0,187,128,--.--,59,0004:43:18,11.32,51,0,-1.00,--.--,-11.32,--.--,0,--.--,--.--,--.--,--.--,--.--,--.--,--.--,0,10:14:38,2020-08-02,--.--,--.--,--.--,--.--,--.--,--.--,--.--,0.00,--.--,--.--,true,true,true,true,true,true,false,false,true,true,false,false,0.05,0.03,0.00,0.01,0.00,0.00,0.42,0.20,43.9468931,-78.8999366,17TPJ 68522 68118,0.0,0.0,315.0,3,10,--.--,--.--,--.--,0.0,0.0,0.0,0,0,0,--.--,--.--,--.--
2020-08-02 10:14:39.810,-10.1,-0.4,280,26.6,-1.2,-43.2,0.9,-1.9,0.0,50.0,50.0,314.4,00:01:34,315.3,187,128,--.--,57,0004:43:18,11.32,51,0,-1.00,--.--,-11.32,--.--,0,--.--,--.--,--.--,--.--,--.--,--.--,--.--,0,10:14:39,2020-08-02,--.--,--.--,--.--,--.--,--.--,--.--,--.--,0.00,--.--,--.--,true,true,true,true,true,true,false,false,true,true,false,false,0.05,0.03,0.00,0.01,0.00,0.00,0.42,0.20,43.9469014,-78.8999483,17TPJ 68521 68119,0.0,0.0,302.1,3,10,--.--,--.--,--.--,0.0,0.0,0.0,0,0,0,--.--,--.--,--.--
2020-08-02 10:14:40.812,-5.9,-5.2,235,-4.3,-2.0,-45.9,0.8,-2.0,-0.0,50.0,50.0,314.4,00:01:35,315.3,187,128,--.--,57,0004:43:18,11.32,51,0,-1.00,--.--,-11.32,--.--,0,--.--,--.--,--.--,--.--,--.--,--.--,--.--,0,10:14:40,2020-08-02,--.--,--.--,--.--,--.--,--.--,--.--,--.--,0.00,--.--,--.--,true,true,true,true,true,true,false,false,true,true,false,false,0.08,0.01,0.00,0.03,0.00,0.00,0.42,0.20,43.9468982,-78.8999547,17TPJ 68520 68118,0.0,0.0,199.1,3,10,--.--,--.--,--.--,0.0,0.0,0.0,0,0,0,--.--,--.--,--.--
2020-08-02 10:14:41.825,-0.8,-11.0,189,0.9,-4.6,-43.0,0.9,-3.0,-0.0,50.1,50.0,314.4,00:01:36,314.8,187,128,--.--,58,0004:43:18,11.32,51,0,-1.00,--.--,-11.32,--.--,0,--.--,--.--,--.--,--.--,--.--,--.--,--.--,0,10:14:41,2020-08-02,--.--,--.--,--.--,--.--,--.--,--.--,--.--,0.00,--.--,--.--,true,true,true,true,true,true,false,false,true,true,false,false,0.08,0.01,0.00,0.03,0.00,0.00,0.42,0.20,43.9468900,-78.8999562,17TPJ 68520 68117,0.0,0.0,182.2,3,10,--.--,--.--,--.--,0.0,0.0,0.0,0,0,0,--.--,--.--,--.--
2020-08-02 10:14:42.826,2.4,-17.7,174,1.5,-6.5,-1.6,1.5,-1.2,-0.1,50.1,50.1,316.5,00:01:37,314.0,187,127,--.--,60,0004:43:18,11.32,51,0,-1.00,--.--,-11.32,--.--,0,--.--,--.--,--.--,--.--,--.--,--.--,--.--,0,10:14:42,2020-08-02,--.--,--.--,--.--,--.--,--.--,--.--,--.--,0.00,--.--,--.--,true,true,true,true,true,true,false,false,true,true,false,false,0.08,0.02,0.00,0.01,0.00,0.00,0.41,0.20,43.9468788,-78.8999563,17TPJ 68520 68116,0.0,0.0,178.0,3,10,--.--,--.--,--.--,0.0,0.0,0.0,0,0,0,--.--,--.--,--.--
2020-08-02 10:14:43.811,4.1,-26.7,174,1.5,-5.6,-0.1,2.6,0.9,-0.1,50.1,50.1,318.5,00:01:38,312.6,187,127,--.--,64,0004:43:18,11.32,51,0,-1.00,--.--,-11.32,--.--,0,--.--,--.--,--.--,--.--,--.--,--.--,--.--,0,10:14:43,2020-08-02,--.--,--.--,--.--,--.--,--.--,--.--,--.--,0.00,--.--,--.--,true,true,true,true,true,true,false,false,true,true,false,false,0.08,0.02,0.00,0.01,0.00,0.00,0.41,0.20,43.9468608,-78.8999555,17TPJ 68520 68114,0.0,0.0,178.0,3,10,--.--,--.--,--.--,0.0,0.0,0.0,0,0,0,--.--,--.--,--.--
2020-08-02 10:14:44.828,5.9,-24.9,171,2.4,-1.0,-5.4,3.3,3.3,-0.1,50.1,50.0,322.5,00:01:39,310.6,--.--,127,--.--,65,0004:43:18,11.32,51,0,-1.00,--.--,-11.32,--.--,0,--.--,--.--,--.--,--.--,--.--,--.--,--.--,0,10:14:44,2020-08-02,--.--,--.--,--.--,--.--,--.--,--.--,--.--,0.00,--.--,--.--,true,true,true,true,true,true,false,false,true,true,false,false,0.08,0.04,0.00,0.01,0.00,0.00,0.44,0.20,43.9468322,-78.8999542,17TPJ 68521 68111,0.0,0.0,178.7,3,10,--.--,--.--,--.--,0.0,0.0,0.0,0,0,0,--.--,--.--,--.--
2020-08-02 10:14:45.812,2.6,-25.7,178,2.8,-0.6,3.1,3.5,3.9,-0.0,50.0,50.0,324.6,00:01:40,308.4,180,126,--.--,65,0004:43:18,11.32,51,0,-1.00,--.--,-11.32,--.--,0,--.--,--.--,--.--,--.--,--.--,--.--,--.--,0,10:14:45,2020-08-02,--.--,--.--,--.--,--.--,--.--,--.--,--.--,0.00,--.--,--.--,true,true,true,true,true,true,false,false,true,true,false,false,0.08,0.04,0.00,0.01,0.00,0.00,0.44,0.20,43.9467993,-78.8999537,17TPJ 68521 68107,0.0,0.0,178.4,3,10,--.--,--.--,--.--,0.0,0.0,0.0,0,0,0,--.--,--.--,--.--
2020-08-02 10:14:46.814,2.8,-26.1,179,-0.1,-1.1,0.2,3.6,3.3,-0.0,50.0,50.0,328.6,00:01:41,306.1,180,125,--.--,66,0004:43:18,11.32,51,0,-1.00,--.--,-11.32,--.--,0,--.--,--.--,--.--,--.--,--.--,--.--,--.--,0,10:14:46,2020-08-02,--.--,--.--,--.--,--.--,--.--,--.--,--.--,0.00,--.--,--.--,true,true,true,true,true,true,false,false,true,true,false,false,0.06,0.03,0.00,0.01,0.00,0.00,0.43,0.20,43.9467652,-78.8999528,17TPJ 68521 68103,0.0,0.0,179.6,3,10,--.--,--.--,--.--,0.0,0.0,0.0,0,0,0,--.--,--.--,--.--
2020-08-02 10:14:47.813,3.0,-26.6,179,0.4,-0.8,0.2,3.7,2.1,-0.0,50.0,50.0,332.8,00:01:42,303.9,180,125,--.--,66,0004:43:18,11.32,51,0,-1.00,--.--,-11.32,--.--,0,--.--,--.--,--.--,--.--,--.--,--.--,--.--,0,10:14:47,2020-08-02,--.--,--.--,--.--,--.--,--.--,--.--,--.--,0.00,--.--,--.--,true,true,true,true,true,true,false,false,true,true,false,false,0.06,0.03,0.00,0.01,0.00,0.00,0.43,0.20,43.9467307,-78.8999529,17TPJ 68521 68100,0.0,0.0,180.8,3,10,--.--,--.--,--.--,0.0,0.0,0.0,0,0,0,--.--,--.--,--.--
2020-08-02 10:14:48.830,2.8,-26.7,179,-0.1,-0.5,-0.0,3.8,3.3,0.0,50.0,50.0,336.8,00:01:43,301.7,180,124,--.--,66,0004:43:18,11.32,51,0,-1.00,--.--,-11.32,--.--,0,--.--,--.--,--.--,--.--,--.--,--.--,--.--,0,10:14:48,2020-08-02,--.--,--.--,--.--,--.--,--.--,--.--,--.--,0.00,--.--,--.--,true,true,true,true,true,true,false,false,true,true,false,false,0.03,0.05,0.00,0.02,0.00,0.00,0.43,0.20,43.9466950,-78.8999536,17TPJ 68521 68096,0.0,0.0,180.8,3,10,--.--,--.--,--.--,0.0,0.0,0.0,0,0,0,--.--,--.--,--.--
2020-08-02 10:14:49.830,2.7,-27.2,179,-0.3,-1.1,0.0,3.9,3.0,0.0,50.0,50.0,340.9,00:01:44,299.4,180,124,--.--,66,0004:43:18,11.32,51,0,-1.00,--.--,-11.32,--.--,0,--.--,--.--,--.--,--.--,--.--,--.--,--.--,0,10:14:49,2020-08-02,--.--,--.--,--.--,--.--,--.--,--.--,--.--,0.00,--.--,--.--,true,true,true,true,true,true,false,false,true,true,false,false,0.03,0.05,0.00,0.02,0.00,0.00,0.43,0.20,43.9466664,-78.8999541,17TPJ 68521 68093,0.0,0.0,180.6,3,10,--.--,--.--,--.--,0.0,0.0,0.0,0,0,0,--.--,--.--,--.--
2020-08-02 10:14:50.831,2.5,-27.5,179,0.3,0.3,-0.3,4.0,3.5,0.0,50.0,49.9,345.0,00:01:45,297.3,180,123,--.--,66,0004:43:18,11.32,51,0,-1.00,--.--,-11.32,--.--,0,--.--,--.--,--.--,--.--,--.--,--.--,--.--,0,10:14:50,2020-08-02,--.--,--.--,--.--,--.--,--.--,--.--,--.--,0.00,--.--,--.--,true,true,true,true,true,true,false,false,true,true,false,false,0.02,0.01,0.00,0.01,0.00,0.00,0.42,0.20,43.9466298,-78.8999545,17TPJ 68521 68088,0.0,0.0,180.1,3,10,--.--,--.--,--.--,0.0,0.0,0.0,0,0,0,--.--,--.--,--.--
2020-08-02 10:14:51.813,2.3,-27.9,179,0.1,-1.3,-0.2,4.1,3.7,0.0,50.0,49.9,349.0,00:01:46,295.1,180,122,--.--,67,0004:43:18,11.32,51,0,-1.00,--.--,-11.32,--.--,0,--.--,--.--,--.--,--.--,--.--,--.--,--.--,0,10:14:51,2020-08-02,--.--,--.--,--.--,--.--,--.--,--.--,--.--,0.00,--.--,--.--,true,true,true,true,true,true,false,false,true,true,false,false,0.02,0.01,0.00,0.01,0.00,0.00,0.42,0.20,43.9465929,-78.8999547,17TPJ 68521 68084,0.0,0.0,180.1,3,10,--.--,--.--,--.--,0.0,0.0,0.0,0,0,0,--.--,--.--,--.--
2020-08-02 10:14:52.813,2.1,-28.0,179,-0.0,0.1,-0.1,4.2,3.8,0.0,50.0,49.9,353.1,00:01:47,292.9,180,122,--.--,67,0004:43:18,11.32,51,0,-1.00,--.--,-11.32,--.--,0,--.--,--.--,--.--,--.--,--.--,--.--,--.--,0,10:14:52,2020-08-02,--.--,--.--,--.--,--.--,--.--,--.--,--.--,0.00,--.--,--.--,true,true,true,true,true,true,false,false,true,true,false,false,0.03,0.03,0.00,0.01,0.00,0.00,0.42,0.20,43.9465550,-78.8999543,17TPJ 68521 68080,0.0,0.0,179.7,3,10,--.--,--.--,--.--,0.0,0.0,0.0,0,0,0,--.--,--.--,--.--
2020-08-02 10:14:53.814,2.2,-28.3,179,-0.5,0.1,0.2,4.3,1.3,0.0,50.0,49.9,357.2,00:01:48,290.7,180,121,--.--,67,0004:43:18,11.32,51,0,-1.00,--.--,-11.32,--.--,0,--.--,--.--,--.--,--.--,--.--,--.--,--.--,0,10:14:53,2020-08-02,--.--,--.--,--.--,--.--,--.--,--.--,--.--,0.00,--.--,--.--,true,true,true,true,true,true,false,false,true,true,false,false,0.03,0.03,0.00,0.01,0.00,0.00,0.42,0.20,43.9465169,-78.8999537,17TPJ 68521 68076,0.0,0.0,179.2,3,10,--.--,--.--,--.--,0.0,0.0,0.0,0,0,0,--.--,--.--,--.--
2020-08-02 10:14:54.815,2.1,-28.6,179,0.1,-0.3,-0.2,4.3,3.8,0.0,50.0,49.9,361.3,00:01:49,288.5,180,120,--.--,67,0004:43:18,11.32,51,0,-1.00,--.--,-11.32,--.--,0,--.--,--.--,--.--,--.--,--.--,--.--,--.--,0,10:14:54,2020-08-02,--.--,--.--,--.--,--.--,--.--,--.--,--.--,0.00,--.--,--.--,true,true,true,true,true,true,false,false,true,true,false,false,0.04,0.02,0.00,0.01,0.00,0.00,0.41,0.20,43.9464782,-78.8999530,17TPJ 68522 68072,0.0,0.0,179.6,3,10,--.--,--.--,--.--,0.0,0.0,0.0,0,0,0,--.--,--.--,--.--
2020-08-02 10:14:55.816,2.0,-28.8,179,-0.1,-0.9,0.1,4.4,3.3,0.0,50.0,49.9,365.4,00:01:50,286.3,180,119,--.--,67,0004:43:18,11.32,51,0,-1.00,--.--,-11.32,--.--,0,--.--,--.--,--.--,--.--,--.--,--.--,--.--,0,10:14:55,2020-08-02,--.--,--.--,--.--,--.--,--.--,--.--,--.--,0.00,--.--,--.--,true,true,true,true,true,true,false,false,true,true,false,false,0.04,0.02,0.00,0.01,0.00,0.00,0.41,0.20,43.9464392,-78.8999522,17TPJ 68522 68067,0.0,0.0,179.2,3,10,--.--,--.--,--.--,0.0,0.0,0.0,0,0,0,--.--,--.--,--.--
2020-08-02 10:14:56.814,1.9,-29.7,180,0.4,-0.8,-0.2,4.4,5.3,0.0,50.0,50.0,369.6,00:01:51,284.2,180,119,--.--,68,0004:43:18,11.32,51,0,-1.00,--.--,-11.32,--.--,0,--.--,--.--,--.--,--.--,--.--,--.--,--.--,0,10:14:56,2020-08-02,--.--,--.--,--.--,--.--,--.--,--.--,--.--,0.00,--.--,--.--,true,true,true,true,true,true,false,false,true,true,false,false,0.03,0.05,0.00,0.00,0.00,0.00,0.43,0.21,43.9464074,-78.8999514,17TPJ 68522 68064,0.0,0.0,178.8,3,10,--.--,--.--,--.--,0.0,0.0,0.0,0,0,0,--.--,--.--,--.--
2020-08-02 10:14:57.816,2.2,-29.9,180,0.6,0.1,-0.1,4.5,5.0,0.0,50.0,50.0,373.7,00:01:52,282.1,180,118,--.--,68,0004:43:18,11.32,51,0,-1.00,--.--,-11.32,--.--,0,--.--,--.--,--.--,--.--,--.--,--.--,--.--,0,10:14:57,2020-08-02,--.--,--.--,--.--,--.--,--.--,--.--,--.--,0.00,--.--,--.--,true,true,true,true,true,true,false,false,true,true,false,false,0.03,0.05,0.00,0.00,0.00,0.00,0.43,0.21,43.9463670,-78.8999502,17TPJ 68522 68059,0.0,0.0,179.0,3,10,--.--,--.--,--.--,0.0,0.0,0.0,0,0,0,--.--,--.--,--.--
2020-08-02 10:14:58.816,2.4,-30.3,180,0.3,0.8,0.1,4.6,4.7,-0.0,50.0,50.0,379.8,00:01:53,279.9,180,117,--.--,69,0004:43:18,11.32,51,0,-1.00,--.--,-11.32,--.--,0,--.--,--.--,--.--,--.--,--.--,--.--,--.--,0,10:14:58,2020-08-02,--.--,--.--,--.--,--.--,--.--,--.--,--.--,0.00,--.--,--.--,true,true,true,true,true,true,false,false,true,true,false,false,0.04,0.02,0.00,0.02,0.00,0.00,0.42,0.20,43.9463252,-78.8999492,17TPJ 68522 68055,0.0,0.0,179.3,3,10,--.--,--.--,--.--,0.0,0.0,0.0,0,0,0,--.--,--.--,--.--
2020-08-02 10:14:59.804,2.6,-30.5,180,0.8,0.3,0.0,4.6,3.2,-0.0,50.0,50.0,383.8,00:01:54,277.8,180,116,--.--,69,0004:43:18,11.32,51,0,-1.00,--.--,-11.32,--.--,0,--.--,--.--,--.--,--.--,--.--,--.--,--.--,0,10:14:59,2020-08-02,--.--,--.--,--.--,--.--,--.--,--.--,--.--,0.00,--.--,--.--,true,true,true,true,true,true,false,false,true,true,false,false,0.04,0.02,0.00,0.02,0.00,0.00,0.42,0.20,43.9462825,-78.8999486,17TPJ 68523 68050,0.0,0.0,179.4,3,10,--.--,--.--,--.--,0.0,0.0,0.0,0,0,0,--.--,--.--,--.--
2020-08-02 10:15:00.817,2.9,-30.4,180,0.3,0.1,0.2,4.7,0.3,-0.0,50.0,50.0,387.9,00:01:55,275.7,180,115,--.--,69,0004:43:18,11.32,51,0,-1.00,--.--,-11.32,--.--,0,--.--,--.--,--.--,--.--,--.--,--.--,--.--,0,10:15:00,2020-08-02,--.--,--.--,--.--,--.--,--.--,--.--,--.--,0.00,--.--,--.--,true,true,true,true,true,true,false,false,true,true,false,false,0.03,0.03,0.00,0.01,0.00,0.00,0.42,0.20,43.9462393,-78.8999484,17TPJ 68523 68045,0.0,0.0,180.1,3,10,--.--,--.--,--.--,0.0,0.0,0.0,0,0,0,--.--,--.--,--.--
