Timestamp,roll,pitch,heading,rollRate,pitchRate,yawRate,groundSpeed,airSpeed,climbRate,altitudeRelative,altitudeAMSL,flightDistance,flightTime,distanceToHome,headingToNextWP,headingToHome,distanceToGCS,throttlePct,hobbs,battery.voltage,battery.percentRemaining,battery.mahConsumed,battery.current,battery.temperature,battery.instantPower,battery.timeRemaining,battery.chargeState,battery2.voltage,battery2.percentRemaining,battery2.mahConsumed,battery2.current,battery2.temperature,battery2.instantPower,battery2.timeRemaining,battery2.chargeState,clock.currentTime,clock.currentDate,distanceSensor.rotationNone,distanceSensor.rotationYaw45,distanceSensor.rotationYaw90,distanceSensor.rotationYaw135,distanceSensor.rotationYaw180,distanceSensor.rotationYaw225,distanceSensor.rotationYaw270,distanceSensor.rotationYaw315,distanceSensor.rotationPitch90,distanceSensor.rotationPitch270,estimatorStatus.goodAttitudeEsimate,estimatorStatus.goodHorizVelEstimate,estimatorStatus.goodVertVelEstimate,estimatorStatus.goodHorizPosRelEstimate,estimatorStatus.goodHorizPosAbsEstimate,estimatorStatus.goodVertPosAbsEstimate,estimatorStatus.goodVertPosAGLEstimate,estimatorStatus.goodConstPosModeEstimate,estimatorStatus.goodPredHorizPosRelEstimate,estimatorStatus.goodPredHorizPosAbsEstimate,estimatorStatus.gpsGlitch,estimatorStatus.accelError,estimatorStatus.velRatio,estimatorStatus.horizPosRatio,estimatorStatus.vertPosRatio,estimatorStatus.magRatio,estimatorStatus.haglRatio,estimatorStatus.tasRatio,estimatorStatus.horizPosAccuracy,estimatorStatus.vertPosAccuracy,gps.lat,gps.lon,gps.mgrs,gps.hdop,gps.vdop,gps.courseOverGround,gps.lock,gps.count,temperature.temperature1,temperature.temperature2,temperature.temperature3,vibration.xAxis,vibration.yAxis,vibration.zAxis,vibration.clipCount1,vibration.clipCount2,vibration.clipCount3,wind.direction,wind.speed,wind.verticalSpeed
2020-08-02 19:56:41.829,9.6,5.6,96,6.2,5.3,0.8,23.1,23.7,2.3,0.8,50.9,15.7,00:00:00,25.7,341,273,--.--,100,0000:00:00,12.14,100,0,-1.00,--.--,-12.14,--.--,0,--.--,--.--,--.--,--.--,--.--,--.--,--.--,0,19:56:41,2020-08-02,--.--,--.--,--.--,--.--,--.--,--.--,--.--,0.00,--.--,--.--,true,true,true,true,true,true,true,false,true,true,false,false,0.63,0.04,0.00,0.02,0.00,0.25,0.41,0.20,43.9451550,-78.8967789,17TPJ 68780 67931,0.0,0.0,89.9,3,10,--.--,--.--,--.--,0.0,0.0,0.0,0,0,0,278.2,4.4,0.0
2020-08-02 19:56:42.829,11.9,8.1,98,0.6,7.2,3.7,23.1,23.7,2.9,3.4,53.5,36.1,00:00:00,46.3,341,273,--.--,100,0000:00:00,12.13,99,0,-1.00,--.--,-12.13,--.--,0,--.--,--.--,--.--,--.--,--.--,--.--,--.--,0,19:56:42,2020-08-02,--.--,--.--,--.--,--.--,--.--,--.--,--.--,0.00,--.--,--.--,true,true,true,true,true,true,true,false,true,true,false,false,0.63,0.04,0.00,0.02,0.00,0.25,0.41,0.20,43.9451523,-78.8965589,17TPJ 68798 67931,0.0,0.0,92.4,3,10,--.--,--.--,--.--,0.0,0.0,0.0,0,0,0,298.2,1.5,0.0
2020-08-02 19:56:43.808,2.1,14.8,101,-27.9,8.9,-2.2,22.5,23.5,4.8,7.0,57.1,54.5,00:00:01,65.0,341,275,--.--,100,0000:00:00,12.10,98,0,-1.00,--.--,-12.10,--.--,0,--.--,--.--,--.--,--.--,--.--,--.--,--.--,0,19:56:43,2020-08-02,--.--,--.--,--.--,--.--,--.--,--.--,--.--,0.00,--.--,--.--,true,true,true,true,true,true,false,false,true,true,false,false,0.20,0.07,0.02,0.03,0.00,0.19,0.44,0.21,43.9451329,-78.8962575,17TPJ 68822 67930,0.0,0.0,97.6,3,10,--.--,--.--,--.--,0.0,0.0,0.0,0,0,0,298.2,1.5,0.0
2020-08-02 19:56:44.830,-22.9,17.6,96,-31.1,-1.6,-13.1,20.8,22.4,6.9,12.7,62.8,74.6,00:00:02,84.4,341,276,--.--,57,0000:00:00,12.08,96,0,-1.00,--.--,-12.08,--.--,0,--.--,--.--,--.--,--.--,--.--,--.--,--.--,0,19:56:44,2020-08-02,--.--,--.--,--.--,--.--,--.--,--.--,--.--,0.00,--.--,--.--,true,true,true,true,true,true,false,false,true,true,false,false,0.20,0.07,0.02,0.03,0.00,0.19,0.44,0.21,43.9450953,-78.8959675,17TPJ 68845 67926,0.0,0.0,101.2,3,10,--.--,--.--,--.--,0.0,0.0,0.0,0,0,0,298.2,1.5,0.0
2020-08-02 19:56:45.830,-36.2,13.3,83,-3.4,7.1,-13.8,21.1,21.5,5.1,18.2,68.3,93.6,00:00:03,103.5,341,275,--.--,65,0000:00:00,12.05,94,0,-1.00,--.--,-12.05,--.--,0,--.--,--.--,--.--,--.--,--.--,--.--,--.--,0,19:56:45,2020-08-02,--.--,--.--,--.--,--.--,--.--,--.--,--.--,0.00,--.--,--.--,true,true,true,true,true,true,false,false,true,true,false,false,0.22,0.13,0.02,0.01,0.00,0.18,0.44,0.21,43.9450683,-78.8956981,17TPJ 68867 67924,0.0,0.0,92.8,3,10,--.--,--.--,--.--,0.0,0.0,0.0,0,0,0,268.5,0.8,0.0
2020-08-02 19:56:46.816,-39.5,12.0,66,2.2,9.9,-13.8,21.0,21.0,4.4,23.2,73.3,115.2,00:00:04,123.7,341,272,--.--,63,0000:00:00,12.02,93,0,-1.00,--.--,-12.02,--.--,0,--.--,--.--,--.--,--.--,--.--,--.--,--.--,0,19:56:46,2020-08-02,--.--,--.--,--.--,--.--,--.--,--.--,--.--,0.00,--.--,--.--,true,true,true,true,true,true,false,false,true,true,false,false,0.22,0.13,0.02,0.01,0.00,0.18,0.44,0.21,43.9450851,-78.8954335,17TPJ 68888 67926,0.0,0.0,76.5,3,10,--.--,--.--,--.--,0.0,0.0,0.0,0,0,0,268.5,0.8,0.0
2020-08-02 19:56:47.819,-39.8,11.3,48,3.4,12.8,-15.5,20.5,20.8,4.3,27.8,77.9,134.4,00:00:05,141.0,341,268,--.--,64,0000:00:00,11.99,91,0,-1.00,--.--,-11.99,--.--,0,--.--,--.--,--.--,--.--,--.--,--.--,--.--,0,19:56:47,2020-08-02,--.--,--.--,--.--,--.--,--.--,--.--,--.--,0.00,--.--,--.--,true,true,true,true,true,true,false,false,true,true,false,false,0.24,0.16,0.02,0.05,0.00,0.04,0.43,0.21,43.9451574,-78.8951886,17TPJ 68908 67935,0.0,0.0,58.7,3,10,--.--,--.--,--.--,0.0,0.0,0.0,0,0,0,345.2,1.5,0.0
2020-08-02 19:56:48.814,-40.2,11.0,30,4.4,15.0,-18.1,20.3,20.7,4.4,31.3,81.4,151.5,00:00:06,152.7,341,263,--.--,64,0000:00:00,11.97,89,0,-1.00,--.--,-11.97,--.--,0,--.--,--.--,--.--,--.--,--.--,--.--,--.--,0,19:56:48,2020-08-02,--.--,--.--,--.--,--.--,--.--,--.--,--.--,0.00,--.--,--.--,true,true,true,true,true,true,false,false,true,true,false,false,0.24,0.16,0.02,0.05,0.00,0.04,0.43,0.21,43.9452794,-78.8949932,17TPJ 68923 67949,0.0,0.0,38.7,3,10,--.--,--.--,--.--,0.0,0.0,0.0,0,0,0,345.2,1.5,0.0
2020-08-02 19:56:49.813,-40.3,11.1,8,4.3,14.3,-16.2,20.1,20.3,4.6,35.4,85.5,168.1,00:00:07,162.2,341,258,--.--,62,0000:00:00,11.97,89,0,-1.00,--.--,-11.97,--.--,0,--.--,--.--,--.--,--.--,--.--,--.--,--.--,0,19:56:49,2020-08-02,--.--,--.--,--.--,--.--,--.--,--.--,--.--,0.00,--.--,--.--,true,true,true,true,true,true,false,false,true,true,false,false,0.08,0.08,0.01,0.05,0.00,0.03,0.45,0.21,43.9452794,-78.8949932,17TPJ 68923 67949,0.0,0.0,38.7,3,10,--.--,--.--,--.--,0.0,0.0,0.0,0,0,0,329.9,0.8,0.0
2020-08-02 19:56:50.832,-40.1,11.4,350,4.5,12.5,-13.7,20.0,20.7,4.5,39.4,89.5,187.4,00:00:08,167.8,341,252,--.--,61,0000:00:00,11.94,88,0,-1.00,--.--,-11.94,--.--,0,--.--,--.--,--.--,--.--,--.--,--.--,--.--,0,19:56:50,2020-08-02,--.--,--.--,--.--,--.--,--.--,--.--,--.--,0.00,--.--,--.--,true,true,true,true,true,true,false,false,true,true,false,false,0.08,0.08,0.01,0.05,0.00,0.03,0.45,0.21,43.9454433,-78.8948781,17TPJ 68932 67967,0.0,0.0,14.7,3,10,--.--,--.--,--.--,0.0,0.0,0.0,0,0,0,329.9,0.8,0.0
2020-08-02 19:56:51.833,-39.1,12.5,334,7.0,13.0,-13.2,19.7,20.1,4.6,43.2,93.3,204.4,00:00:09,169.5,341,246,--.--,61,0000:00:00,11.91,86,0,-1.00,--.--,-11.91,--.--,0,--.--,--.--,--.--,--.--,--.--,--.--,--.--,0,19:56:51,2020-08-02,--.--,--.--,--.--,--.--,--.--,--.--,--.--,0.00,--.--,--.--,true,true,true,true,true,true,false,false,true,true,false,false,0.08,0.08,0.01,0.05,0.00,0.03,0.45,0.21,43.9456265,-78.8948632,17TPJ 68932 67987,0.0,0.0,352.7,3,10,--.--,--.--,--.--,0.0,0.0,0.0,0,0,0,306.8,0.5,0.0
2020-08-02 19:56:52.816,-35.4,15.2,313,11.7,14.8,-15.6,18.9,19.7,5.3,47.7,97.8,225.8,00:00:10,167.1,341,239,--.--,62,0000:00:00,11.88,84,0,-1.00,--.--,-11.88,--.--,0,--.--,--.--,--.--,--.--,--.--,--.--,--.--,0,19:56:52,2020-08-02,--.--,--.--,--.--,--.--,--.--,--.--,--.--,0.00,--.--,--.--,true,true,true,true,true,true,false,false,true,true,false,false,0.21,0.09,0.02,0.03,0.00,0.11,0.44,0.21,43.9458021,-78.8949380,17TPJ 68926 68007,0.0,0.0,333.3,3,10,--.--,--.--,--.--,0.0,0.0,0.0,0,0,0,306.8,0.5,0.0
2020-08-02 19:56:53.833,-29.8,14.1,298,11.6,-4.2,-15.0,17.4,18.4,5.1,52.1,102.2,241.6,00:00:11,161.6,341,233,--.--,32,0000:00:00,11.86,83,0,-1.00,--.--,-11.86,--.--,0,--.--,--.--,--.--,--.--,--.--,--.--,--.--,0,19:56:53,2020-08-02,--.--,--.--,--.--,--.--,--.--,--.--,--.--,0.00,--.--,--.--,true,true,true,true,true,true,false,false,true,true,false,false,0.21,0.09,0.02,0.03,0.00,0.11,0.44,0.21,43.9459456,-78.8950853,17TPJ 68914 68022,0.0,0.0,313.2,3,10,--.--,--.--,--.--,0.0,0.0,0.0,0,0,0,304.2,0.3,0.0
2020-08-02 19:56:54.834,-22.0,1.4,287,7.2,-6.2,-14.2,16.2,16.1,1.3,54.6,104.7,259.1,00:00:12,154.3,341,228,--.--,26,0000:00:00,11.83,81,0,-1.00,--.--,-11.83,--.--,0,--.--,--.--,--.--,--.--,--.--,--.--,--.--,0,19:56:54,2020-08-02,--.--,--.--,--.--,--.--,--.--,--.--,--.--,0.00,--.--,--.--,true,true,true,true,true,true,false,false,true,true,false,false,0.22,0.13,0.02,0.02,0.00,0.08,0.44,0.21,43.9460235,-78.8952382,17TPJ 68901 68031,0.0,0.0,298.4,3,10,--.--,--.--,--.--,0.0,0.0,0.0,0,0,0,304.2,0.3,0.0
2020-08-02 19:56:55.819,-16.1,-5.1,277,6.0,-0.2,-11.1,16.1,16.5,-1.3,54.0,104.1,272.7,00:00:13,147.0,341,223,--.--,23,0000:00:00,11.80,79,0,-1.00,--.--,-11.80,--.--,0,--.--,--.--,--.--,--.--,--.--,--.--,--.--,0,19:56:55,2020-08-02,--.--,--.--,--.--,--.--,--.--,--.--,--.--,0.00,--.--,--.--,true,true,true,true,true,true,false,false,true,true,false,false,0.22,0.13,0.02,0.02,0.00,0.08,0.44,0.21,43.9460845,-78.8954332,17TPJ 68885 68037,0.0,0.0,289.0,3,10,--.--,--.--,--.--,0.0,0.0,0.0,0,0,0,304.2,0.3,0.0
2020-08-02 19:56:56.834,-9.6,-5.3,269,6.0,3.2,-6.9,16.5,16.2,-1.8,52.0,102.1,288.9,00:00:14,137.8,341,218,--.--,24,0000:00:00,11.78,78,0,-1.00,--.--,-11.78,--.--,0,--.--,--.--,--.--,--.--,--.--,--.--,--.--,0,19:56:56,2020-08-02,--.--,--.--,--.--,--.--,--.--,--.--,--.--,0.00,--.--,--.--,true,true,true,true,true,true,false,false,true,true,false,false,0.13,0.07,0.03,0.02,0.00,0.17,0.43,0.21,43.9461211,-78.8956328,17TPJ 68869 68041,0.0,0.0,279.7,3,10,--.--,--.--,--.--,0.0,0.0,0.0,0,0,0,318.9,0.3,0.0
2020-08-02 19:56:57.812,-4.9,-3.2,264,5.0,3.1,-3.8,16.9,17.0,-1.4,50.7,100.8,303.2,00:00:15,130.3,341,213,--.--,25,0000:00:00,11.75,76,0,-1.00,--.--,-11.75,--.--,0,--.--,--.--,--.--,--.--,--.--,--.--,--.--,0,19:56:57,2020-08-02,--.--,--.--,--.--,--.--,--.--,--.--,--.--,0.00,--.--,--.--,true,true,true,true,true,true,false,false,true,true,false,false,0.13,0.07,0.03,0.02,0.00,0.17,0.43,0.21,43.9461355,-78.8958414,17TPJ 68853 68042,0.0,0.0,271.8,3,10,--.--,--.--,--.--,0.0,0.0,0.0,0,0,0,318.9,0.3,0.0
2020-08-02 19:56:58.813,-1.3,-0.9,262,3.2,2.1,-1.6,17.1,16.9,-0.6,49.8,99.9,317.7,00:00:16,121.9,341,207,--.--,28,0000:00:00,11.72,74,0,-1.00,--.--,-11.72,--.--,0,--.--,--.--,--.--,--.--,--.--,--.--,--.--,0,19:56:58,2020-08-02,--.--,--.--,--.--,--.--,--.--,--.--,--.--,0.00,--.--,--.--,true,true,true,true,true,true,false,false,true,true,false,false,0.12,0.14,0.01,0.03,0.00,0.08,0.42,0.20,43.9461336,-78.8960554,17TPJ 68835 68041,0.0,0.0,267.4,3,10,--.--,--.--,--.--,0.0,0.0,0.0,0,0,0,337.7,0.3,0.0
2020-08-02 19:56:59.819,-6.2,-0.3,261,-9.7,2.1,-3.8,17.5,17.2,-0.4,49.4,99.5,336.3,00:00:17,113.9,283,200,--.--,34,0000:00:00,11.69,73,0,-1.00,--.--,-11.69,--.--,0,--.--,--.--,--.--,--.--,--.--,--.--,--.--,0,19:56:59,2020-08-02,--.--,--.--,--.--,--.--,--.--,--.--,--.--,0.00,--.--,--.--,true,true,true,true,true,true,false,false,true,true,false,false,0.12,0.14,0.01,0.03,0.00,0.08,0.42,0.20,43.9461240,-78.8962705,17TPJ 68818 68040,0.0,0.0,265.9,3,10,--.--,--.--,--.--,0.0,0.0,0.0,0,0,0,337.7,0.3,0.0
2020-08-02 19:57:00.820,-6.9,1.0,256,5.1,2.2,-4.6,17.6,17.6,-0.1,49.2,99.3,348.5,00:00:18,108.4,283,193,--.--,32,0000:00:00,11.66,71,0,-1.00,--.--,-11.66,--.--,0,--.--,--.--,--.--,--.--,--.--,--.--,--.--,0,19:57:00,2020-08-02,--.--,--.--,--.--,--.--,--.--,--.--,--.--,0.00,--.--,--.--,true,true,true,true,true,true,false,false,true,true,false,false,0.10,0.14,0.01,0.03,0.00,0.11,0.44,0.21,43.9461092,-78.8964898,17TPJ 68801 68038,0.0,0.0,262.5,3,10,--.--,--.--,--.--,0.0,0.0,0.0,0,0,0,336.3,0.3,0.0
2020-08-02 19:57:01.819,0.0,1.9,254,7.9,0.1,-0.5,17.5,17.4,0.2,49.3,99.4,367.2,00:00:19,102.8,283,184,--.--,32,0000:00:00,11.64,69,0,-1.00,--.--,-11.64,--.--,0,--.--,--.--,--.--,--.--,--.--,--.--,--.--,0,19:57:01,2020-08-02,--.--,--.--,--.--,--.--,--.--,--.--,--.--,0.00,--.--,--.--,true,true,true,true,true,true,false,false,true,true,false,false,0.10,0.14,0.01,0.03,0.00,0.11,0.44,0.21,43.9460822,-78.8967097,17TPJ 68783 68034,0.0,0.0,258.7,3,10,--.--,--.--,--.--,0.0,0.0,0.0,0,0,0,336.3,0.3,0.0
2020-08-02 19:57:02.808,5.7,1.9,255,6.0,-0.4,2.5,17.5,17.4,0.2,49.5,99.6,379.8,00:00:20,99.9,283,176,--.--,32,0000:00:00,11.64,69,0,-1.00,--.--,-11.64,--.--,0,--.--,--.--,--.--,--.--,--.--,--.--,--.--,0,19:57:02,2020-08-02,--.--,--.--,--.--,--.--,--.--,--.--,--.--,0.00,--.--,--.--,true,true,true,true,true,true,false,false,true,true,false,false,0.05,0.05,0.01,0.06,0.00,0.01,0.44,0.21,43.9460822,-78.8967097,17TPJ 68783 68034,0.0,0.0,258.7,3,10,--.--,--.--,--.--,0.0,0.0,0.0,0,0,0,339.2,0.3,0.0
2020-08-02 19:57:03.808,10.2,1.8,259,2.3,1.2,5.7,17.6,17.2,0.1,49.7,99.8,398.8,00:00:21,99.9,283,166,--.--,31,0000:00:00,11.61,68,0,-1.00,--.--,-11.61,--.--,0,--.--,--.--,--.--,--.--,--.--,--.--,--.--,0,19:57:03,2020-08-02,--.--,--.--,--.--,--.--,--.--,--.--,--.--,0.00,--.--,--.--,true,true,true,true,true,true,false,false,true,true,false,false,0.05,0.05,0.01,0.06,0.00,0.01,0.44,0.21,43.9460508,-78.8969278,17TPJ 68766 68030,0.0,0.0,259.4,3,10,--.--,--.--,--.--,0.0,0.0,0.0,0,0,0,339.2,0.3,0.0
2020-08-02 19:57:04.810,11.8,1.7,265,0.3,1.1,6.2,17.6,17.3,0.1,49.9,100.0,415.7,00:00:22,104.4,283,157,--.--,30,0000:00:00,11.58,66,0,-1.00,--.--,-11.58,--.--,0,--.--,--.--,--.--,--.--,--.--,--.--,--.--,0,19:57:04,2020-08-02,--.--,--.--,--.--,--.--,--.--,--.--,--.--,0.00,--.--,--.--,true,true,true,true,true,true,false,false,true,true,false,false,0.12,0.10,0.00,0.07,0.00,0.04,0.43,0.21,43.9460267,-78.8971469,17TPJ 68748 68027,0.0,0.0,263.6,3,10,--.--,--.--,--.--,0.0,0.0,0.0,0,0,0,332.2,0.3,0.0
2020-08-02 19:57:05.808,11.1,1.7,272,-1.4,1.0,6.0,17.4,17.1,0.1,50.0,100.1,432.0,00:00:23,112.8,283,149,--.--,30,0000:00:00,11.55,64,0,-1.00,--.--,-11.55,--.--,0,--.--,--.--,--.--,--.--,--.--,--.--,--.--,0,19:57:05,2020-08-02,--.--,--.--,--.--,--.--,--.--,--.--,--.--,0.00,--.--,--.--,true,true,true,true,true,true,false,false,true,true,false,false,0.12,0.10,0.00,0.07,0.00,0.04,0.43,0.21,43.9460177,-78.8973224,17TPJ 68734 68026,0.0,0.0,268.5,3,10,--.--,--.--,--.--,0.0,0.0,0.0,0,0,0,332.2,0.3,0.0
2020-08-02 19:57:06.809,9.9,1.6,276,-2.2,0.6,5.6,17.2,16.7,-0.0,50.0,100.1,444.2,00:00:24,120.5,283,145,--.--,30,0000:00:00,11.53,63,0,-1.00,--.--,-11.53,--.--,0,--.--,--.--,--.--,--.--,--.--,--.--,--.--,0,19:57:06,2020-08-02,--.--,--.--,--.--,--.--,--.--,--.--,--.--,0.00,--.--,--.--,true,true,true,true,true,true,false,false,true,true,false,false,0.12,0.10,0.00,0.07,0.00,0.04,0.43,0.21,43.9460226,-78.8975429,17TPJ 68716 68026,0.0,0.0,275.0,3,10,--.--,--.--,--.--,0.0,0.0,0.0,0,0,0,332.2,0.3,0.0
2020-08-02 19:57:07.808,7.8,1.3,282,-2.3,0.4,4.6,17.1,16.9,-0.1,50.0,100.1,460.5,00:00:25,133.5,283,140,--.--,30,0000:00:00,11.50,61,0,-1.00,--.--,-11.50,--.--,0,--.--,--.--,--.--,--.--,--.--,--.--,--.--,0,19:57:07,2020-08-02,--.--,--.--,--.--,--.--,--.--,--.--,--.--,0.00,--.--,--.--,true,true,true,true,true,true,false,false,true,true,false,false,0.08,0.03,0.00,0.05,0.00,0.11,0.42,0.21,43.9460445,-78.8977590,17TPJ 68699 68028,0.0,0.0,280.9,3,10,--.--,--.--,--.--,0.0,0.0,0.0,0,0,0,334.8,0.3,0.0
2020-08-02 19:57:08.814,5.8,1.3,286,-2.3,0.4,3.8,17.0,16.7,-0.1,50.0,100.1,476.9,00:00:26,146.7,283,136,--.--,30,0000:00:00,11.47,59,0,-1.00,--.--,-11.47,--.--,0,--.--,--.--,--.--,--.--,--.--,--.--,--.--,0,19:57:08,2020-08-02,--.--,--.--,--.--,--.--,--.--,--.--,--.--,0.00,--.--,--.--,true,true,true,true,true,true,false,false,true,true,false,false,0.08,0.03,0.00,0.05,0.00,0.11,0.42,0.21,43.9460809,-78.8979700,17TPJ 68682 68032,0.0,0.0,285.8,3,10,--.--,--.--,--.--,0.0,0.0,0.0,0,0,0,334.8,0.3,0.0
2020-08-02 19:57:09.809,3.8,1.1,289,-2.2,0.0,2.7,16.8,16.5,-0.1,49.9,100.0,491.2,00:00:27,160.5,283,134,--.--,30,0000:00:00,11.45,58,0,-1.00,--.--,-11.45,--.--,0,--.--,--.--,--.--,--.--,--.--,--.--,--.--,0,19:57:09,2020-08-02,--.--,--.--,--.--,--.--,--.--,--.--,--.--,0.00,--.--,--.--,true,true,true,true,true,true,false,false,true,true,false,false,0.07,0.06,0.00,0.06,0.00,0.02,0.42,0.20,43.9461286,-78.8981749,17TPJ 68665 68036,0.0,0.0,289.7,3,10,--.--,--.--,--.--,0.0,0.0,0.0,0,0,0,335.3,0.3,0.0
2020-08-02 19:57:10.823,1.8,1.1,291,-2.1,0.3,1.7,16.7,16.4,-0.2,49.8,99.9,508.0,00:00:28,176.6,283,132,--.--,30,0000:00:00,11.42,56,0,-1.00,--.--,-11.42,--.--,0,--.--,--.--,--.--,--.--,--.--,--.--,--.--,0,19:57:10,2020-08-02,--.--,--.--,--.--,--.--,--.--,--.--,--.--,0.00,--.--,--.--,true,true,true,true,true,true,false,false,true,true,false,false,0.07,0.06,0.00,0.06,0.00,0.02,0.42,0.20,43.9461840,-78.8983730,17TPJ 68649 68042,0.0,0.0,292.6,3,10,--.--,--.--,--.--,0.0,0.0,0.0,0,0,0,335.3,0.3,0.0
2020-08-02 19:57:11.815,0.1,1.2,293,-1.4,0.1,0.6,16.5,16.3,-0.1,49.7,99.8,523.8,00:00:29,191.7,283,131,--.--,30,0000:00:00,11.39,54,0,-1.00,--.--,-11.39,--.--,0,--.--,--.--,--.--,--.--,--.--,--.--,--.--,0,19:57:11,2020-08-02,--.--,--.--,--.--,--.--,--.--,--.--,--.--,0.00,--.--,--.--,true,true,true,true,true,true,false,false,true,true,false,false,0.02,0.13,0.01,0.05,0.00,0.01,0.44,0.21,43.9462452,-78.8985675,17TPJ 68633 68049,0.0,0.0,294.4,3,10,--.--,--.--,--.--,0.0,0.0,0.0,0,0,0,336.1,0.3,0.0
2020-08-02 19:57:12.819,-1.1,1.2,293,-1.2,0.3,0.6,16.4,16.4,-0.2,49.6,99.7,542.2,00:00:30,207.6,283,129,--.--,30,0000:00:00,11.36,53,0,-1.00,--.--,-11.36,--.--,0,--.--,--.--,--.--,--.--,--.--,--.--,--.--,0,19:57:12,2020-08-02,--.--,--.--,--.--,--.--,--.--,--.--,--.--,0.00,--.--,--.--,true,true,true,true,true,true,false,false,true,true,false,false,0.02,0.13,0.01,0.05,0.00,0.01,0.44,0.21,43.9463095,-78.8987588,17TPJ 68618 68055,0.0,0.0,295.4,3,10,--.--,--.--,--.--,0.0,0.0,0.0,0,0,0,336.1,0.3,0.0
2020-08-02 19:57:13.808,-1.8,1.3,293,-0.4,0.3,-0.5,16.4,16.2,-0.1,49.5,99.6,558.1,00:00:31,223.7,283,128,--.--,30,0000:00:00,11.34,51,0,-1.00,--.--,-11.34,--.--,0,--.--,--.--,--.--,--.--,--.--,--.--,--.--,0,19:57:13,2020-08-02,--.--,--.--,--.--,--.--,--.--,--.--,--.--,0.00,--.--,--.--,true,true,true,true,true,true,false,false,true,true,false,false,0.03,0.04,0.01,0.05,0.00,0.16,0.43,0.21,43.9463751,-78.8989488,17TPJ 68603 68062,0.0,0.0,295.7,3,10,--.--,--.--,--.--,0.0,0.0,0.0,0,0,0,338.4,0.2,0.0
2020-08-02 19:57:14.808,-2.3,1.5,293,-0.4,0.4,-0.7,16.4,16.0,-0.0,49.5,99.6,573.4,00:00:32,238.5,283,128,--.--,30,0000:00:00,11.33,51,0,-1.00,--.--,-11.33,--.--,0,--.--,--.--,--.--,--.--,--.--,--.--,--.--,0,19:57:14,2020-08-02,--.--,--.--,--.--,--.--,--.--,--.--,--.--,0.00,--.--,--.--,true,true,true,true,true,true,false,false,true,true,false,false,0.03,0.04,0.01,0.05,0.00,0.16,0.43,0.21,43.9464409,-78.8991385,17TPJ 68587 68069,0.0,0.0,295.5,3,10,--.--,--.--,--.--,0.0,0.0,0.0,0,0,0,338.4,0.2,0.0
2020-08-02 19:57:15.808,-2.5,1.5,292,-0.1,0.1,-0.8,16.3,16.6,-0.0,49.5,99.6,588.1,00:00:33,253.7,283,127,--.--,30,0000:00:00,11.33,51,0,-1.00,--.--,-11.33,--.--,0,--.--,--.--,--.--,--.--,--.--,--.--,--.--,0,19:57:15,2020-08-02,--.--,--.--,--.--,--.--,--.--,--.--,--.--,0.00,--.--,--.--,true,true,true,true,true,true,false,false,true,true,false,false,0.01,0.10,0.00,0.04,0.00,0.03,0.43,0.21,43.9465057,-78.8993288,17TPJ 68572 68076,0.0,0.0,294.9,3,10,--.--,--.--,--.--,0.0,0.0,0.0,0,0,0,338.9,0.2,0.0
2020-08-02 19:57:16.811,-2.4,1.5,291,0.3,0.1,-1.0,16.3,16.2,-0.0,49.5,99.7,603.7,00:00:34,268.6,283,126,--.--,30,0000:00:00,11.33,51,0,-1.00,--.--,-11.33,--.--,0,--.--,--.--,--.--,--.--,--.--,--.--,--.--,0,19:57:16,2020-08-02,--.--,--.--,--.--,--.--,--.--,--.--,--.--,0.00,--.--,--.--,true,true,true,true,true,true,false,false,true,true,false,false,0.01,0.10,0.00,0.04,0.00,0.03,0.43,0.21,43.9465557,-78.8994797,17TPJ 68559 68081,0.0,0.0,294.5,3,10,--.--,--.--,--.--,0.0,0.0,0.0,0,0,0,338.9,0.2,0.0
2020-08-02 19:57:17.825,-2.7,1.5,291,-6.7,-0.2,-1.1,16.2,16.6,-0.0,49.6,99.7,616.9,00:00:35,281.5,--.--,126,--.--,30,0000:00:00,11.33,51,0,-1.00,--.--,-11.33,--.--,0,--.--,--.--,--.--,--.--,--.--,--.--,--.--,0,19:57:17,2020-08-02,--.--,--.--,--.--,--.--,--.--,--.--,--.--,0.00,--.--,--.--,true,true,true,true,true,true,false,false,true,true,false,false,0.02,0.01,0.00,0.04,0.00,0.04,0.42,0.21,43.9465557,-78.8994797,17TPJ 68559 68081,0.0,0.0,294.5,3,10,--.--,--.--,--.--,0.0,0.0,0.0,0,0,0,341.1,0.2,0.0
2020-08-02 19:57:18.808,-28.7,1.0,281,-15.2,9.4,-18.6,16.2,16.2,-0.3,49.5,99.6,632.8,00:00:36,297.3,194,125,--.--,31,0000:00:00,11.32,51,0,-1.00,--.--,-11.32,--.--,0,--.--,--.--,--.--,--.--,--.--,--.--,--.--,0,19:57:18,2020-08-02,--.--,--.--,--.--,--.--,--.--,--.--,--.--,0.00,--.--,--.--,true,true,true,true,true,true,false,false,true,true,false,false,0.02,0.01,0.00,0.04,0.00,0.04,0.42,0.21,43.9466170,-78.8996696,17TPJ 68544 68088,0.0,0.0,293.8,3,10,--.--,--.--,--.--,0.0,0.0,0.0,0,0,0,341.1,0.2,0.0
2020-08-02 19:57:19.808,-34.7,1.5,260,-0.9,15.9,-19.8,16.2,16.4,-0.3,49.2,99.3,648.7,00:00:37,310.4,194,123,--.--,32,0000:00:00,11.32,51,0,-1.00,--.--,-11.32,--.--,0,--.--,--.--,--.--,--.--,--.--,--.--,--.--,0,19:57:19,2020-08-02,--.--,--.--,--.--,--.--,--.--,--.--,--.--,0.00,--.--,--.--,true,true,true,true,true,true,false,false,true,true,false,false,0.12,0.11,0.00,0.03,0.00,0.16,0.42,0.20,43.9466744,-78.8998616,17TPJ 68528 68094,0.0,0.0,289.1,3,10,--.--,--.--,--.--,0.0,0.0,0.0,0,0,0,345.3,0.2,0.0
2020-08-02 19:57:20.826,-34.2,2.4,237,3.0,16.3,-22.2,16.0,16.4,0.1,49.1,99.2,662.0,00:00:38,320.3,194,121,--.--,32,0000:00:00,11.32,51,0,-1.00,--.--,-11.32,--.--,0,--.--,--.--,--.--,--.--,--.--,--.--,--.--,0,19:57:20,2020-08-02,--.--,--.--,--.--,--.--,--.--,--.--,--.--,0.00,--.--,--.--,true,true,true,true,true,true,false,false,true,true,false,false,0.12,0.11,0.00,0.03,0.00,0.16,0.42,0.20,43.9466991,-78.9000682,17TPJ 68512 68096,0.0,0.0,268.2,3,10,--.--,--.--,--.--,0.0,0.0,0.0,0,0,0,345.3,0.2,0.0
2020-08-02 19:57:21.826,-32.1,2.9,216,5.6,16.4,-25.5,15.8,15.9,0.3,49.3,99.4,675.8,00:00:39,325.0,194,120,--.--,32,0000:00:00,11.32,51,0,-1.00,--.--,-11.32,--.--,0,--.--,--.--,--.--,--.--,--.--,--.--,--.--,0,19:57:21,2020-08-02,--.--,--.--,--.--,--.--,--.--,--.--,--.--,0.00,--.--,--.--,true,true,true,true,true,true,false,false,true,true,false,false,0.12,0.11,0.00,0.03,0.00,0.16,0.42,0.20,43.9466612,-78.9002731,17TPJ 68495 68091,0.0,0.0,242.8,3,10,--.--,--.--,--.--,0.0,0.0,0.0,0,0,0,345.3,0.2,0.0
2020-08-02 19:57:22.827,-27.3,2.8,194,9.3,11.3,-22.8,15.5,16.0,0.5,49.6,99.7,687.1,00:00:40,326.2,194,117,--.--,31,0000:00:00,11.32,51,0,-1.00,--.--,-11.32,--.--,0,--.--,--.--,--.--,--.--,--.--,--.--,--.--,0,19:57:22,2020-08-02,--.--,--.--,--.--,--.--,--.--,--.--,--.--,0.00,--.--,--.--,true,true,true,true,true,true,false,false,true,true,false,false,0.13,0.14,0.00,0.03,0.00,0.08,0.42,0.20,43.9465641,-78.9004296,17TPJ 68483 68080,0.0,0.0,215.3,3,10,--.--,--.--,--.--,0.0,0.0,0.0,0,0,0,349.3,0.2,0.0
2020-08-02 19:57:23.811,-17.9,1.6,174,10.5,4.0,-15.4,15.7,16.2,0.1,49.9,100.0,704.7,00:00:41,322.3,194,115,--.--,28,0000:00:00,11.32,51,0,-1.00,--.--,-11.32,--.--,0,--.--,--.--,--.--,--.--,--.--,--.--,--.--,0,19:57:23,2020-08-02,--.--,--.--,--.--,--.--,--.--,--.--,--.--,0.00,--.--,--.--,true,true,true,true,true,true,false,false,true,true,false,false,0.13,0.14,0.00,0.03,0.00,0.08,0.42,0.20,43.9464288,-78.9005057,17TPJ 68477 68065,0.0,0.0,190.0,3,10,--.--,--.--,--.--,0.0,0.0,0.0,0,0,0,349.3,0.2,0.0
2020-08-02 19:57:24.808,-8.4,0.7,162,9.0,1.0,-8.8,16.2,16.8,-0.3,49.8,99.9,720.8,00:00:42,314.4,194,112,--.--,27,0000:00:00,11.32,51,0,-1.00,--.--,-11.32,--.--,0,--.--,--.--,--.--,--.--,--.--,--.--,--.--,0,19:57:24,2020-08-02,--.--,--.--,--.--,--.--,--.--,--.--,--.--,0.00,--.--,--.--,true,true,true,true,true,true,false,false,true,true,false,false,0.13,0.07,0.00,0.02,0.00,0.03,0.42,0.21,43.9462796,-78.9005083,17TPJ 68478 68048,0.0,0.0,173.0,3,10,--.--,--.--,--.--,0.0,0.0,0.0,0,0,0,344.7,0.2,0.0
2020-08-02 19:57:25.808,-1.0,0.7,156,6.4,0.2,-4.4,16.5,16.9,-0.4,49.4,99.5,736.7,00:00:43,304.6,194,110,--.--,27,0000:00:00,11.32,51,0,-1.00,--.--,-11.32,--.--,0,--.--,--.--,--.--,--.--,--.--,--.--,--.--,0,19:57:25,2020-08-02,--.--,--.--,--.--,--.--,--.--,--.--,--.--,0.00,--.--,--.--,true,true,true,true,true,true,false,false,true,true,false,false,0.13,0.07,0.00,0.02,0.00,0.03,0.42,0.21,43.9461613,-78.9004752,17TPJ 68481 68035,0.0,0.0,164.9,3,10,--.--,--.--,--.--,0.0,0.0,0.0,0,0,0,344.7,0.2,0.0
2020-08-02 19:57:26.828,0.6,1.0,153,-20.9,0.3,-3.5,16.6,16.9,-0.3,49.0,99.1,752.5,00:00:44,294.5,9,107,--.--,27,0000:00:00,11.32,51,0,-1.00,--.--,-11.32,--.--,0,--.--,--.--,--.--,--.--,--.--,--.--,--.--,0,19:57:26,2020-08-02,--.--,--.--,--.--,--.--,--.--,--.--,--.--,0.00,--.--,--.--,true,true,true,true,true,true,false,false,true,true,false,false,0.10,0.07,0.01,0.01,0.00,0.03,0.43,0.21,43.9460149,-78.9004085,17TPJ 68486 68019,0.0,0.0,159.5,3,10,--.--,--.--,--.--,0.0,0.0,0.0,0,0,0,341.3,0.2,0.0
2020-08-02 19:57:27.808,-29.6,3.0,140,-18.4,15.3,-20.4,16.6,17.1,0.2,49.0,99.1,768.6,00:00:45,284.1,9,105,--.--,28,0000:00:00,11.32,51,0,-1.00,--.--,-11.32,--.--,0,--.--,--.--,--.--,--.--,--.--,--.--,--.--,0,19:57:27,2020-08-02,--.--,--.--,--.--,--.--,--.--,--.--,--.--,0.00,--.--,--.--,true,true,true,true,true,true,false,false,true,true,false,false,0.10,0.07,0.01,0.01,0.00,0.03,0.43,0.21,43.9458716,-78.9003276,17TPJ 68493 68003,0.0,0.0,154.9,3,10,--.--,--.--,--.--,0.0,0.0,0.0,0,0,0,341.3,0.2,0.0
2020-08-02 19:57:28.828,-38.2,4.4,111,0.1,18.0,-23.0,16.1,16.3,0.8,49.6,99.7,784.1,00:00:46,269.6,9,103,--.--,29,0000:00:00,11.32,51,0,-1.00,--.--,-11.32,--.--,0,--.--,--.--,--.--,--.--,--.--,--.--,--.--,0,19:57:28,2020-08-02,--.--,--.--,--.--,--.--,--.--,--.--,--.--,0.00,--.--,--.--,true,true,true,true,true,true,false,false,true,true,false,false,0.13,0.10,0.01,0.03,0.00,0.05,0.43,0.21,43.9457463,-78.9002043,17TPJ 68504 67990,0.0,0.0,131.3,3,10,--.--,--.--,--.--,0.0,0.0,0.0,0,0,0,338.4,0.2,0.0
2020-08-02 19:57:29.814,-38.5,3.3,85,1.5,13.2,-18.6,16.2,15.8,0.4,50.2,100.3,802.3,00:00:47,253.3,9,103,--.--,28,0000:00:00,11.32,51,0,-1.00,--.--,-11.32,--.--,0,--.--,--.--,--.--,--.--,--.--,--.--,--.--,0,19:57:29,2020-08-02,--.--,--.--,--.--,--.--,--.--,--.--,--.--,0.00,--.--,--.--,true,true,true,true,true,true,false,false,true,true,false,false,0.13,0.10,0.01,0.03,0.00,0.05,0.43,0.21,43.9456821,-78.9000190,17TPJ 68519 67983,0.0,0.0,100.6,3,10,--.--,--.--,--.--,0.0,0.0,0.0,0,0,0,338.4,0.2,0.0
2020-08-02 19:57:30.808,-38.3,2.5,66,1.2,12.7,-17.3,16.4,16.3,-0.1,50.2,100.3,817.1,00:00:48,240.0,9,105,--.--,27,0000:00:00,11.32,51,0,-1.00,--.--,-11.32,--.--,0,--.--,--.--,--.--,--.--,--.--,--.--,--.--,0,19:57:30,2020-08-02,--.--,--.--,--.--,--.--,--.--,--.--,--.--,0.00,--.--,--.--,true,true,true,true,true,true,false,false,true,true,false,false,0.24,0.19,0.00,0.02,0.00,0.10,0.43,0.21,43.9456898,-78.8998107,17TPJ 68535 67984,0.0,0.0,74.6,3,10,--.--,--.--,--.--,0.0,0.0,0.0,0,0,0,331.1,0.1,0.0
2020-08-02 19:57:31.809,-38.1,2.0,48,1.4,13.1,-17.4,16.4,16.6,-0.4,49.9,100.0,828.5,00:00:49,231.2,9,107,--.--,28,0000:00:00,11.32,51,0,-1.00,--.--,-11.32,--.--,0,--.--,--.--,--.--,--.--,--.--,--.--,--.--,0,19:57:31,2020-08-02,--.--,--.--,--.--,--.--,--.--,--.--,--.--,0.00,--.--,--.--,true,true,true,true,true,true,false,false,true,true,false,false,0.24,0.19,0.00,0.02,0.00,0.10,0.43,0.21,43.9456898,-78.8998107,17TPJ 68535 67984,0.0,0.0,74.6,3,10,--.--,--.--,--.--,0.0,0.0,0.0,0,0,0,331.1,0.1,0.0
2020-08-02 19:57:32.808,-37.6,2.0,27,1.8,13.8,-17.6,16.4,16.6,-0.4,49.5,99.6,844.5,00:00:50,225.6,9,111,--.--,28,0000:00:00,11.32,51,0,-1.00,--.--,-11.32,--.--,0,--.--,--.--,--.--,--.--,--.--,--.--,--.--,0,19:57:32,2020-08-02,--.--,--.--,--.--,--.--,--.--,--.--,--.--,0.00,--.--,--.--,true,true,true,true,true,true,false,false,true,true,false,false,0.10,0.03,0.00,0.02,0.00,0.00,0.42,0.21,43.9457593,-78.8996217,17TPJ 68550 67992,0.0,0.0,51.6,3,10,--.--,--.--,--.--,0.0,0.0,0.0,0,0,0,316.7,0.1,0.0
2020-08-02 19:57:33.809,-34.6,2.6,7,5.6,10.7,-14.2,16.5,16.0,-0.4,49.0,99.1,861.7,00:00:51,227.5,9,115,--.--,28,0000:00:00,11.32,51,0,-1.00,--.--,-11.32,--.--,0,--.--,--.--,--.--,--.--,--.--,--.--,--.--,0,19:57:33,2020-08-02,--.--,--.--,--.--,--.--,--.--,--.--,--.--,0.00,--.--,--.--,true,true,true,true,true,true,false,false,true,true,false,false,0.10,0.03,0.00,0.02,0.00,0.00,0.42,0.21,43.9458754,-78.8994854,17TPJ 68561 68006,0.0,0.0,28.8,3,10,--.--,--.--,--.--,0.0,0.0,0.0,0,0,0,316.7,0.1,0.0
2020-08-02 19:57:34.830,-28.1,3.8,351,8.2,6.7,-9.7,16.5,16.1,-0.0,48.8,98.9,879.9,00:00:52,236.0,9,119,--.--,28,0000:00:00,11.32,51,0,-1.00,--.--,-11.32,--.--,0,--.--,--.--,--.--,--.--,--.--,--.--,--.--,0,19:57:34,2020-08-02,--.--,--.--,--.--,--.--,--.--,--.--,--.--,0.00,--.--,--.--,true,true,true,true,true,true,false,false,true,true,false,false,0.07,0.13,0.00,0.03,0.00,0.03,0.41,0.21,43.9460219,-78.8994217,17TPJ 68566 68022,0.0,0.0,6.6,3,10,--.--,--.--,--.--,0.0,0.0,0.0,0,0,0,309.4,0.1,0.0
2020-08-02 19:57:35.808,-22.4,4.7,344,7.9,4.2,-6.9,16.3,16.4,0.3,49.0,99.1,892.1,00:00:53,245.4,9,121,--.--,28,0000:00:00,11.32,51,0,-1.00,--.--,-11.32,--.--,0,--.--,--.--,--.--,--.--,--.--,--.--,--.--,0,19:57:35,2020-08-02,--.--,--.--,--.--,--.--,--.--,--.--,--.--,0.00,--.--,--.--,true,true,true,true,true,true,false,false,true,true,false,false,0.07,0.13,0.00,0.03,0.00,0.03,0.41,0.21,43.9461747,-78.8994307,17TPJ 68564 68039,0.0,0.0,349.7,3,10,--.--,--.--,--.--,0.0,0.0,0.0,0,0,0,309.4,0.1,0.0
2020-08-02 19:57:36.831,-15.5,5.2,339,7.0,0.9,-2.7,15.8,15.6,0.6,49.5,99.6,909.7,00:00:54,258.5,320,123,--.--,28,0000:00:00,11.32,51,0,-1.00,--.--,-11.32,--.--,0,--.--,--.--,--.--,--.--,--.--,--.--,--.--,0,19:57:36,2020-08-02,--.--,--.--,--.--,--.--,--.--,--.--,--.--,0.00,--.--,--.--,true,true,true,true,true,true,false,false,true,true,false,false,0.07,0.13,0.00,0.03,0.00,0.03,0.41,0.21,43.9462923,-78.8994753,17TPJ 68560 68052,0.0,0.0,340.4,3,10,--.--,--.--,--.--,0.0,0.0,0.0,0,0,0,312.9,0.1,0.0
2020-08-02 19:57:37.817,-10.6,5.0,339,-30.1,0.6,0.7,15.3,15.0,0.7,50.2,100.3,924.8,00:00:55,271.9,184,125,--.--,27,0000:00:00,11.32,51,0,-1.00,--.--,-11.32,--.--,0,--.--,--.--,--.--,--.--,--.--,--.--,--.--,0,19:57:37,2020-08-02,--.--,--.--,--.--,--.--,--.--,--.--,--.--,0.00,--.--,--.--,true,true,true,true,true,true,false,false,true,true,false,false,0.05,0.06,0.00,0.01,0.00,0.10,0.43,0.21,43.9464274,-78.8995555,17TPJ 68554 68067,0.0,0.0,334.1,3,10,--.--,--.--,--.--,0.0,0.0,0.0,0,0,0,312.9,0.1,0.0
2020-08-02 19:57:38.816,-29.2,2.9,331,-8.9,3.7,-14.1,15.2,14.4,-0.2,50.5,100.6,937.5,00:00:56,284.2,184,126,--.--,29,0000:00:00,11.32,51,0,-1.00,--.--,-11.32,--.--,0,--.--,--.--,--.--,--.--,--.--,--.--,--.--,0,19:57:38,2020-08-02,--.--,--.--,--.--,--.--,--.--,--.--,--.--,0.00,--.--,--.--,true,true,true,true,true,true,false,false,true,true,false,false,0.05,0.06,0.00,0.01,0.00,0.10,0.43,0.21,43.9465547,-78.8996452,17TPJ 68546 68081,0.0,0.0,333.3,3,10,--.--,--.--,--.--,0.0,0.0,0.0,0,0,0,312.9,0.1,0.0
2020-08-02 19:57:39.818,-34.6,1.1,312,-3.0,13.4,-20.0,15.5,15.4,-0.8,49.8,100.0,952.6,00:00:57,299.1,184,127,--.--,30,0000:00:00,11.32,51,0,-1.00,--.--,-11.32,--.--,0,--.--,--.--,--.--,--.--,--.--,--.--,--.--,0,19:57:39,2020-08-02,--.--,--.--,--.--,--.--,--.--,--.--,--.--,0.00,--.--,--.--,true,true,true,true,true,true,false,false,true,true,false,false,0.03,0.05,0.00,0.02,0.00,0.06,0.42,0.21,43.9466757,-78.8997377,17TPJ 68538 68094,0.0,0.0,326.8,3,10,--.--,--.--,--.--,0.0,0.0,0.0,0,0,0,314.4,0.1,0.0
2020-08-02 19:57:40.816,-36.8,1.9,285,-0.5,19.7,-22.8,15.7,16.0,-0.5,49.2,99.3,968.0,00:00:58,314.7,184,126,--.--,30,0000:00:00,11.32,51,0,-1.00,--.--,-11.32,--.--,0,--.--,--.--,--.--,--.--,--.--,--.--,--.--,0,19:57:40,2020-08-02,--.--,--.--,--.--,--.--,--.--,--.--,--.--,0.00,--.--,--.--,true,true,true,true,true,true,false,false,true,true,false,false,0.03,0.05,0.00,0.02,0.00,0.06,0.42,0.21,43.9467813,-78.8998667,17TPJ 68528 68105,0.0,0.0,309.1,3,10,--.--,--.--,--.--,0.0,0.0,0.0,0,0,0,314.4,0.1,0.0
2020-08-02 19:57:41.808,-37.7,4.1,258,1.9,20.6,-22.5,15.8,15.8,0.0,49.1,99.2,983.4,00:00:59,326.4,184,125,--.--,30,0000:00:00,11.32,51,0,-1.00,--.--,-11.32,--.--,0,--.--,--.--,--.--,--.--,--.--,--.--,--.--,0,19:57:41,2020-08-02,--.--,--.--,--.--,--.--,--.--,--.--,--.--,0.00,--.--,--.--,true,true,true,true,true,true,false,false,true,true,false,false,0.06,0.08,0.00,0.00,0.00,0.01,0.42,0.20,43.9468441,-78.9000423,17TPJ 68513 68112,0.0,0.0,282.7,3,10,--.--,--.--,--.--,0.0,0.0,0.0,0,0,0,316.1,0.1,0.0
2020-08-02 19:57:42.817,-38.0,5.5,228,3.1,22.8,-28.2,15.1,15.2,0.6,49.5,99.6,996.0,00:01:00,334.1,184,123,--.--,31,0000:00:00,11.32,51,0,-1.00,--.--,-11.32,--.--,0,--.--,--.--,--.--,--.--,--.--,--.--,--.--,0,19:57:42,2020-08-02,--.--,--.--,--.--,--.--,--.--,--.--,--.--,0.00,--.--,--.--,true,true,true,true,true,true,false,false,true,true,false,false,0.06,0.08,0.00,0.00,0.00,0.01,0.42,0.20,43.9468380,-78.9002406,17TPJ 68498 68111,0.0,0.0,252.3,3,10,--.--,--.--,--.--,0.0,0.0,0.0,0,0,0,316.1,0.1,0.0
2020-08-02 19:57:43.809,-38.0,5.5,194,5.3,22.4,-29.9,14.5,14.8,0.9,50.2,100.3,1009.3,00:01:01,335.5,184,121,--.--,31,0000:00:00,11.32,51,0,-1.00,--.--,-11.32,--.--,0,--.--,--.--,--.--,--.--,--.--,--.--,--.--,0,19:57:43,2020-08-02,--.--,--.--,--.--,--.--,--.--,--.--,--.--,0.00,--.--,--.--,true,true,true,true,true,true,false,false,true,true,false,false,0.13,0.02,0.00,0.02,0.00,0.01,0.41,0.21,43.9467615,-78.9004004,17TPJ 68485 68102,0.0,0.0,219.4,3,10,--.--,--.--,--.--,0.0,0.0,0.0,0,0,0,315.8,0.1,0.0
2020-08-02 19:57:44.817,-31.3,3.5,162,12.3,11.2,-22.8,14.6,15.0,0.4,50.9,101.0,1024.1,00:01:02,329.3,184,119,--.--,27,0000:00:00,11.32,51,0,-1.00,--.--,-11.32,--.--,0,--.--,--.--,--.--,--.--,--.--,--.--,--.--,0,19:57:44,2020-08-02,--.--,--.--,--.--,--.--,--.--,--.--,--.--,0.00,--.--,--.--,true,true,true,true,true,true,false,false,true,true,false,false,0.13,0.02,0.00,0.02,0.00,0.01,0.41,0.21,43.9466355,-78.9004663,17TPJ 68480 68088,0.0,0.0,182.6,3,10,--.--,--.--,--.--,0.0,0.0,0.0,0,0,0,315.8,0.1,0.0
2020-08-02 19:57:45.808,-21.9,1.8,146,13.6,5.1,-17.4,14.8,14.8,-0.1,50.9,101.0,1036.7,00:01:03,320.3,184,117,--.--,26,0000:00:00,11.32,51,0,-1.00,--.--,-11.32,--.--,0,--.--,--.--,--.--,--.--,--.--,--.--,--.--,0,19:57:45,2020-08-02,--.--,--.--,--.--,--.--,--.--,--.--,--.--,0.00,--.--,--.--,true,true,true,true,true,true,false,false,true,true,false,false,0.08,0.11,0.00,0.01,0.00,0.07,0.41,0.20,43.9465029,-78.9004271,17TPJ 68484 68073,0.0,0.0,155.4,3,10,--.--,--.--,--.--,0.0,0.0,0.0,0,0,0,313.0,0.1,0.0
2020-08-02 19:57:46.819,-5.6,0.6,133,17.1,0.6,-7.2,15.2,15.5,-0.6,50.6,100.7,1051.7,00:01:04,306.6,184,116,--.--,25,0000:00:00,11.32,51,0,-1.00,--.--,-11.32,--.--,0,--.--,--.--,--.--,--.--,--.--,--.--,--.--,0,19:57:46,2020-08-02,--.--,--.--,--.--,--.--,--.--,--.--,--.--,0.00,--.--,--.--,true,true,true,true,true,true,false,false,true,true,false,false,0.08,0.11,0.00,0.01,0.00,0.07,0.41,0.20,43.9464093,-78.9003454,17TPJ 68490 68063,0.0,0.0,141.4,3,10,--.--,--.--,--.--,0.0,0.0,0.0,0,0,0,313.0,0.1,0.0
2020-08-02 19:57:47.822,8.8,0.4,130,11.2,0.5,2.2,15.7,15.2,-0.8,49.9,100.0,1066.8,00:01:05,292.2,184,115,--.--,25,0000:00:00,11.32,51,0,-1.00,--.--,-11.32,--.--,0,--.--,--.--,--.--,--.--,--.--,--.--,--.--,0,19:57:47,2020-08-02,--.--,--.--,--.--,--.--,--.--,--.--,--.--,0.00,--.--,--.--,true,true,true,true,true,true,false,false,true,true,false,false,0.03,0.07,0.01,0.02,0.00,0.03,0.43,0.21,43.9463070,-78.9002111,17TPJ 68501 68052,0.0,0.0,133.7,3,10,--.--,--.--,--.--,0.0,0.0,0.0,0,0,0,310.0,0.1,0.0
2020-08-02 19:57:48.820,17.0,1.0,135,5.4,3.1,6.6,16.1,16.0,-0.8,49.2,99.3,1084.2,00:01:06,277.3,184,114,--.--,26,0000:00:00,11.32,51,0,-1.00,--.--,-11.32,--.--,0,--.--,--.--,--.--,--.--,--.--,--.--,--.--,0,19:57:48,2020-08-02,--.--,--.--,--.--,--.--,--.--,--.--,--.--,0.00,--.--,--.--,true,true,true,true,true,true,false,false,true,true,false,false,0.03,0.07,0.01,0.02,0.00,0.03,0.43,0.21,43.9462059,-78.9000647,17TPJ 68513 68041,0.0,0.0,135.2,3,10,--.--,--.--,--.--,0.0,0.0,0.0,0,0,0,310.0,0.1,0.0
2020-08-02 19:57:49.820,20.2,2.1,144,1.2,4.6,8.3,16.4,16.1,-0.5,48.6,98.7,1100.4,00:01:07,262.7,184,112,--.--,26,0000:00:00,11.32,51,0,-1.00,--.--,-11.32,--.--,0,--.--,--.--,--.--,--.--,--.--,--.--,--.--,0,19:57:49,2020-08-02,--.--,--.--,--.--,--.--,--.--,--.--,--.--,0.00,--.--,--.--,true,true,true,true,true,true,false,false,true,true,false,false,0.03,0.05,0.00,0.02,0.00,0.01,0.42,0.21,43.9460948,-78.8999276,17TPJ 68525 68029,0.0,0.0,142.2,3,10,--.--,--.--,--.--,0.0,0.0,0.0,0,0,0,308.9,0.1,0.0
2020-08-02 19:57:50.808,20.1,3.1,153,-1.6,3.8,8.1,16.6,15.9,-0.1,48.3,98.4,1117.1,00:01:08,249.9,184,110,--.--,27,0000:00:00,11.32,51,0,-1.00,--.--,-11.32,--.--,0,--.--,--.--,--.--,--.--,--.--,--.--,--.--,0,19:57:50,2020-08-02,--.--,--.--,--.--,--.--,--.--,--.--,--.--,0.00,--.--,--.--,true,true,true,true,true,true,false,false,true,true,false,false,0.03,0.05,0.00,0.02,0.00,0.01,0.42,0.21,43.9459682,-78.8998128,17TPJ 68534 68015,0.0,0.0,151.6,3,10,--.--,--.--,--.--,0.0,0.0,0.0,0,0,0,308.9,0.1,0.0
2020-08-02 19:57:51.808,18.2,3.8,161,-2.9,2.8,6.5,16.6,16.7,0.1,48.3,98.4,1133.3,00:01:09,239.2,184,107,--.--,27,0000:00:00,11.32,51,0,-1.00,--.--,-11.32,--.--,0,--.--,--.--,--.--,--.--,--.--,--.--,--.--,0,19:57:51,2020-08-02,--.--,--.--,--.--,--.--,--.--,--.--,--.--,0.00,--.--,--.--,true,true,true,true,true,true,false,false,true,true,false,false,0.08,0.10,0.00,0.01,0.00,0.12,0.42,0.20,43.9458284,-78.8997281,17TPJ 68542 68000,0.0,0.0,160.9,3,10,--.--,--.--,--.--,0.0,0.0,0.0,0,0,0,298.2,0.1,0.0
2020-08-02 19:57:52.809,15.5,4.2,167,-3.4,1.8,4.6,16.5,16.7,0.2,48.4,98.5,1148.4,00:01:10,231.3,184,104,--.--,27,0000:00:00,11.32,51,0,-1.00,--.--,-11.32,--.--,0,--.--,--.--,--.--,--.--,--.--,--.--,--.--,0,19:57:52,2020-08-02,--.--,--.--,--.--,--.--,--.--,--.--,--.--,0.00,--.--,--.--,true,true,true,true,true,true,false,false,true,true,false,false,0.08,0.10,0.00,0.01,0.00,0.12,0.42,0.20,43.9456825,-78.8996732,17TPJ 68546 67984,0.0,0.0,168.3,3,10,--.--,--.--,--.--,0.0,0.0,0.0,0,0,0,298.2,0.1,0.0
2020-08-02 19:57:53.821,13.1,4.5,171,-2.8,0.7,3.1,16.3,16.3,0.3,48.6,98.7,1166.5,00:01:11,225.9,184,100,--.--,26,0000:00:00,11.32,51,0,-1.00,--.--,-11.32,--.--,0,--.--,--.--,--.--,--.--,--.--,--.--,--.--,0,19:57:53,2020-08-02,--.--,--.--,--.--,--.--,--.--,--.--,--.--,0.00,--.--,--.--,true,true,true,true,true,true,false,false,true,true,false,false,0.08,0.03,0.00,0.02,0.00,0.01,0.42,0.20,43.9455328,-78.8996405,17TPJ 68549 67967,0.0,0.0,173.4,3,10,--.--,--.--,--.--,0.0,0.0,0.0,0,0,0,289.3,0.1,0.0
2020-08-02 19:57:54.813,11.3,4.6,173,-2.0,0.6,1.7,16.2,16.6,0.3,48.8,98.9,1180.2,00:01:12,222.8,184,96,--.--,26,0000:00:00,11.32,51,0,-1.00,--.--,-11.32,--.--,0,--.--,--.--,--.--,--.--,--.--,--.--,--.--,0,19:57:54,2020-08-02,--.--,--.--,--.--,--.--,--.--,--.--,--.--,0.00,--.--,--.--,true,true,true,true,true,true,false,false,true,true,false,false,0.08,0.03,0.00,0.02,0.00,0.01,0.42,0.20,43.9455328,-78.8996405,17TPJ 68549 67967,0.0,0.0,173.4,3,10,--.--,--.--,--.--,0.0,0.0,0.0,0,0,0,289.3,0.1,0.0
2020-08-02 19:57:55.809,10.1,4.7,174,-1.7,0.0,1.1,16.1,16.1,0.3,49.1,99.2,1193.9,00:01:13,221.3,184,93,--.--,25,0000:00:00,11.32,51,0,-1.00,--.--,-11.32,--.--,0,--.--,--.--,--.--,--.--,--.--,--.--,--.--,0,19:57:55,2020-08-02,--.--,--.--,--.--,--.--,--.--,--.--,--.--,0.00,--.--,--.--,true,true,true,true,true,true,false,false,true,true,false,false,0.08,0.03,0.00,0.02,0.00,0.01,0.42,0.20,43.9453840,-78.8996231,17TPJ 68551 67951,0.0,0.0,176.6,3,10,--.--,--.--,--.--,0.0,0.0,0.0,0,0,0,279.9,0.1,0.0
2020-08-02 19:57:56.823,9.2,4.6,174,-1.1,-0.2,0.4,16.0,15.8,0.3,49.3,99.4,1207.5,00:01:14,220.8,184,89,--.--,26,0000:00:00,11.32,51,0,-1.00,--.--,-11.32,--.--,0,--.--,--.--,--.--,--.--,--.--,--.--,--.--,0,19:57:56,2020-08-02,--.--,--.--,--.--,--.--,--.--,--.--,--.--,0.00,--.--,--.--,true,true,true,true,true,true,false,false,true,true,false,false,0.08,0.10,0.01,0.03,0.00,0.08,0.41,0.20,43.9452352,-78.8996143,17TPJ 68552 67934,0.0,0.0,178.2,3,10,--.--,--.--,--.--,0.0,0.0,0.0,0,0,0,279.9,0.1,0.0
2020-08-02 19:57:57.823,8.8,4.5,174,-0.4,0.0,-0.0,16.0,15.6,0.2,49.5,99.6,1223.3,00:01:15,221.3,190,85,--.--,25,0000:00:00,11.32,51,0,-1.00,--.--,-11.32,--.--,0,--.--,--.--,--.--,--.--,--.--,--.--,--.--,0,19:57:57,2020-08-02,--.--,--.--,--.--,--.--,--.--,--.--,--.--,0.00,--.--,--.--,true,true,true,true,true,true,false,false,true,true,false,false,0.08,0.10,0.01,0.03,0.00,0.08,0.41,0.20,43.9450889,-78.8996094,17TPJ 68553 67918,0.0,0.0,178.9,3,10,--.--,--.--,--.--,0.0,0.0,0.0,0,0,0,259.8,0.1,0.0
2020-08-02 19:57:58.808,8.1,4.5,174,-1.7,-0.0,-0.7,15.8,15.4,0.2,49.6,99.7,1234.3,00:01:16,222.5,175,82,--.--,25,0000:00:00,11.32,51,0,-1.00,--.--,-11.32,--.--,0,--.--,--.--,--.--,--.--,--.--,--.--,--.--,0,19:57:58,2020-08-02,--.--,--.--,--.--,--.--,--.--,--.--,--.--,0.00,--.--,--.--,true,true,true,true,true,true,false,false,true,true,false,false,0.05,0.15,0.01,0.01,0.00,0.06,0.43,0.21,43.9449716,-78.8996062,17TPJ 68554 67905,0.0,0.0,178.9,3,10,--.--,--.--,--.--,0.0,0.0,0.0,0,0,0,259.8,0.1,0.0
2020-08-02 19:57:59.808,6.5,4.6,173,-1.6,-0.1,-1.4,15.7,15.6,0.2,49.8,99.9,1249.4,00:01:17,224.8,175,78,--.--,25,0000:00:00,11.32,51,0,-1.00,--.--,-11.32,--.--,0,--.--,--.--,--.--,--.--,--.--,--.--,--.--,0,19:57:59,2020-08-02,--.--,--.--,--.--,--.--,--.--,--.--,--.--,0.00,--.--,--.--,true,true,true,true,true,true,false,false,true,true,false,false,0.05,0.15,0.01,0.01,0.00,0.06,0.43,0.21,43.9448271,-78.8996022,17TPJ 68554 67889,0.0,0.0,178.6,3,10,--.--,--.--,--.--,0.0,0.0,0.0,0,0,0,259.8,0.1,0.0
2020-08-02 19:58:00.808,5.2,4.7,172,-0.7,0.1,-2.0,15.6,15.4,0.2,50.0,100.1,1264.9,00:01:18,227.6,175,74,--.--,25,0000:00:00,11.32,51,0,-1.00,--.--,-11.32,--.--,0,--.--,--.--,--.--,--.--,--.--,--.--,--.--,0,19:58:00,2020-08-02,--.--,--.--,--.--,--.--,--.--,--.--,--.--,0.00,--.--,--.--,true,true,true,true,true,true,false,false,true,true,false,false,0.02,0.02,0.01,0.01,0.00,0.07,0.42,0.20,43.9446824,-78.8995956,17TPJ 68555 67873,0.0,0.0,177.3,3,10,--.--,--.--,--.--,0.0,0.0,0.0,0,0,0,254.8,0.1,0.0
2020-08-02 19:58:01.808,4.6,4.6,169,-0.2,-0.4,-2.5,15.5,15.1,0.2,50.2,100.3,1280.2,00:01:19,231.1,175,71,--.--,24,0000:00:00,11.32,51,0,-1.00,--.--,-11.32,--.--,0,--.--,--.--,--.--,--.--,--.--,--.--,--.--,0,19:58:01,2020-08-02,--.--,--.--,--.--,--.--,--.--,--.--,--.--,0.00,--.--,--.--,true,true,true,true,true,true,false,false,true,true,false,false,0.02,0.02,0.01,0.01,0.00,0.07,0.42,0.20,43.9445401,-78.8995836,17TPJ 68557 67857,0.0,0.0,175.5,3,10,--.--,--.--,--.--,0.0,0.0,0.0,0,0,0,254.8,0.1,0.0
2020-08-02 19:58:02.830,4.6,4.5,167,0.7,-0.7,-2.1,15.4,14.9,0.2,50.4,100.5,1295.6,00:01:20,234.7,175,67,--.--,24,0000:00:00,11.32,51,0,-1.00,--.--,-11.32,--.--,0,--.--,--.--,--.--,--.--,--.--,--.--,--.--,0,19:58:02,2020-08-02,--.--,--.--,--.--,--.--,--.--,--.--,--.--,0.00,--.--,--.--,true,true,true,true,true,true,false,false,true,true,false,false,0.04,0.10,0.00,0.02,0.00,0.03,0.42,0.21,43.9443984,-78.8995641,17TPJ 68559 67841,0.0,0.0,173.1,3,10,--.--,--.--,--.--,0.0,0.0,0.0,0,0,0,238.8,0.1,0.0
2020-08-02 19:58:03.814,5.0,4.2,165,0.6,-0.0,-1.9,15.3,14.9,0.1,50.4,100.5,1310.4,00:01:21,238.7,175,64,--.--,24,0000:00:00,11.32,51,0,-1.00,--.--,-11.32,--.--,0,--.--,--.--,--.--,--.--,--.--,--.--,--.--,0,19:58:03,2020-08-02,--.--,--.--,--.--,--.--,--.--,--.--,--.--,0.00,--.--,--.--,true,true,true,true,true,true,false,false,true,true,false,false,0.04,0.10,0.00,0.02,0.00,0.03,0.42,0.21,43.9442598,-78.8995370,17TPJ 68561 67826,0.0,0.0,170.9,3,10,--.--,--.--,--.--,0.0,0.0,0.0,0,0,0,238.8,0.1,0.0
2020-08-02 19:58:04.809,5.6,4.2,164,0.5,0.1,-1.2,15.2,15.3,0.0,50.4,100.5,1322.9,00:01:22,243.0,175,61,--.--,24,0000:00:00,11.32,51,0,-1.00,--.--,-11.32,--.--,0,--.--,--.--,--.--,--.--,--.--,--.--,--.--,0,19:58:04,2020-08-02,--.--,--.--,--.--,--.--,--.--,--.--,--.--,0.00,--.--,--.--,true,true,true,true,true,true,false,false,true,true,false,false,0.05,0.05,0.01,0.01,0.00,0.00,0.41,0.20,43.9441218,-78.8995030,17TPJ 68564 67811,0.0,0.0,169.1,3,10,--.--,--.--,--.--,0.0,0.0,0.0,0,0,0,235.3,0.1,0.0
2020-08-02 19:58:05.810,6.0,4.3,163,0.5,0.2,-0.9,15.1,15.3,0.0,50.4,100.5,1337.9,00:01:23,247.7,175,57,--.--,24,0000:00:00,11.32,51,0,-1.00,--.--,-11.32,--.--,0,--.--,--.--,--.--,--.--,--.--,--.--,--.--,0,19:58:05,2020-08-02,--.--,--.--,--.--,--.--,--.--,--.--,--.--,0.00,--.--,--.--,true,true,true,true,true,true,false,false,true,true,false,false,0.05,0.05,0.01,0.01,0.00,0.00,0.41,0.20,43.9439839,-78.8994636,17TPJ 68568 67796,0.0,0.0,167.8,3,10,--.--,--.--,--.--,0.0,0.0,0.0,0,0,0,235.3,0.1,0.0
2020-08-02 19:58:06.810,-4.2,4.3,161,-42.9,0.8,-7.4,15.1,15.3,0.0,50.5,100.6,1352.8,00:01:24,252.7,0,54,--.--,24,0000:00:00,11.32,51,0,-1.00,--.--,-11.32,--.--,0,--.--,--.--,--.--,--.--,--.--,--.--,--.--,0,19:58:06,2020-08-02,--.--,--.--,--.--,--.--,--.--,--.--,--.--,0.00,--.--,--.--,true,true,true,true,true,true,false,false,true,true,false,false,0.05,0.08,0.01,0.02,0.00,0.01,0.41,0.20,43.9439839,-78.8994636,17TPJ 68568 67796,0.0,0.0,167.8,3,10,--.--,--.--,--.--,0.0,0.0,0.0,0,0,0,234.3,0.1,0.0
2020-08-02 19:58:07.816,-30.3,6.6,143,-9.6,16.0,-23.0,14.8,14.5,0.8,50.9,101.0,1365.6,00:01:25,256.5,0,51,--.--,26,0000:00:00,11.32,51,0,-1.00,--.--,-11.32,--.--,0,--.--,--.--,--.--,--.--,--.--,--.--,--.--,0,19:58:07,2020-08-02,--.--,--.--,--.--,--.--,--.--,--.--,--.--,0.00,--.--,--.--,true,true,true,true,true,true,false,false,true,true,false,false,0.05,0.08,0.01,0.02,0.00,0.01,0.41,0.20,43.9438479,-78.8994210,17TPJ 68572 67781,0.0,0.0,166.6,3,10,--.--,--.--,--.--,0.0,0.0,0.0,0,0,0,234.3,0.1,0.0
2020-08-02 19:58:08.810,-35.2,6.7,116,2.5,15.1,-25.0,14.1,14.4,0.9,51.7,101.8,1378.8,00:01:26,255.7,0,49,--.--,26,0000:00:00,11.32,51,0,-1.00,--.--,-11.32,--.--,0,--.--,--.--,--.--,--.--,--.--,--.--,--.--,0,19:58:08,2020-08-02,--.--,--.--,--.--,--.--,--.--,--.--,--.--,0.00,--.--,--.--,true,true,true,true,true,true,false,false,true,true,false,false,0.05,0.08,0.01,0.02,0.00,0.01,0.41,0.20,43.9437175,-78.8993575,17TPJ 68577 67766,0.0,0.0,150.1,3,10,--.--,--.--,--.--,0.0,0.0,0.0,0,0,0,225.4,0.1,0.0
2020-08-02 19:58:09.827,-34.6,4.9,92,3.3,12.3,-19.9,14.0,13.9,0.5,52.4,102.5,1392.1,00:01:27,250.0,0,46,--.--,25,0000:00:00,11.32,51,0,-1.00,--.--,-11.32,--.--,0,--.--,--.--,--.--,--.--,--.--,--.--,--.--,0,19:58:09,2020-08-02,--.--,--.--,--.--,--.--,--.--,--.--,--.--,0.00,--.--,--.--,true,true,true,true,true,true,false,false,true,true,false,false,0.19,0.09,0.00,0.01,0.00,0.03,0.43,0.21,43.9436386,-78.8992597,17TPJ 68585 67758,0.0,0.0,125.6,3,10,--.--,--.--,--.--,0.0,0.0,0.0,0,0,0,225.4,0.1,0.0
2020-08-02 19:58:10.827,-33.9,4.1,73,2.0,11.2,-17.5,14.2,14.7,0.0,52.5,102.6,1403.5,00:01:28,240.3,0,44,--.--,23,0000:00:00,11.32,51,0,-1.00,--.--,-11.32,--.--,0,--.--,--.--,--.--,--.--,--.--,--.--,--.--,0,19:58:10,2020-08-02,--.--,--.--,--.--,--.--,--.--,--.--,--.--,0.00,--.--,--.--,true,true,true,true,true,true,false,false,true,true,false,false,0.19,0.09,0.00,0.01,0.00,0.03,0.43,0.21,43.9435939,-78.8990920,17TPJ 68599 67753,0.0,0.0,95.9,3,10,--.--,--.--,--.--,0.0,0.0,0.0,0,0,0,225.4,0.1,0.0
2020-08-02 19:58:11.808,-33.7,3.8,54,1.9,11.3,-16.8,14.3,14.9,-0.2,52.3,102.4,1417.2,00:01:29,228.1,0,43,--.--,24,0000:00:00,11.32,51,0,-1.00,--.--,-11.32,--.--,0,--.--,--.--,--.--,--.--,--.--,--.--,--.--,0,19:58:11,2020-08-02,--.--,--.--,--.--,--.--,--.--,--.--,--.--,0.00,--.--,--.--,true,true,true,true,true,true,false,false,true,true,false,false,0.08,0.06,0.01,0.01,0.00,0.09,0.43,0.21,43.9436100,-78.8989103,17TPJ 68613 67755,0.0,0.0,71.1,3,10,--.--,--.--,--.--,0.0,0.0,0.0,0,0,0,228.0,0.1,0.0
2020-08-02 19:58:12.828,-33.6,3.7,34,1.7,11.5,-16.9,14.5,14.3,-0.3,52.0,102.1,1431.8,00:01:30,213.4,0,43,--.--,24,0000:00:00,11.32,51,0,-1.00,--.--,-11.32,--.--,0,--.--,--.--,--.--,--.--,--.--,--.--,--.--,0,19:58:12,2020-08-02,--.--,--.--,--.--,--.--,--.--,--.--,--.--,0.00,--.--,--.--,true,true,true,true,true,true,false,false,true,true,false,false,0.08,0.06,0.01,0.01,0.00,0.09,0.43,0.21,43.9436775,-78.8987497,17TPJ 68626 67763,0.0,0.0,48.8,3,10,--.--,--.--,--.--,0.0,0.0,0.0,0,0,0,228.0,0.1,0.0
2020-08-02 19:58:13.816,-32.5,3.9,18,3.8,10.6,-15.5,14.6,14.7,-0.3,51.6,101.7,1444.3,00:01:31,201.8,0,44,--.--,24,0000:00:00,11.32,51,0,-1.00,--.--,-11.32,--.--,0,--.--,--.--,--.--,--.--,--.--,--.--,--.--,0,19:58:13,2020-08-02,--.--,--.--,--.--,--.--,--.--,--.--,--.--,0.00,--.--,--.--,true,true,true,true,true,true,false,false,true,true,false,false,0.07,0.09,0.01,0.01,0.00,0.07,0.43,0.21,43.9437821,-78.8986355,17TPJ 68635 67775,0.0,0.0,27.4,3,10,--.--,--.--,--.--,0.0,0.0,0.0,0,0,0,225.7,0.1,0.0
2020-08-02 19:58:14.808,-29.0,4.4,3,6.5,7.7,-12.2,14.7,14.3,-0.2,51.4,101.5,1457.3,00:01:32,191.5,0,46,--.--,24,0000:00:00,11.32,51,0,-1.00,--.--,-11.32,--.--,0,--.--,--.--,--.--,--.--,--.--,--.--,--.--,0,19:58:14,2020-08-02,--.--,--.--,--.--,--.--,--.--,--.--,--.--,0.00,--.--,--.--,true,true,true,true,true,true,false,false,true,true,false,false,0.07,0.09,0.01,0.01,0.00,0.07,0.43,0.21,43.9439111,-78.8985809,17TPJ 68639 67789,0.0,0.0,7.1,3,10,--.--,--.--,--.--,0.0,0.0,0.0,0,0,0,225.7,0.1,0.0
2020-08-02 19:58:15.808,-24.2,4.9,354,7.1,4.7,-8.5,14.5,14.5,-0.0,51.4,101.5,1468.8,00:01:33,184.2,0,49,--.--,24,0000:00:00,11.32,51,0,-1.00,--.--,-11.32,--.--,0,--.--,--.--,--.--,--.--,--.--,--.--,--.--,0,19:58:15,2020-08-02,--.--,--.--,--.--,--.--,--.--,--.--,--.--,0.00,--.--,--.--,true,true,true,true,true,true,false,false,true,true,false,false,0.03,0.05,0.00,0.02,0.00,0.02,0.42,0.21,43.9439111,-78.8985809,17TPJ 68639 67789,0.0,0.0,7.1,3,10,--.--,--.--,--.--,0.0,0.0,0.0,0,0,0,227.6,0.1,0.0
2020-08-02 19:58:16.808,-18.4,5.1,346,5.7,1.3,-5.2,14.2,13.6,0.2,51.5,101.6,1482.5,00:01:34,178.5,0,53,--.--,25,0000:00:00,11.32,51,0,-1.00,--.--,-11.32,--.--,0,--.--,--.--,--.--,--.--,--.--,--.--,--.--,0,19:58:16,2020-08-02,--.--,--.--,--.--,--.--,--.--,--.--,--.--,0.00,--.--,--.--,true,true,true,true,true,true,false,false,true,true,false,false,0.03,0.05,0.00,0.02,0.00,0.02,0.42,0.21,43.9440450,-78.8985843,17TPJ 68638 67804,0.0,0.0,351.7,3,10,--.--,--.--,--.--,0.0,0.0,0.0,0,0,0,227.6,0.1,0.0
2020-08-02 19:58:17.809,-14.2,4.8,342,3.8,0.1,-2.3,14.0,13.8,0.2,51.7,101.8,1496.2,00:01:35,175.2,0,58,--.--,24,0000:00:00,11.32,51,0,-1.00,--.--,-11.32,--.--,0,--.--,--.--,--.--,--.--,--.--,--.--,--.--,0,19:58:17,2020-08-02,--.--,--.--,--.--,--.--,--.--,--.--,--.--,0.00,--.--,--.--,true,true,true,true,true,true,false,false,true,true,false,false,0.07,0.05,0.01,0.03,0.00,0.02,0.41,0.20,43.9441744,-78.8986279,17TPJ 68634 67818,0.0,0.0,341.9,3,10,--.--,--.--,--.--,0.0,0.0,0.0,0,0,0,237.1,0.1,0.0
2020-08-02 19:58:18.808,-12.0,4.1,341,1.9,-0.8,-0.7,13.8,13.4,0.1,51.8,101.9,1509.6,00:01:36,174.0,0,62,--.--,24,0000:00:00,11.32,51,0,-1.00,--.--,-11.32,--.--,0,--.--,--.--,--.--,--.--,--.--,--.--,--.--,0,19:58:18,2020-08-02,--.--,--.--,--.--,--.--,--.--,--.--,--.--,0.00,--.--,--.--,true,true,true,true,true,true,false,false,true,true,false,false,0.07,0.05,0.01,0.03,0.00,0.02,0.41,0.20,43.9442951,-78.8986921,17TPJ 68629 67832,0.0,0.0,336.9,3,10,--.--,--.--,--.--,0.0,0.0,0.0,0,0,0,237.1,0.1,0.0
2020-08-02 19:58:19.808,-11.1,3.4,341,1.1,-0.9,-0.0,13.7,13.3,-0.1,51.8,101.9,1520.8,00:01:37,173.8,0,65,--.--,25,0000:00:00,11.32,51,0,-1.00,--.--,-11.32,--.--,0,--.--,--.--,--.--,--.--,--.--,--.--,--.--,0,19:58:19,2020-08-02,--.--,--.--,--.--,--.--,--.--,--.--,--.--,0.00,--.--,--.--,true,true,true,true,true,true,false,false,true,true,false,false,0.07,0.05,0.01,0.03,0.00,0.02,0.41,0.20,43.9444112,-78.8987653,17TPJ 68623 67844,0.0,0.0,334.7,3,10,--.--,--.--,--.--,0.0,0.0,0.0,0,0,0,237.1,0.1,0.0
2020-08-02 19:58:20.808,-9.8,3.0,341,2.9,-0.7,0.2,13.7,13.1,-0.2,51.7,101.8,1531.7,00:01:38,174.4,0,69,--.--,24,0000:00:00,11.32,51,0,-1.00,--.--,-11.32,--.--,0,--.--,--.--,--.--,--.--,--.--,--.--,--.--,0,19:58:20,2020-08-02,--.--,--.--,--.--,--.--,--.--,--.--,--.--,0.00,--.--,--.--,true,true,true,true,true,true,false,false,true,true,false,false,0.08,0.08,0.00,0.02,0.00,0.10,0.43,0.21,43.9445012,-78.8988253,17TPJ 68618 67854,0.0,0.0,334.1,3,10,--.--,--.--,--.--,0.0,0.0,0.0,0,0,0,253.6,0.1,0.0
2020-08-02 19:58:21.815,-6.9,3.0,342,3.0,-0.1,2.6,13.7,13.2,-0.1,51.6,101.7,1544.6,00:01:39,175.7,0,73,--.--,25,0000:00:00,11.32,51,0,-1.00,--.--,-11.32,--.--,0,--.--,--.--,--.--,--.--,--.--,--.--,--.--,0,19:58:21,2020-08-02,--.--,--.--,--.--,--.--,--.--,--.--,--.--,0.00,--.--,--.--,true,true,true,true,true,true,false,false,true,true,false,false,0.08,0.08,0.00,0.02,0.00,0.10,0.43,0.21,43.9446146,-78.8989014,17TPJ 68611 67867,0.0,0.0,334.3,3,10,--.--,--.--,--.--,0.0,0.0,0.0,0,0,0,253.6,0.1,0.0
2020-08-02 19:58:22.811,-4.7,3.2,346,1.7,-0.3,4.5,13.7,13.9,0.0,51.5,101.6,1555.5,00:01:40,177.4,0,77,--.--,24,0000:00:00,11.32,51,0,-1.00,--.--,-11.32,--.--,0,--.--,--.--,--.--,--.--,--.--,--.--,--.--,0,19:58:22,2020-08-02,--.--,--.--,--.--,--.--,--.--,--.--,--.--,0.00,--.--,--.--,true,true,true,true,true,true,false,false,true,true,false,false,0.04,0.03,0.00,0.03,0.00,0.00,0.42,0.21,43.9447282,-78.8989743,17TPJ 68605 67879,0.0,0.0,336.5,3,10,--.--,--.--,--.--,0.0,0.0,0.0,0,0,0,257.2,0.1,0.0
2020-08-02 19:58:23.815,-3.8,3.0,350,-0.1,-0.6,4.7,13.7,13.5,0.0,51.5,101.6,1568.8,00:01:41,179.2,0,81,--.--,24,0000:00:00,11.32,51,0,-1.00,--.--,-11.32,--.--,0,--.--,--.--,--.--,--.--,--.--,--.--,--.--,0,19:58:23,2020-08-02,--.--,--.--,--.--,--.--,--.--,--.--,--.--,0.00,--.--,--.--,true,true,true,true,true,true,false,false,true,true,false,false,0.04,0.03,0.00,0.03,0.00,0.00,0.42,0.21,43.9448455,-78.8990389,17TPJ 68600 67892,0.0,0.0,340.6,3,10,--.--,--.--,--.--,0.0,0.0,0.0,0,0,0,257.2,0.1,0.0
2020-08-02 19:58:24.832,-3.9,2.8,354,-0.8,-0.8,4.7,13.8,13.6,0.0,51.5,101.6,1579.9,00:01:42,180.8,0,84,--.--,25,0000:00:00,11.32,51,0,-1.00,--.--,-11.32,--.--,0,--.--,--.--,--.--,--.--,--.--,--.--,--.--,0,19:58:24,2020-08-02,--.--,--.--,--.--,--.--,--.--,--.--,--.--,0.00,--.--,--.--,true,true,true,true,true,true,false,false,true,true,false,false,0.04,0.06,0.01,0.02,0.00,0.14,0.42,0.20,43.9448455,-78.8990389,17TPJ 68600 67892,0.0,0.0,340.6,3,10,--.--,--.--,--.--,0.0,0.0,0.0,0,0,0,266.3,0.1,0.0
2020-08-02 19:58:25.811,-4.7,2.6,358,-1.3,-0.5,3.6,13.9,13.8,-0.0,51.5,101.6,1593.3,00:01:43,182.7,0,89,--.--,24,0000:00:00,11.32,51,0,-1.00,--.--,-11.32,--.--,0,--.--,--.--,--.--,--.--,--.--,--.--,--.--,0,19:58:25,2020-08-02,--.--,--.--,--.--,--.--,--.--,--.--,--.--,0.00,--.--,--.--,true,true,true,true,true,true,false,false,true,true,false,false,0.04,0.06,0.01,0.02,0.00,0.14,0.42,0.20,43.9449654,-78.8990898,17TPJ 68595 67905,0.0,0.0,345.5,3,10,--.--,--.--,--.--,0.0,0.0,0.0,0,0,0,266.3,0.1,0.0
2020-08-02 19:58:26.808,-5.6,2.5,0,-1.2,-0.3,2.3,14.0,13.5,-0.1,51.4,101.5,1604.2,00:01:44,184.2,0,92,--.--,24,0000:00:00,11.32,51,0,-1.00,--.--,-11.32,--.--,0,--.--,--.--,--.--,--.--,--.--,--.--,--.--,0,19:58:26,2020-08-02,--.--,--.--,--.--,--.--,--.--,--.--,--.--,0.00,--.--,--.--,true,true,true,true,true,true,false,false,true,true,false,false,0.04,0.06,0.01,0.02,0.00,0.14,0.42,0.20,43.9450894,-78.8991268,17TPJ 68592 67919,0.0,0.0,350.1,3,10,--.--,--.--,--.--,0.0,0.0,0.0,0,0,0,271.1,0.1,0.0
2020-08-02 19:58:27.833,-6.6,2.5,2,-1.1,-0.6,1.9,14.1,14.2,-0.1,51.3,101.4,1617.0,00:01:45,186.3,0,96,--.--,24,0000:00:00,11.32,51,0,-1.00,--.--,-11.32,--.--,0,--.--,--.--,--.--,--.--,--.--,--.--,--.--,0,19:58:27,2020-08-02,--.--,--.--,--.--,--.--,--.--,--.--,--.--,0.00,--.--,--.--,true,true,true,true,true,true,false,false,true,true,false,false,0.03,0.07,0.00,0.02,0.00,0.16,0.41,0.20,43.9452169,-78.8991518,17TPJ 68589 67933,0.0,0.0,353.7,3,10,--.--,--.--,--.--,0.0,0.0,0.0,0,0,0,271.1,0.1,0.0
2020-08-02 19:58:28.815,-7.4,2.5,3,-0.2,-0.1,0.9,14.2,14.0,-0.1,51.2,101.3,1630.7,00:01:46,189.1,0,100,--.--,24,0000:00:00,11.32,51,0,-1.00,--.--,-11.32,--.--,0,--.--,--.--,--.--,--.--,--.--,--.--,--.--,0,19:58:28,2020-08-02,--.--,--.--,--.--,--.--,--.--,--.--,--.--,0.00,--.--,--.--,true,true,true,true,true,true,false,false,true,true,false,false,0.03,0.07,0.00,0.02,0.00,0.16,0.41,0.20,43.9453455,-78.8991677,17TPJ 68588 67947,0.0,0.0,356.0,3,10,--.--,--.--,--.--,0.0,0.0,0.0,0,0,0,270.7,0.1,0.0
2020-08-02 19:58:29.834,-8.0,2.6,4,-0.5,-0.2,0.7,14.4,14.6,-0.1,51.0,101.1,1644.6,00:01:47,192.4,0,104,--.--,24,0000:00:00,11.32,51,0,-1.00,--.--,-11.32,--.--,0,--.--,--.--,--.--,--.--,--.--,--.--,--.--,0,19:58:29,2020-08-02,--.--,--.--,--.--,--.--,--.--,--.--,--.--,0.00,--.--,--.--,true,true,true,true,true,true,false,false,true,true,false,false,0.01,0.06,0.00,0.01,0.00,0.02,0.41,0.20,43.9454769,-78.8991776,17TPJ 68587 67962,0.0,0.0,357.5,3,10,--.--,--.--,--.--,0.0,0.0,0.0,0,0,0,270.7,0.1,0.0
2020-08-02 19:58:30.809,-8.3,2.7,4,-0.3,0.2,0.3,14.6,13.9,-0.0,51.0,101.1,1659.0,00:01:48,196.7,0,108,--.--,24,0000:00:00,11.32,51,0,-1.00,--.--,-11.32,--.--,0,--.--,--.--,--.--,--.--,--.--,--.--,--.--,0,19:58:30,2020-08-02,--.--,--.--,--.--,--.--,--.--,--.--,--.--,0.00,--.--,--.--,true,true,true,true,true,true,false,false,true,true,false,false,0.01,0.06,0.00,0.01,0.00,0.02,0.41,0.20,43.9456087,-78.8991839,17TPJ 68586 67977,0.0,0.0,358.4,3,10,--.--,--.--,--.--,0.0,0.0,0.0,0,0,0,278.3,0.1,0.0
2020-08-02 19:58:31.809,-8.6,2.6,4,0.3,-0.1,0.0,14.7,14.4,-0.0,50.9,101.0,1671.4,00:01:49,201.0,0,111,--.--,24,0000:00:00,11.32,51,0,-1.00,--.--,-11.32,--.--,0,--.--,--.--,--.--,--.--,--.--,--.--,--.--,0,19:58:31,2020-08-02,--.--,--.--,--.--,--.--,--.--,--.--,--.--,0.00,--.--,--.--,true,true,true,true,true,true,false,false,true,true,false,false,0.04,0.08,0.00,0.00,0.00,0.06,0.41,0.20,43.9457425,-78.8991883,17TPJ 68585 67991,0.0,0.0,358.7,3,10,--.--,--.--,--.--,0.0,0.0,0.0,0,0,0,278.3,0.1,0.0
2020-08-02 19:58:32.819,-8.6,2.6,4,-0.1,-0.1,0.0,14.8,14.6,-0.0,50.8,100.9,1683.9,00:01:50,205.8,0,114,--.--,24,0000:00:00,11.32,51,0,-1.00,--.--,-11.32,--.--,0,--.--,--.--,--.--,--.--,--.--,--.--,--.--,0,19:58:32,2020-08-02,--.--,--.--,--.--,--.--,--.--,--.--,--.--,0.00,--.--,--.--,true,true,true,true,true,true,false,false,true,true,false,false,0.04,0.08,0.00,0.00,0.00,0.06,0.41,0.20,43.9458759,-78.8991916,17TPJ 68584 68006,0.0,0.0,359.0,3,10,--.--,--.--,--.--,0.0,0.0,0.0,0,0,0,278.3,0.1,0.0
2020-08-02 19:58:33.819,-8.8,2.7,4,-0.1,0.3,-0.2,14.8,14.4,-0.0,50.8,100.9,1696.9,00:01:51,212.4,0,118,--.--,24,0000:00:00,11.32,51,0,-1.00,--.--,-11.32,--.--,0,--.--,--.--,--.--,--.--,--.--,--.--,--.--,0,19:58:33,2020-08-02,--.--,--.--,--.--,--.--,--.--,--.--,--.--,0.00,--.--,--.--,true,true,true,true,true,true,false,false,true,true,false,false,0.04,0.17,0.00,0.02,0.00,0.01,0.43,0.21,43.9459843,-78.8991940,17TPJ 68584 68018,0.0,0.0,359.1,3,10,--.--,--.--,--.--,0.0,0.0,0.0,0,0,0,284.8,0.1,0.0
2020-08-02 19:58:34.808,-8.9,2.7,4,-0.2,-0.1,-0.5,14.7,14.7,-0.0,50.7,100.8,1710.5,00:01:52,218.8,0,121,--.--,25,0000:00:00,11.32,51,0,-1.00,--.--,-11.32,--.--,0,--.--,--.--,--.--,--.--,--.--,--.--,--.--,0,19:58:34,2020-08-02,--.--,--.--,--.--,--.--,--.--,--.--,--.--,0.00,--.--,--.--,true,true,true,true,true,true,false,false,true,true,false,false,0.04,0.17,0.00,0.02,0.00,0.01,0.43,0.21,43.9461190,-78.8991966,17TPJ 68583 68033,0.0,0.0,359.1,3,10,--.--,--.--,--.--,0.0,0.0,0.0,0,0,0,284.8,0.1,0.0
2020-08-02 19:58:35.808,-8.7,2.7,4,0.1,0.1,0.2,14.7,14.6,-0.0,50.6,100.7,1725.9,00:01:53,226.8,0,124,--.--,24,0000:00:00,11.32,51,0,-1.00,--.--,-11.32,--.--,0,--.--,--.--,--.--,--.--,--.--,--.--,--.--,0,19:58:35,2020-08-02,--.--,--.--,--.--,--.--,--.--,--.--,--.--,0.00,--.--,--.--,true,true,true,true,true,true,false,false,true,true,false,false,0.04,0.01,0.00,0.02,0.00,0.12,0.42,0.20,43.9462548,-78.8991992,17TPJ 68583 68048,0.0,0.0,359.1,3,10,--.--,--.--,--.--,0.0,0.0,0.0,0,0,0,280.8,0.1,0.0
2020-08-02 19:58:36.808,-8.7,2.7,5,-0.1,-0.0,-0.1,14.7,14.8,-0.0,50.6,100.7,1738.3,00:01:54,234.6,0,127,--.--,24,0000:00:00,11.32,51,0,-1.00,--.--,-11.32,--.--,0,--.--,--.--,--.--,--.--,--.--,--.--,--.--,0,19:58:36,2020-08-02,--.--,--.--,--.--,--.--,--.--,--.--,--.--,0.00,--.--,--.--,true,true,true,true,true,true,false,false,true,true,false,false,0.04,0.01,0.00,0.02,0.00,0.12,0.42,0.20,43.9462548,-78.8991992,17TPJ 68583 68048,0.0,0.0,359.1,3,10,--.--,--.--,--.--,0.0,0.0,0.0,0,0,0,280.8,0.1,0.0
