Timestamp,roll,pitch,heading,rollRate,pitchRate,yawRate,groundSpeed,airSpeed,climbRate,altitudeRelative,altitudeAMSL,flightDistance,flightTime,distanceToHome,headingToNextWP,headingToHome,distanceToGCS,throttlePct,hobbs,battery.voltage,battery.percentRemaining,battery.mahConsumed,battery.current,battery.temperature,battery.instantPower,battery.timeRemaining,battery.chargeState,battery2.voltage,battery2.percentRemaining,battery2.mahConsumed,battery2.current,battery2.temperature,battery2.instantPower,battery2.timeRemaining,battery2.chargeState,clock.currentTime,clock.currentDate,distanceSensor.rotationNone,distanceSensor.rotationYaw45,distanceSensor.rotationYaw90,distanceSensor.rotationYaw135,distanceSensor.rotationYaw180,distanceSensor.rotationYaw225,distanceSensor.rotationYaw270,distanceSensor.rotationYaw315,distanceSensor.rotationPitch90,distanceSensor.rotationPitch270,estimatorStatus.goodAttitudeEsimate,estimatorStatus.goodHorizVelEstimate,estimatorStatus.goodVertVelEstimate,estimatorStatus.goodHorizPosRelEstimate,estimatorStatus.goodHorizPosAbsEstimate,estimatorStatus.goodVertPosAbsEstimate,estimatorStatus.goodVertPosAGLEstimate,estimatorStatus.goodConstPosModeEstimate,estimatorStatus.goodPredHorizPosRelEstimate,estimatorStatus.goodPredHorizPosAbsEstimate,estimatorStatus.gpsGlitch,estimatorStatus.accelError,estimatorStatus.velRatio,estimatorStatus.horizPosRatio,estimatorStatus.vertPosRatio,estimatorStatus.magRatio,estimatorStatus.haglRatio,estimatorStatus.tasRatio,estimatorStatus.horizPosAccuracy,estimatorStatus.vertPosAccuracy,gps.lat,gps.lon,gps.mgrs,gps.hdop,gps.vdop,gps.courseOverGround,gps.lock,gps.count,temperature.temperature1,temperature.temperature2,temperature.temperature3,vibration.xAxis,vibration.yAxis,vibration.zAxis,vibration.clipCount1,vibration.clipCount2,vibration.clipCount3,wind.direction,wind.speed,wind.verticalSpeed
2020-08-02 15:18:04.809,-1.1,-1.1,98,0.2,0.1,0.2,0.0,1.2,-0.0,-0.0,50.1,0.0,00:00:00,0.0,249,--.--,--.--,0,0000:51:33,12.14,100,0,-1.00,--.--,-12.14,--.--,0,--.--,--.--,--.--,--.--,--.--,--.--,--.--,0,15:18:04,2020-08-02,--.--,--.--,--.--,--.--,--.--,--.--,--.--,0.00,--.--,--.--,true,true,true,true,true,true,false,false,true,true,false,false,0.01,0.00,0.00,0.01,0.00,0.00,0.43,0.21,43.9451550,-78.8968510,17TPJ 68774 67931,0.0,0.0,23.0,3,10,--.--,--.--,--.--,0.0,0.0,0.0,0,0,0,--.--,--.--,--.--
2020-08-02 15:18:05.812,-1.1,-1.1,98,-0.2,-0.3,0.1,0.0,2.8,-0.0,-0.0,50.1,0.0,00:00:00,0.0,249,--.--,--.--,23,0000:51:33,12.14,100,0,-1.00,--.--,-12.14,--.--,0,--.--,--.--,--.--,--.--,--.--,--.--,--.--,0,15:18:05,2020-08-02,--.--,--.--,--.--,--.--,--.--,--.--,--.--,0.00,--.--,--.--,true,true,true,true,true,true,false,false,true,true,false,false,0.01,0.00,0.00,0.01,0.00,0.00,0.43,0.21,43.9451550,-78.8968510,17TPJ 68774 67931,0.0,0.0,23.0,3,10,--.--,--.--,--.--,0.0,0.0,0.0,0,0,0,--.--,--.--,--.--
2020-08-02 15:18:06.811,-1.0,-0.3,98,4.0,8.1,0.1,0.0,-0.9,-0.0,-0.0,50.1,0.0,00:00:01,0.0,249,--.--,--.--,82,0000:51:33,12.13,99,0,-1.00,--.--,-12.13,--.--,0,--.--,--.--,--.--,--.--,--.--,--.--,--.--,0,15:18:06,2020-08-02,--.--,--.--,--.--,--.--,--.--,--.--,--.--,0.00,--.--,--.--,true,true,true,true,true,true,false,false,true,true,false,false,0.01,0.00,0.00,0.01,0.00,0.00,0.43,0.21,43.9451549,-78.8968510,17TPJ 68774 67931,0.0,0.0,83.4,3,10,--.--,--.--,--.--,0.0,0.0,0.0,0,0,0,--.--,--.--,--.--
2020-08-02 15:18:07.810,-0.3,-0.7,98,-3.6,-3.2,-0.1,0.1,4.2,0.6,0.3,50.4,0.0,00:00:02,0.0,249,--.--,--.--,88,0000:51:33,12.13,99,0,-1.00,--.--,-12.13,--.--,0,--.--,--.--,--.--,--.--,--.--,--.--,--.--,0,15:18:07,2020-08-02,--.--,--.--,--.--,--.--,--.--,--.--,--.--,0.00,--.--,--.--,true,true,true,true,true,true,false,false,true,true,false,false,0.07,0.00,0.00,0.01,0.00,0.00,0.45,0.21,43.9451549,-78.8968510,17TPJ 68774 67931,0.0,0.0,83.4,3,10,--.--,--.--,--.--,0.0,0.0,0.0,0,0,0,--.--,--.--,--.--
2020-08-02 15:18:08.805,-1.7,-1.6,98,-2.2,-1.4,-0.2,0.1,3.3,1.6,1.1,51.2,0.0,00:00:03,0.1,249,--.--,--.--,82,0000:51:33,12.10,98,0,-1.00,--.--,-12.10,--.--,0,--.--,--.--,--.--,--.--,--.--,--.--,--.--,0,15:18:08,2020-08-02,--.--,--.--,--.--,--.--,--.--,--.--,--.--,0.00,--.--,--.--,true,true,true,true,true,true,false,false,true,true,false,false,0.07,0.00,0.00,0.01,0.00,0.00,0.45,0.21,43.9451549,-78.8968511,17TPJ 68774 67931,0.0,0.0,255.6,3,10,--.--,--.--,--.--,0.0,0.0,0.0,0,0,0,--.--,--.--,--.--
2020-08-02 15:18:09.812,-2.0,-1.6,98,0.4,0.6,-0.9,0.1,1.5,1.3,2.1,52.3,0.0,00:00:04,0.1,249,--.--,--.--,83,0000:51:33,12.08,96,0,-1.00,--.--,-12.08,--.--,0,--.--,--.--,--.--,--.--,--.--,--.--,--.--,0,15:18:09,2020-08-02,--.--,--.--,--.--,--.--,--.--,--.--,--.--,0.00,--.--,--.--,true,true,true,true,true,true,false,false,true,true,false,false,0.07,0.00,0.00,0.01,0.00,0.00,0.45,0.21,43.9451539,-78.8968523,17TPJ 68774 67931,0.0,0.0,213.5,3,10,--.--,--.--,--.--,0.0,0.0,0.0,0,0,0,--.--,--.--,--.--
2020-08-02 15:18:10.805,-1.5,-1.4,97,1.1,-0.5,-0.7,0.1,-3.5,1.2,2.8,53.0,0.0,00:00:05,0.1,249,--.--,--.--,83,0000:51:33,12.08,96,0,-1.00,--.--,-12.08,--.--,0,--.--,--.--,--.--,--.--,--.--,--.--,--.--,0,15:18:10,2020-08-02,--.--,--.--,--.--,--.--,--.--,--.--,--.--,0.00,--.--,--.--,true,true,true,true,true,true,false,false,true,true,false,false,0.03,0.00,0.01,0.00,0.00,0.00,0.44,0.21,43.9451539,-78.8968523,17TPJ 68774 67931,0.0,0.0,213.5,3,10,--.--,--.--,--.--,0.0,0.0,0.0,0,0,0,--.--,--.--,--.--
2020-08-02 15:18:11.804,-1.1,-1.2,97,0.3,0.7,-0.2,0.1,2.9,1.1,3.6,53.7,0.0,00:00:06,0.1,249,--.--,--.--,84,0000:51:33,12.05,94,0,-1.00,--.--,-12.05,--.--,0,--.--,--.--,--.--,--.--,--.--,--.--,--.--,0,15:18:11,2020-08-02,--.--,--.--,--.--,--.--,--.--,--.--,--.--,0.00,--.--,--.--,true,true,true,true,true,true,false,false,true,true,false,false,0.03,0.00,0.01,0.00,0.00,0.00,0.44,0.21,43.9451540,-78.8968522,17TPJ 68774 67931,0.0,0.0,43.1,3,10,--.--,--.--,--.--,0.0,0.0,0.0,0,0,0,--.--,--.--,--.--
2020-08-02 15:18:12.812,-0.8,-1.0,96,0.3,0.1,-0.2,0.1,2.1,1.1,4.2,54.3,0.0,00:00:07,0.0,249,--.--,--.--,83,0000:51:33,12.02,93,0,-1.00,--.--,-12.02,--.--,0,--.--,--.--,--.--,--.--,--.--,--.--,--.--,0,15:18:12,2020-08-02,--.--,--.--,--.--,--.--,--.--,--.--,--.--,0.00,--.--,--.--,true,true,true,true,true,true,false,false,true,true,false,false,0.03,0.00,0.01,0.00,0.00,0.00,0.44,0.21,43.9451547,-78.8968515,17TPJ 68774 67931,0.0,0.0,36.9,3,10,--.--,--.--,--.--,0.0,0.0,0.0,0,0,0,--.--,--.--,--.--
2020-08-02 15:18:13.804,-0.8,-1.1,96,0.1,0.0,0.0,0.0,4.5,1.0,4.7,54.9,0.0,00:00:08,0.0,249,--.--,--.--,83,0000:51:33,12.02,93,0,-1.00,--.--,-12.02,--.--,0,--.--,--.--,--.--,--.--,--.--,--.--,--.--,0,15:18:13,2020-08-02,--.--,--.--,--.--,--.--,--.--,--.--,--.--,0.00,--.--,--.--,true,true,true,true,true,true,false,false,true,true,false,false,0.03,0.00,0.01,0.00,0.00,0.00,0.44,0.21,43.9451547,-78.8968515,17TPJ 68774 67931,0.0,0.0,36.9,3,10,--.--,--.--,--.--,0.0,0.0,0.0,0,0,0,--.--,--.--,--.--
2020-08-02 15:18:14.814,-1.0,-1.1,96,-0.2,0.0,-0.1,0.0,-1.5,1.0,5.4,55.5,0.0,00:00:09,0.0,249,--.--,--.--,83,0000:51:33,11.99,91,0,-1.00,--.--,-11.99,--.--,0,--.--,--.--,--.--,--.--,--.--,--.--,--.--,0,15:18:14,2020-08-02,--.--,--.--,--.--,--.--,--.--,--.--,--.--,0.00,--.--,--.--,true,true,true,true,true,true,false,false,true,true,false,false,0.01,0.00,0.01,0.01,0.00,0.00,0.44,0.21,43.9451548,-78.8968510,17TPJ 68774 67931,0.0,0.0,64.3,3,10,--.--,--.--,--.--,0.0,0.0,0.0,0,0,0,--.--,--.--,--.--
2020-08-02 15:18:15.804,-1.1,-1.0,96,-0.0,0.0,-0.4,0.0,-4.3,1.0,6.0,56.1,0.0,00:00:10,0.0,249,--.--,--.--,83,0000:51:33,11.99,91,0,-1.00,--.--,-11.99,--.--,0,--.--,--.--,--.--,--.--,--.--,--.--,--.--,0,15:18:15,2020-08-02,--.--,--.--,--.--,--.--,--.--,--.--,--.--,0.00,--.--,--.--,true,true,true,true,true,true,false,false,true,true,false,false,0.01,0.00,0.01,0.01,0.00,0.00,0.44,0.21,43.9451548,-78.8968510,17TPJ 68774 67931,0.0,0.0,64.3,3,10,--.--,--.--,--.--,0.0,0.0,0.0,0,0,0,--.--,--.--,--.--
2020-08-02 15:18:16.804,-1.1,-1.0,96,-0.2,-0.1,-0.6,0.0,-1.6,1.0,6.5,56.6,0.0,00:00:11,0.0,249,--.--,--.--,83,0000:51:33,11.97,89,0,-1.00,--.--,-11.97,--.--,0,--.--,--.--,--.--,--.--,--.--,--.--,--.--,0,15:18:16,2020-08-02,--.--,--.--,--.--,--.--,--.--,--.--,--.--,0.00,--.--,--.--,true,true,true,true,true,true,false,false,true,true,false,false,0.01,0.00,0.01,0.01,0.00,0.00,0.44,0.21,43.9451547,-78.8968506,17TPJ 68774 67931,0.0,0.0,130.9,3,10,--.--,--.--,--.--,0.0,0.0,0.0,0,0,0,--.--,--.--,--.--
2020-08-02 15:18:17.804,-1.1,-1.0,96,-0.1,0.2,-0.0,0.0,-3.6,1.0,7.0,57.1,0.0,00:00:12,0.0,249,--.--,--.--,84,0000:51:33,11.97,89,0,-1.00,--.--,-11.97,--.--,0,--.--,--.--,--.--,--.--,--.--,--.--,--.--,0,15:18:17,2020-08-02,--.--,--.--,--.--,--.--,--.--,--.--,--.--,0.00,--.--,--.--,true,true,true,true,true,true,false,false,true,true,false,false,0.01,0.00,0.01,0.01,0.00,0.00,0.44,0.21,43.9451547,-78.8968506,17TPJ 68774 67931,0.0,0.0,130.9,3,10,--.--,--.--,--.--,0.0,0.0,0.0,0,0,0,--.--,--.--,--.--
2020-08-02 15:18:18.804,-1.1,-0.9,96,0.2,0.0,0.0,0.0,2.3,1.0,7.6,57.7,0.0,00:00:13,0.0,249,--.--,--.--,83,0000:51:33,11.94,88,0,-1.00,--.--,-11.94,--.--,0,--.--,--.--,--.--,--.--,--.--,--.--,--.--,0,15:18:18,2020-08-02,--.--,--.--,--.--,--.--,--.--,--.--,--.--,0.00,--.--,--.--,true,true,true,true,true,true,false,false,true,true,false,false,0.02,0.00,0.00,0.01,0.00,0.00,0.43,0.20,43.9451546,-78.8968505,17TPJ 68774 67931,0.0,0.0,14.9,3,10,--.--,--.--,--.--,0.0,0.0,0.0,0,0,0,--.--,--.--,--.--
2020-08-02 15:18:19.815,-1.1,-0.9,96,0.1,0.1,-0.2,0.0,-3.8,1.0,8.2,58.4,0.0,00:00:14,0.0,249,--.--,--.--,83,0000:51:33,11.94,88,0,-1.00,--.--,-11.94,--.--,0,--.--,--.--,--.--,--.--,--.--,--.--,--.--,0,15:18:19,2020-08-02,--.--,--.--,--.--,--.--,--.--,--.--,--.--,0.00,--.--,--.--,true,true,true,true,true,true,false,false,true,true,false,false,0.02,0.00,0.00,0.01,0.00,0.00,0.43,0.20,43.9451546,-78.8968505,17TPJ 68774 67931,0.0,0.0,14.9,3,10,--.--,--.--,--.--,0.0,0.0,0.0,0,0,0,--.--,--.--,--.--
2020-08-02 15:18:20.805,-1.1,-1.0,96,-0.2,-0.0,-0.3,0.0,0.2,1.0,9.0,59.1,0.0,00:00:15,0.0,249,--.--,--.--,83,0000:51:33,11.91,86,0,-1.00,--.--,-11.91,--.--,0,--.--,--.--,--.--,--.--,--.--,--.--,--.--,0,15:18:20,2020-08-02,--.--,--.--,--.--,--.--,--.--,--.--,--.--,0.00,--.--,--.--,true,true,true,true,true,true,false,false,true,true,false,false,0.02,0.00,0.00,0.01,0.00,0.00,0.43,0.20,43.9451546,-78.8968504,17TPJ 68774 67931,0.0,0.0,165.7,3,10,--.--,--.--,--.--,0.0,0.0,0.0,0,0,0,--.--,--.--,--.--
2020-08-02 15:18:21.804,-1.2,-1.0,96,-0.3,-0.3,-0.0,0.0,3.4,1.0,9.5,59.6,0.0,00:00:16,0.0,249,--.--,--.--,84,0000:51:33,11.88,84,0,-1.00,--.--,-11.88,--.--,0,--.--,--.--,--.--,--.--,--.--,--.--,--.--,0,15:18:21,2020-08-02,--.--,--.--,--.--,--.--,--.--,--.--,--.--,0.00,--.--,--.--,true,true,true,true,true,true,false,false,true,true,false,false,0.01,0.00,0.00,0.00,0.00,0.00,0.42,0.20,43.9451546,-78.8968505,17TPJ 68774 67931,0.0,0.0,346.7,3,10,--.--,--.--,--.--,0.0,0.0,0.0,0,0,0,--.--,--.--,--.--
2020-08-02 15:18:22.804,-1.2,-1.1,96,0.1,-0.3,-0.2,0.0,2.0,1.0,10.1,60.2,0.0,00:00:17,0.0,249,--.--,--.--,83,0000:51:33,11.88,84,0,-1.00,--.--,-11.88,--.--,0,--.--,--.--,--.--,--.--,--.--,--.--,--.--,0,15:18:22,2020-08-02,--.--,--.--,--.--,--.--,--.--,--.--,--.--,0.00,--.--,--.--,true,true,true,true,true,true,false,false,true,true,false,false,0.01,0.00,0.00,0.00,0.00,0.00,0.42,0.20,43.9451546,-78.8968505,17TPJ 68774 67931,0.0,0.0,346.7,3,10,--.--,--.--,--.--,0.0,0.0,0.0,0,0,0,--.--,--.--,--.--
2020-08-02 15:18:23.804,-0.9,-0.7,96,4.5,4.3,-0.2,0.0,-1.8,1.3,10.8,61.0,0.0,00:00:18,0.0,249,--.--,--.--,94,0000:51:33,11.86,83,0,-1.00,--.--,-11.86,--.--,0,--.--,--.--,--.--,--.--,--.--,--.--,--.--,0,15:18:23,2020-08-02,--.--,--.--,--.--,--.--,--.--,--.--,--.--,0.00,--.--,--.--,true,true,true,true,true,true,false,false,true,true,false,false,0.01,0.00,0.00,0.00,0.00,0.00,0.42,0.20,43.9451546,-78.8968505,17TPJ 68774 67931,0.0,0.0,117.2,3,10,--.--,--.--,--.--,0.0,0.0,0.0,0,0,0,--.--,--.--,--.--
2020-08-02 15:18:24.805,-1.2,-1.0,96,-0.9,-0.5,-0.1,0.1,2.1,2.9,13.0,63.2,0.0,00:00:19,0.0,249,--.--,--.--,89,0000:51:33,11.83,81,0,-1.00,--.--,-11.83,--.--,0,--.--,--.--,--.--,--.--,--.--,--.--,--.--,0,15:18:24,2020-08-02,--.--,--.--,--.--,--.--,--.--,--.--,--.--,0.00,--.--,--.--,true,true,true,true,true,true,false,false,true,true,false,false,0.01,0.00,0.01,0.01,0.00,0.00,0.42,0.20,43.9451546,-78.8968504,17TPJ 68774 67931,0.0,0.0,234.6,3,10,--.--,--.--,--.--,0.0,0.0,0.0,0,0,0,--.--,--.--,--.--
2020-08-02 15:18:25.804,-1.4,-1.2,96,-0.2,-0.1,0.2,0.0,0.8,2.9,14.3,64.4,0.0,00:00:20,0.1,249,--.--,--.--,90,0000:51:33,11.83,81,0,-1.00,--.--,-11.83,--.--,0,--.--,--.--,--.--,--.--,--.--,--.--,--.--,0,15:18:25,2020-08-02,--.--,--.--,--.--,--.--,--.--,--.--,--.--,0.00,--.--,--.--,true,true,true,true,true,true,false,false,true,true,false,false,0.01,0.00,0.01,0.01,0.00,0.00,0.42,0.20,43.9451546,-78.8968504,17TPJ 68774 67931,0.0,0.0,234.6,3,10,--.--,--.--,--.--,0.0,0.0,0.0,0,0,0,--.--,--.--,--.--
2020-08-02 15:18:26.804,-1.6,-1.3,96,-0.5,0.1,-0.6,0.0,1.3,2.9,15.7,65.8,0.0,00:00:21,0.1,249,--.--,--.--,90,0000:51:33,11.83,81,0,-1.00,--.--,-11.83,--.--,0,--.--,--.--,--.--,--.--,--.--,--.--,--.--,0,15:18:26,2020-08-02,--.--,--.--,--.--,--.--,--.--,--.--,--.--,0.00,--.--,--.--,true,true,true,true,true,true,false,false,true,true,false,false,0.01,0.00,0.01,0.01,0.00,0.00,0.42,0.20,43.9451546,-78.8968504,17TPJ 68774 67931,0.0,0.0,234.6,3,10,--.--,--.--,--.--,0.0,0.0,0.0,0,0,0,--.--,--.--,--.--
2020-08-02 15:18:27.804,-1.6,-1.3,96,-0.1,-0.3,-0.8,0.0,2.1,2.9,17.2,67.4,0.0,00:00:22,0.1,249,--.--,--.--,90,0000:51:33,11.80,79,0,-1.00,--.--,-11.80,--.--,0,--.--,--.--,--.--,--.--,--.--,--.--,--.--,0,15:18:27,2020-08-02,--.--,--.--,--.--,--.--,--.--,--.--,--.--,0.00,--.--,--.--,true,true,true,true,true,true,false,false,true,true,false,false,0.01,0.00,0.01,0.01,0.00,0.00,0.42,0.20,43.9451542,-78.8968510,17TPJ 68774 67931,0.0,0.0,286.8,3,10,--.--,--.--,--.--,0.0,0.0,0.0,0,0,0,--.--,--.--,--.--
2020-08-02 15:18:28.804,-1.5,-1.3,95,-0.0,0.1,-0.9,0.0,-1.1,2.9,18.6,68.7,0.0,00:00:23,0.0,249,--.--,--.--,90,0000:51:33,11.80,79,0,-1.00,--.--,-11.80,--.--,0,--.--,--.--,--.--,--.--,--.--,--.--,--.--,0,15:18:28,2020-08-02,--.--,--.--,--.--,--.--,--.--,--.--,--.--,0.00,--.--,--.--,true,true,true,true,true,true,false,false,true,true,false,false,0.02,0.00,0.00,0.01,0.00,0.00,0.43,0.21,43.9451542,-78.8968510,17TPJ 68774 67931,0.0,0.0,286.8,3,10,--.--,--.--,--.--,0.0,0.0,0.0,0,0,0,--.--,--.--,--.--
2020-08-02 15:18:29.805,-1.3,-1.2,95,0.1,-0.2,-0.5,0.0,-3.7,2.9,20.2,70.4,0.0,00:00:24,0.0,249,--.--,--.--,90,0000:51:33,11.77,78,0,-1.00,--.--,-11.77,--.--,0,--.--,--.--,--.--,--.--,--.--,--.--,--.--,0,15:18:29,2020-08-02,--.--,--.--,--.--,--.--,--.--,--.--,--.--,0.00,--.--,--.--,true,true,true,true,true,true,false,false,true,true,false,false,0.02,0.00,0.00,0.01,0.00,0.00,0.43,0.21,43.9451544,-78.8968509,17TPJ 68774 67931,0.0,0.0,22.6,3,10,--.--,--.--,--.--,0.0,0.0,0.0,0,0,0,--.--,--.--,--.--
2020-08-02 15:18:30.804,-1.2,-1.3,95,0.5,-0.3,-0.3,0.0,-2.5,2.9,21.8,71.9,0.0,00:00:25,0.0,249,--.--,--.--,90,0000:51:33,11.75,76,0,-1.00,--.--,-11.75,--.--,0,--.--,--.--,--.--,--.--,--.--,--.--,--.--,0,15:18:30,2020-08-02,--.--,--.--,--.--,--.--,--.--,--.--,--.--,0.00,--.--,--.--,true,true,true,true,true,true,false,false,true,true,false,false,0.02,0.00,0.00,0.01,0.00,0.00,0.43,0.21,43.9451549,-78.8968505,17TPJ 68774 67931,0.0,0.0,14.7,3,10,--.--,--.--,--.--,0.0,0.0,0.0,0,0,0,--.--,--.--,--.--
2020-08-02 15:18:31.804,-1.0,-1.2,95,0.3,-0.3,0.1,0.0,0.3,2.9,23.4,73.5,0.0,00:00:26,0.0,249,--.--,--.--,90,0000:51:33,11.75,76,0,-1.00,--.--,-11.75,--.--,0,--.--,--.--,--.--,--.--,--.--,--.--,--.--,0,15:18:31,2020-08-02,--.--,--.--,--.--,--.--,--.--,--.--,--.--,0.00,--.--,--.--,true,true,true,true,true,true,false,false,true,true,false,false,0.02,0.00,0.00,0.01,0.00,0.00,0.43,0.21,43.9451549,-78.8968505,17TPJ 68774 67931,0.0,0.0,14.7,3,10,--.--,--.--,--.--,0.0,0.0,0.0,0,0,0,--.--,--.--,--.--
2020-08-02 15:18:32.805,-1.0,-1.2,95,0.1,0.3,-0.0,0.0,2.0,2.9,24.8,74.9,0.0,00:00:27,0.0,249,--.--,--.--,90,0000:51:33,11.72,74,0,-1.00,--.--,-11.72,--.--,0,--.--,--.--,--.--,--.--,--.--,--.--,--.--,0,15:18:32,2020-08-02,--.--,--.--,--.--,--.--,--.--,--.--,--.--,0.00,--.--,--.--,true,true,true,true,true,true,false,false,true,true,false,false,0.02,0.01,0.00,0.01,0.00,0.00,0.43,0.21,43.9451552,-78.8968500,17TPJ 68774 67931,0.0,0.0,69.2,3,10,--.--,--.--,--.--,0.0,0.0,0.0,0,0,0,--.--,--.--,--.--
2020-08-02 15:18:33.804,-1.0,-1.2,95,-0.2,0.0,-0.1,0.0,2.3,2.9,26.3,76.4,0.0,00:00:28,0.0,249,--.--,--.--,90,0000:51:33,11.72,74,0,-1.00,--.--,-11.72,--.--,0,--.--,--.--,--.--,--.--,--.--,--.--,--.--,0,15:18:33,2020-08-02,--.--,--.--,--.--,--.--,--.--,--.--,--.--,0.00,--.--,--.--,true,true,true,true,true,true,false,false,true,true,false,false,0.02,0.01,0.00,0.01,0.00,0.00,0.43,0.21,43.9451552,-78.8968500,17TPJ 68774 67931,0.0,0.0,69.2,3,10,--.--,--.--,--.--,0.0,0.0,0.0,0,0,0,--.--,--.--,--.--
2020-08-02 15:18:34.804,-1.0,-1.1,95,0.2,0.3,-0.1,0.0,3.0,2.9,27.8,77.9,0.0,00:00:29,0.1,249,--.--,--.--,90,0000:51:33,11.69,73,0,-1.00,--.--,-11.69,--.--,0,--.--,--.--,--.--,--.--,--.--,--.--,--.--,0,15:18:34,2020-08-02,--.--,--.--,--.--,--.--,--.--,--.--,--.--,0.00,--.--,--.--,true,true,true,true,true,true,false,false,true,true,false,false,0.02,0.01,0.00,0.01,0.00,0.00,0.43,0.21,43.9451552,-78.8968497,17TPJ 68774 67931,0.0,0.0,118.1,3,10,--.--,--.--,--.--,0.0,0.0,0.0,0,0,0,--.--,--.--,--.--
2020-08-02 15:18:35.804,-0.9,-1.0,95,0.1,0.2,-0.1,0.0,-0.9,2.9,29.2,79.4,0.0,00:00:30,0.1,249,--.--,--.--,90,0000:51:33,11.69,73,0,-1.00,--.--,-11.69,--.--,0,--.--,--.--,--.--,--.--,--.--,--.--,--.--,0,15:18:35,2020-08-02,--.--,--.--,--.--,--.--,--.--,--.--,--.--,0.00,--.--,--.--,true,true,true,true,true,true,false,false,true,true,false,false,0.02,0.01,0.00,0.01,0.00,0.00,0.43,0.21,43.9451552,-78.8968497,17TPJ 68774 67931,0.0,0.0,118.1,3,10,--.--,--.--,--.--,0.0,0.0,0.0,0,0,0,--.--,--.--,--.--
2020-08-02 15:18:36.804,-0.9,-1.0,95,-0.0,-0.0,0.1,0.0,2.9,2.9,30.5,80.6,0.0,00:00:31,0.1,249,--.--,--.--,90,0000:51:33,11.69,73,0,-1.00,--.--,-11.69,--.--,0,--.--,--.--,--.--,--.--,--.--,--.--,--.--,0,15:18:36,2020-08-02,--.--,--.--,--.--,--.--,--.--,--.--,--.--,0.00,--.--,--.--,true,true,true,true,true,true,false,false,true,true,false,false,0.02,0.01,0.01,0.04,0.00,0.00,0.42,0.20,43.9451552,-78.8968497,17TPJ 68774 67931,0.0,0.0,118.1,3,10,--.--,--.--,--.--,0.0,0.0,0.0,0,0,0,--.--,--.--,--.--
2020-08-02 15:18:37.805,-1.0,-1.0,95,0.5,0.3,0.0,0.0,-3.1,2.9,32.1,82.2,0.0,00:00:32,0.1,249,--.--,--.--,90,0000:51:33,11.66,71,0,-1.00,--.--,-11.66,--.--,0,--.--,--.--,--.--,--.--,--.--,--.--,--.--,0,15:18:37,2020-08-02,--.--,--.--,--.--,--.--,--.--,--.--,--.--,0.00,--.--,--.--,true,true,true,true,true,true,false,false,true,true,false,false,0.02,0.01,0.01,0.04,0.00,0.00,0.42,0.20,43.9451549,-78.8968495,17TPJ 68774 67931,0.0,0.0,175.6,3,10,--.--,--.--,--.--,0.0,0.0,0.0,0,0,0,--.--,--.--,--.--
2020-08-02 15:18:38.805,-1.0,-1.0,95,0.1,-0.2,0.0,0.1,-3.8,2.9,33.8,84.0,0.0,00:00:33,0.1,249,--.--,--.--,90,0000:51:33,11.64,69,0,-1.00,--.--,-11.64,--.--,0,--.--,--.--,--.--,--.--,--.--,--.--,--.--,0,15:18:38,2020-08-02,--.--,--.--,--.--,--.--,--.--,--.--,--.--,0.00,--.--,--.--,true,true,true,true,true,true,false,false,true,true,false,false,0.02,0.01,0.01,0.04,0.00,0.00,0.42,0.20,43.9451547,-78.8968495,17TPJ 68774 67931,0.0,0.0,167.8,3,10,--.--,--.--,--.--,0.0,0.0,0.0,0,0,0,--.--,--.--,--.--
2020-08-02 15:18:39.806,-1.1,-1.1,95,-0.5,-0.1,-0.1,0.1,4.0,2.9,35.7,85.9,0.0,00:00:34,0.1,249,--.--,--.--,89,0000:51:33,11.64,69,0,-1.00,--.--,-11.64,--.--,0,--.--,--.--,--.--,--.--,--.--,--.--,--.--,0,15:18:39,2020-08-02,--.--,--.--,--.--,--.--,--.--,--.--,--.--,0.00,--.--,--.--,true,true,true,true,true,true,false,false,true,true,false,false,0.02,0.01,0.01,0.04,0.00,0.00,0.42,0.20,43.9451547,-78.8968495,17TPJ 68774 67931,0.0,0.0,167.8,3,10,--.--,--.--,--.--,0.0,0.0,0.0,0,0,0,--.--,--.--,--.--
2020-08-02 15:18:40.806,-1.3,-1.1,95,-0.2,0.2,-0.4,0.1,2.7,2.9,37.8,88.0,0.0,00:00:35,0.1,249,--.--,--.--,90,0000:51:33,11.61,68,0,-1.00,--.--,-11.61,--.--,0,--.--,--.--,--.--,--.--,--.--,--.--,--.--,0,15:18:40,2020-08-02,--.--,--.--,--.--,--.--,--.--,--.--,--.--,0.00,--.--,--.--,true,true,true,true,true,true,false,false,true,true,false,false,0.03,0.01,0.01,0.02,0.00,0.00,0.44,0.21,43.9451544,-78.8968497,17TPJ 68774 67931,0.0,0.0,208.7,3,10,--.--,--.--,--.--,0.0,0.0,0.0,0,0,0,--.--,--.--,--.--
2020-08-02 15:18:41.804,-1.2,-1.2,95,-0.1,-0.2,-0.1,0.1,2.1,3.0,40.5,90.6,0.0,00:00:36,0.1,249,--.--,--.--,90,0000:51:33,11.58,66,0,-1.00,--.--,-11.58,--.--,0,--.--,--.--,--.--,--.--,--.--,--.--,--.--,0,15:18:41,2020-08-02,--.--,--.--,--.--,--.--,--.--,--.--,--.--,0.00,--.--,--.--,true,true,true,true,true,true,false,false,true,true,false,false,0.03,0.01,0.01,0.02,0.00,0.00,0.44,0.21,43.9451542,-78.8968499,17TPJ 68774 67931,0.0,0.0,257.7,3,10,--.--,--.--,--.--,0.0,0.0,0.0,0,0,0,--.--,--.--,--.--
2020-08-02 15:18:42.806,-1.5,-1.5,95,-0.3,0.1,-0.3,0.1,-3.0,2.6,42.1,92.3,0.0,00:00:37,0.1,249,--.--,--.--,85,0000:51:33,11.58,66,0,-1.00,--.--,-11.58,--.--,0,--.--,--.--,--.--,--.--,--.--,--.--,--.--,0,15:18:42,2020-08-02,--.--,--.--,--.--,--.--,--.--,--.--,--.--,0.00,--.--,--.--,true,true,true,true,true,true,false,false,true,true,false,false,0.02,0.01,0.00,0.01,0.00,0.00,0.44,0.21,43.9451542,-78.8968499,17TPJ 68774 67931,0.0,0.0,257.7,3,10,--.--,--.--,--.--,0.0,0.0,0.0,0,0,0,--.--,--.--,--.--
2020-08-02 15:18:43.811,-1.6,-1.5,95,0.4,0.2,-0.3,0.0,3.1,2.0,43.5,93.7,0.0,00:00:38,0.1,249,--.--,--.--,84,0000:51:33,11.55,64,0,-1.00,--.--,-11.55,--.--,0,--.--,--.--,--.--,--.--,--.--,--.--,--.--,0,15:18:43,2020-08-02,--.--,--.--,--.--,--.--,--.--,--.--,--.--,0.00,--.--,--.--,true,true,true,true,true,true,false,false,true,true,false,false,0.02,0.01,0.00,0.01,0.00,0.00,0.44,0.21,43.9451542,-78.8968500,17TPJ 68774 67931,0.0,0.0,15.2,3,10,--.--,--.--,--.--,0.0,0.0,0.0,0,0,0,--.--,--.--,--.--
2020-08-02 15:18:44.824,-1.4,-1.3,95,0.1,0.4,-0.4,0.0,1.7,1.7,44.6,94.8,0.0,00:00:39,0.1,249,--.--,--.--,83,0000:51:33,11.53,63,0,-1.00,--.--,-11.53,--.--,0,--.--,--.--,--.--,--.--,--.--,--.--,--.--,0,15:18:44,2020-08-02,--.--,--.--,--.--,--.--,--.--,--.--,--.--,0.00,--.--,--.--,true,true,true,true,true,true,false,false,true,true,false,false,0.02,0.01,0.00,0.01,0.00,0.00,0.44,0.21,43.9451544,-78.8968497,17TPJ 68774 67931,0.0,0.0,20.4,3,10,--.--,--.--,--.--,0.0,0.0,0.0,0,0,0,--.--,--.--,--.--
2020-08-02 15:18:45.804,-1.1,-1.3,95,0.4,-0.1,-0.4,0.1,-3.8,1.5,45.5,95.6,0.0,00:00:40,0.1,249,--.--,--.--,83,0000:51:33,11.53,63,0,-1.00,--.--,-11.53,--.--,0,--.--,--.--,--.--,--.--,--.--,--.--,--.--,0,15:18:45,2020-08-02,--.--,--.--,--.--,--.--,--.--,--.--,--.--,0.00,--.--,--.--,true,true,true,true,true,true,false,false,true,true,false,false,0.02,0.01,0.00,0.01,0.00,0.00,0.44,0.21,43.9451544,-78.8968497,17TPJ 68774 67931,0.0,0.0,20.4,3,10,--.--,--.--,--.--,0.0,0.0,0.0,0,0,0,--.--,--.--,--.--
2020-08-02 15:18:46.808,-1.0,-1.3,94,0.4,-0.1,-0.2,0.1,0.8,1.2,46.2,96.3,0.0,00:00:41,0.1,249,--.--,--.--,82,0000:51:33,11.50,61,0,-1.00,--.--,-11.50,--.--,0,--.--,--.--,--.--,--.--,--.--,--.--,--.--,0,15:18:46,2020-08-02,--.--,--.--,--.--,--.--,--.--,--.--,--.--,0.00,--.--,--.--,true,true,true,true,true,true,false,false,true,true,false,false,0.02,0.01,0.01,0.02,0.00,0.00,0.43,0.21,43.9451548,-78.8968494,17TPJ 68774 67931,0.0,0.0,1.0,3,10,--.--,--.--,--.--,0.0,0.0,0.0,0,0,0,--.--,--.--,--.--
2020-08-02 15:18:47.808,-1.0,-1.2,94,0.0,0.5,-0.3,0.0,-0.6,1.0,46.7,96.9,0.0,00:00:42,0.1,249,--.--,--.--,82,0000:51:33,11.50,61,0,-1.00,--.--,-11.50,--.--,0,--.--,--.--,--.--,--.--,--.--,--.--,--.--,0,15:18:47,2020-08-02,--.--,--.--,--.--,--.--,--.--,--.--,--.--,0.00,--.--,--.--,true,true,true,true,true,true,false,false,true,true,false,false,0.02,0.01,0.01,0.02,0.00,0.00,0.43,0.21,43.9451548,-78.8968494,17TPJ 68774 67931,0.0,0.0,1.0,3,10,--.--,--.--,--.--,0.0,0.0,0.0,0,0,0,--.--,--.--,--.--
2020-08-02 15:18:48.805,-1.0,-1.1,95,0.2,0.2,-0.1,0.1,1.6,0.8,47.2,97.4,0.0,00:00:43,0.1,249,--.--,--.--,82,0000:51:33,11.47,59,0,-1.00,--.--,-11.47,--.--,0,--.--,--.--,--.--,--.--,--.--,--.--,--.--,0,15:18:48,2020-08-02,--.--,--.--,--.--,--.--,--.--,--.--,--.--,0.00,--.--,--.--,true,true,true,true,true,true,false,false,true,true,false,false,0.02,0.01,0.01,0.02,0.00,0.00,0.43,0.21,43.9451549,-78.8968492,17TPJ 68774 67931,0.0,0.0,0.4,3,10,--.--,--.--,--.--,0.0,0.0,0.0,0,0,0,--.--,--.--,--.--
2020-08-02 15:18:49.809,-1.0,-1.1,95,0.3,-0.3,0.1,0.1,-2.0,0.7,47.7,97.8,0.0,00:00:44,0.1,249,--.--,--.--,82,0000:51:33,11.47,59,0,-1.00,--.--,-11.47,--.--,0,--.--,--.--,--.--,--.--,--.--,--.--,--.--,0,15:18:49,2020-08-02,--.--,--.--,--.--,--.--,--.--,--.--,--.--,0.00,--.--,--.--,true,true,true,true,true,true,false,false,true,true,false,false,0.03,0.01,0.00,0.02,0.00,0.00,0.42,0.20,43.9451549,-78.8968492,17TPJ 68774 67931,0.0,0.0,0.4,3,10,--.--,--.--,--.--,0.0,0.0,0.0,0,0,0,--.--,--.--,--.--
2020-08-02 15:18:50.809,-1.1,-1.1,95,-0.3,0.4,-0.1,0.1,1.5,0.6,48.0,98.2,0.0,00:00:45,0.1,249,--.--,--.--,82,0000:51:33,11.44,58,0,-1.00,--.--,-11.44,--.--,0,--.--,--.--,--.--,--.--,--.--,--.--,--.--,0,15:18:50,2020-08-02,--.--,--.--,--.--,--.--,--.--,--.--,--.--,0.00,--.--,--.--,true,true,true,true,true,true,false,false,true,true,false,false,0.03,0.01,0.00,0.02,0.00,0.00,0.42,0.20,43.9451549,-78.8968491,17TPJ 68774 67931,0.0,0.0,286.6,3,10,--.--,--.--,--.--,0.0,0.0,0.0,0,0,0,--.--,--.--,--.--
2020-08-02 15:18:51.810,-1.2,-1.0,94,-0.2,-0.0,0.0,0.1,1.0,0.5,48.5,98.6,0.0,00:00:46,0.1,249,--.--,--.--,82,0000:51:33,11.42,56,0,-1.00,--.--,-11.42,--.--,0,--.--,--.--,--.--,--.--,--.--,--.--,--.--,0,15:18:51,2020-08-02,--.--,--.--,--.--,--.--,--.--,--.--,--.--,0.00,--.--,--.--,true,true,true,true,true,true,false,false,true,true,false,false,0.03,0.01,0.00,0.02,0.00,0.00,0.42,0.20,43.9451548,-78.8968494,17TPJ 68774 67931,0.0,0.0,241.2,3,10,--.--,--.--,--.--,0.0,0.0,0.0,0,0,0,--.--,--.--,--.--
2020-08-02 15:18:52.810,-1.3,-1.2,94,0.1,-0.0,-0.2,0.1,-1.5,0.4,48.7,98.9,0.0,00:00:47,0.1,249,--.--,--.--,82,0000:51:33,11.42,56,0,-1.00,--.--,-11.42,--.--,0,--.--,--.--,--.--,--.--,--.--,--.--,--.--,0,15:18:52,2020-08-02,--.--,--.--,--.--,--.--,--.--,--.--,--.--,0.00,--.--,--.--,true,true,true,true,true,true,false,false,true,true,false,false,0.03,0.01,0.01,0.01,0.00,0.00,0.42,0.20,43.9451548,-78.8968494,17TPJ 68774 67931,0.0,0.0,241.2,3,10,--.--,--.--,--.--,0.0,0.0,0.0,0,0,0,--.--,--.--,--.--
2020-08-02 15:18:53.804,-1.2,-1.2,94,0.1,0.1,-0.1,0.0,-3.1,0.3,48.9,99.0,0.0,00:00:48,0.0,249,--.--,--.--,82,0000:51:33,11.39,54,0,-1.00,--.--,-11.39,--.--,0,--.--,--.--,--.--,--.--,--.--,--.--,--.--,0,15:18:53,2020-08-02,--.--,--.--,--.--,--.--,--.--,--.--,--.--,0.00,--.--,--.--,true,true,true,true,true,true,false,false,true,true,false,false,0.03,0.01,0.01,0.01,0.00,0.00,0.42,0.20,43.9451548,-78.8968499,17TPJ 68774 67931,0.0,0.0,280.7,3,10,--.--,--.--,--.--,0.0,0.0,0.0,0,0,0,--.--,--.--,--.--
2020-08-02 15:18:54.804,-1.3,-1.3,94,-0.1,-0.0,-0.2,0.0,-3.5,0.2,49.1,99.2,0.0,00:00:49,0.0,249,--.--,--.--,82,0000:51:33,11.39,54,0,-1.00,--.--,-11.39,--.--,0,--.--,--.--,--.--,--.--,--.--,--.--,--.--,0,15:18:54,2020-08-02,--.--,--.--,--.--,--.--,--.--,--.--,--.--,0.00,--.--,--.--,true,true,true,true,true,true,false,false,true,true,false,false,0.03,0.01,0.01,0.01,0.00,0.00,0.42,0.20,43.9451548,-78.8968499,17TPJ 68774 67931,0.0,0.0,280.7,3,10,--.--,--.--,--.--,0.0,0.0,0.0,0,0,0,--.--,--.--,--.--
2020-08-02 15:18:55.805,-1.3,-1.3,94,-0.0,-0.3,-0.2,0.0,-3.6,0.2,49.2,99.4,0.0,00:00:50,0.0,249,--.--,--.--,82,0000:51:33,11.36,53,0,-1.00,--.--,-11.36,--.--,0,--.--,--.--,--.--,--.--,--.--,--.--,--.--,0,15:18:55,2020-08-02,--.--,--.--,--.--,--.--,--.--,--.--,--.--,0.00,--.--,--.--,true,true,true,true,true,true,false,false,true,true,false,false,0.03,0.01,0.01,0.01,0.00,0.00,0.42,0.20,43.9451548,-78.8968505,17TPJ 68774 67931,0.0,0.0,315.2,3,10,--.--,--.--,--.--,0.0,0.0,0.0,0,0,0,--.--,--.--,--.--
2020-08-02 15:18:56.804,-0.6,-0.8,94,8.3,7.5,-0.2,0.0,-2.0,0.2,49.3,99.5,0.0,00:00:51,0.0,249,--.--,--.--,81,0000:51:33,11.36,53,0,-1.00,--.--,-11.36,--.--,0,--.--,--.--,--.--,--.--,--.--,--.--,--.--,0,15:18:56,2020-08-02,--.--,--.--,--.--,--.--,--.--,--.--,--.--,0.00,--.--,--.--,true,true,true,true,true,true,false,false,true,true,false,false,0.03,0.01,0.01,0.01,0.00,0.00,0.42,0.20,43.9451548,-78.8968505,17TPJ 68774 67931,0.0,0.0,315.2,3,10,--.--,--.--,--.--,0.0,0.0,0.0,0,0,0,--.--,--.--,--.--
2020-08-02 15:18:57.813,8.4,18.1,96,9.2,25.0,3.1,0.6,3.3,0.2,49.5,99.6,0.0,00:00:52,0.2,249,--.--,--.--,84,0000:51:33,11.34,51,0,-1.00,--.--,-11.34,--.--,0,--.--,--.--,--.--,--.--,--.--,--.--,--.--,0,15:18:57,2020-08-02,--.--,--.--,--.--,--.--,--.--,--.--,--.--,0.00,--.--,--.--,true,true,true,true,true,true,false,false,true,true,false,false,0.02,0.00,0.01,0.00,0.00,0.00,0.44,0.21,43.9451550,-78.8968510,17TPJ 68774 67931,0.0,0.0,296.9,3,10,--.--,--.--,--.--,0.0,0.0,0.0,0,0,0,--.--,--.--,--.--
2020-08-02 15:18:58.804,11.5,23.0,99,1.9,1.7,5.9,2.2,-2.9,0.1,49.5,99.7,0.0,00:00:53,0.9,249,--.--,--.--,89,0000:51:33,11.34,51,0,-1.00,--.--,-11.34,--.--,0,--.--,--.--,--.--,--.--,--.--,--.--,--.--,0,15:18:58,2020-08-02,--.--,--.--,--.--,--.--,--.--,--.--,--.--,0.00,--.--,--.--,true,true,true,true,true,true,false,false,true,true,false,false,0.02,0.00,0.01,0.00,0.00,0.00,0.44,0.21,43.9451550,-78.8968510,17TPJ 68774 67931,0.0,0.0,296.9,3,10,--.--,--.--,--.--,0.0,0.0,0.0,0,0,0,--.--,--.--,--.--
2020-08-02 15:18:59.804,9.7,14.1,103,-9.9,-14.3,8.3,3.4,3.5,-0.0,49.6,99.7,2.1,00:00:54,2.6,249,67,--.--,92,0000:51:33,11.33,51,0,-1.00,--.--,-11.33,--.--,0,--.--,--.--,--.--,--.--,--.--,--.--,--.--,0,15:18:59,2020-08-02,--.--,--.--,--.--,--.--,--.--,--.--,--.--,0.00,--.--,--.--,true,true,true,true,true,true,false,false,true,true,false,false,0.02,0.00,0.01,0.00,0.00,0.00,0.44,0.21,43.9451510,-78.8968610,17TPJ 68774 67931,0.0,0.0,241.7,3,10,--.--,--.--,--.--,0.0,0.0,0.0,0,0,0,--.--,--.--,--.--
2020-08-02 15:19:00.804,3.7,4.4,105,-13.3,-18.6,5.6,3.5,4.5,-0.2,49.6,99.7,4.1,00:00:55,4.4,249,66,--.--,91,0000:51:33,11.33,51,0,-1.00,--.--,-11.33,--.--,0,--.--,--.--,--.--,--.--,--.--,--.--,--.--,0,15:19:00,2020-08-02,--.--,--.--,--.--,--.--,--.--,--.--,--.--,0.00,--.--,--.--,true,true,true,true,true,true,false,false,true,true,false,false,0.16,0.04,0.00,0.01,0.00,0.00,0.41,0.20,43.9451510,-78.8968610,17TPJ 68774 67931,0.0,0.0,241.7,3,10,--.--,--.--,--.--,0.0,0.0,0.0,0,0,0,--.--,--.--,--.--
2020-08-02 15:19:01.813,0.3,0.7,107,-0.9,1.1,1.5,1.9,2.0,-0.1,49.6,99.7,6.1,00:00:56,6.3,249,62,--.--,84,0000:51:33,11.33,51,0,-1.00,--.--,-11.33,--.--,0,--.--,--.--,--.--,--.--,--.--,--.--,--.--,0,15:19:01,2020-08-02,--.--,--.--,--.--,--.--,--.--,--.--,--.--,0.00,--.--,--.--,true,true,true,true,true,true,false,false,true,true,false,false,0.16,0.04,0.00,0.01,0.00,0.00,0.41,0.20,43.9451366,-78.8968989,17TPJ 68771 67929,0.0,0.0,241.9,3,10,--.--,--.--,--.--,0.0,0.0,0.0,0,0,0,--.--,--.--,--.--
2020-08-02 15:19:02.804,0.7,2.4,108,0.7,2.5,2.6,2.4,3.1,-0.1,49.6,99.8,6.1,00:00:57,6.6,249,50,--.--,83,0000:51:33,11.33,51,0,-1.00,--.--,-11.33,--.--,0,--.--,--.--,--.--,--.--,--.--,--.--,--.--,0,15:19:02,2020-08-02,--.--,--.--,--.--,--.--,--.--,--.--,--.--,0.00,--.--,--.--,true,true,true,true,true,true,false,false,true,true,false,false,0.16,0.04,0.00,0.01,0.00,0.00,0.41,0.20,43.9451241,-78.8969241,17TPJ 68769 67927,0.0,0.0,197.3,3,10,--.--,--.--,--.--,0.0,0.0,0.0,0,0,0,--.--,--.--,--.--
2020-08-02 15:19:03.804,1.1,3.3,110,0.9,-0.1,6.0,7.1,7.3,-0.1,49.7,99.8,10.2,00:00:58,5.9,249,22,--.--,78,0000:51:33,11.32,51,0,-1.00,--.--,-11.32,--.--,0,--.--,--.--,--.--,--.--,--.--,--.--,--.--,0,15:19:03,2020-08-02,--.--,--.--,--.--,--.--,--.--,--.--,--.--,0.00,--.--,--.--,true,true,true,true,true,true,false,false,true,true,false,false,0.22,0.01,0.01,0.01,0.00,0.00,0.43,0.21,43.9451150,-78.8969060,17TPJ 68770 67926,0.0,0.0,108.9,3,10,--.--,--.--,--.--,0.0,0.0,0.0,0,0,0,--.--,--.--,--.--
2020-08-02 15:19:04.814,1.2,1.3,113,-0.4,-6.1,8.9,10.3,9.4,-0.2,49.8,99.9,14.4,00:00:59,7.7,249,338,--.--,72,0000:51:33,11.32,51,0,-1.00,--.--,-11.32,--.--,0,--.--,--.--,--.--,--.--,--.--,--.--,--.--,0,15:19:04,2020-08-02,--.--,--.--,--.--,--.--,--.--,--.--,--.--,0.00,--.--,--.--,true,true,true,true,true,true,false,false,true,true,false,false,0.22,0.01,0.01,0.01,0.00,0.00,0.43,0.21,43.9451150,-78.8969060,17TPJ 68770 67926,0.0,0.0,108.9,3,10,--.--,--.--,--.--,0.0,0.0,0.0,0,0,0,--.--,--.--,--.--
2020-08-02 15:19:05.815,0.5,-3.7,116,-0.5,-10.6,1.6,13.8,14.4,-0.6,49.6,99.7,25.1,00:01:00,16.0,249,309,--.--,75,0000:51:33,11.32,51,0,-1.00,--.--,-11.32,--.--,0,--.--,--.--,--.--,--.--,--.--,--.--,--.--,0,15:19:05,2020-08-02,--.--,--.--,--.--,--.--,--.--,--.--,--.--,0.00,--.--,--.--,true,true,true,true,true,true,false,false,true,true,false,false,0.22,0.01,0.01,0.01,0.00,0.00,0.43,0.21,43.9450953,-78.8968075,17TPJ 68778 67924,0.0,0.0,105.6,3,10,--.--,--.--,--.--,0.0,0.0,0.0,0,0,0,--.--,--.--,--.--
2020-08-02 15:19:06.812,37.3,-0.1,126,3.0,16.7,17.7,17.0,17.6,-0.9,49.0,99.1,35.9,00:01:01,27.0,249,302,--.--,60,0000:51:33,11.32,51,0,-1.00,--.--,-11.32,--.--,0,--.--,--.--,--.--,--.--,--.--,--.--,--.--,0,15:19:06,2020-08-02,--.--,--.--,--.--,--.--,--.--,--.--,--.--,0.00,--.--,--.--,true,true,true,true,true,true,false,false,true,true,false,false,0.27,0.06,0.00,0.10,0.00,0.00,0.43,0.21,43.9450567,-78.8966381,17TPJ 68792 67921,0.0,0.0,109.6,3,10,--.--,--.--,--.--,0.0,0.0,0.0,0,0,0,--.--,--.--,--.--
2020-08-02 15:19:07.815,38.2,0.7,140,0.2,19.8,21.9,17.4,18.3,-0.3,48.8,98.9,46.5,00:01:02,36.2,249,304,--.--,54,0000:51:33,11.32,51,0,-1.00,--.--,-11.32,--.--,0,--.--,--.--,--.--,--.--,--.--,--.--,--.--,0,15:19:07,2020-08-02,--.--,--.--,--.--,--.--,--.--,--.--,--.--,0.00,--.--,--.--,true,true,true,true,true,true,false,false,true,true,false,false,0.27,0.06,0.00,0.10,0.00,0.00,0.43,0.21,43.9450567,-78.8966381,17TPJ 68792 67921,0.0,0.0,109.6,3,10,--.--,--.--,--.--,0.0,0.0,0.0,0,0,0,--.--,--.--,--.--
2020-08-02 15:19:08.804,38.5,3.1,159,-0.5,14.0,14.7,17.8,18.5,0.3,48.8,98.9,61.8,00:01:03,50.6,249,311,--.--,56,0000:51:33,11.32,51,0,-1.00,--.--,-11.32,--.--,0,--.--,--.--,--.--,--.--,--.--,--.--,--.--,0,15:19:08,2020-08-02,--.--,--.--,--.--,--.--,--.--,--.--,--.--,0.00,--.--,--.--,true,true,true,true,true,true,false,false,true,true,false,false,0.27,0.06,0.00,0.10,0.00,0.00,0.43,0.21,43.9449652,-78.8964515,17TPJ 68807 67911,0.0,0.0,138.1,3,10,--.--,--.--,--.--,0.0,0.0,0.0,0,0,0,--.--,--.--,--.--
2020-08-02 15:19:09.804,39.3,2.8,172,0.1,17.7,22.1,18.1,18.7,0.1,48.8,98.9,70.8,00:01:04,59.6,249,316,--.--,56,0000:51:33,11.32,51,0,-1.00,--.--,-11.32,--.--,0,--.--,--.--,--.--,--.--,--.--,--.--,--.--,0,15:19:09,2020-08-02,--.--,--.--,--.--,--.--,--.--,--.--,--.--,0.00,--.--,--.--,true,true,true,true,true,true,false,false,true,true,false,false,0.22,0.16,0.00,0.07,0.00,0.00,0.42,0.21,43.9448162,-78.8963401,17TPJ 68816 67894,0.0,0.0,164.1,3,10,--.--,--.--,--.--,0.0,0.0,0.0,0,0,0,--.--,--.--,--.--
2020-08-02 15:19:10.804,39.8,3.1,187,-1.4,21.3,21.4,18.3,18.8,0.5,48.9,99.0,82.0,00:01:05,67.4,249,322,--.--,55,0000:51:33,11.32,51,0,-1.00,--.--,-11.32,--.--,0,--.--,--.--,--.--,--.--,--.--,--.--,--.--,0,15:19:10,2020-08-02,--.--,--.--,--.--,--.--,--.--,--.--,--.--,0.00,--.--,--.--,true,true,true,true,true,true,false,false,true,true,false,false,0.22,0.16,0.00,0.07,0.00,0.00,0.42,0.21,43.9448162,-78.8963401,17TPJ 68816 67894,0.0,0.0,164.1,3,10,--.--,--.--,--.--,0.0,0.0,0.0,0,0,0,--.--,--.--,--.--
2020-08-02 15:19:11.804,39.4,4.9,206,-2.9,16.6,17.3,18.1,18.2,1.1,49.5,99.6,95.6,00:01:06,76.0,249,330,--.--,54,0000:51:33,11.32,51,0,-1.00,--.--,-11.32,--.--,0,--.--,--.--,--.--,--.--,--.--,--.--,--.--,0,15:19:11,2020-08-02,--.--,--.--,--.--,--.--,--.--,--.--,--.--,0.00,--.--,--.--,true,true,true,true,true,true,false,false,true,true,false,false,0.22,0.16,0.00,0.07,0.00,0.00,0.42,0.21,43.9446455,-78.8963271,17TPJ 68818 67875,0.0,0.0,190.7,3,10,--.--,--.--,--.--,0.0,0.0,0.0,0,0,0,--.--,--.--,--.--
2020-08-02 15:19:12.804,38.6,4.8,217,-4.1,12.7,17.4,18.0,18.4,1.1,50.1,100.2,104.2,00:01:07,81.0,249,336,--.--,53,0000:51:33,11.32,51,0,-1.00,--.--,-11.32,--.--,0,--.--,--.--,--.--,--.--,--.--,--.--,--.--,0,15:19:12,2020-08-02,--.--,--.--,--.--,--.--,--.--,--.--,--.--,0.00,--.--,--.--,true,true,true,true,true,true,false,false,true,true,false,false,0.23,0.17,0.00,0.16,0.00,0.00,0.45,0.21,43.9446455,-78.8963271,17TPJ 68818 67875,0.0,0.0,190.7,3,10,--.--,--.--,--.--,0.0,0.0,0.0,0,0,0,--.--,--.--,--.--
2020-08-02 15:19:13.804,36.1,3.6,232,-5.7,10.1,15.7,17.9,18.5,0.6,50.7,100.8,117.1,00:01:08,86.3,249,343,--.--,51,0000:51:33,11.32,51,0,-1.00,--.--,-11.32,--.--,0,--.--,--.--,--.--,--.--,--.--,--.--,--.--,0,15:19:13,2020-08-02,--.--,--.--,--.--,--.--,--.--,--.--,--.--,0.00,--.--,--.--,true,true,true,true,true,true,false,false,true,true,false,false,0.23,0.17,0.00,0.16,0.00,0.00,0.45,0.21,43.9444918,-78.8964245,17TPJ 68810 67858,0.0,0.0,217.2,3,10,--.--,--.--,--.--,0.0,0.0,0.0,0,0,0,--.--,--.--,--.--
2020-08-02 15:19:14.808,32.4,2.5,244,-6.9,8.0,15.4,17.8,18.2,0.2,50.9,101.1,130.1,00:01:09,90.3,249,351,--.--,50,0000:51:33,11.32,51,0,-1.00,--.--,-11.32,--.--,0,--.--,--.--,--.--,--.--,--.--,--.--,--.--,0,15:19:14,2020-08-02,--.--,--.--,--.--,--.--,--.--,--.--,--.--,0.00,--.--,--.--,true,true,true,true,true,true,false,false,true,true,false,false,0.23,0.17,0.00,0.16,0.00,0.00,0.45,0.21,43.9443811,-78.8965981,17TPJ 68797 67846,0.0,0.0,238.8,3,10,--.--,--.--,--.--,0.0,0.0,0.0,0,0,0,--.--,--.--,--.--
2020-08-02 15:19:15.818,26.1,1.7,258,-8.7,7.1,13.9,17.9,18.0,-0.0,50.9,101.1,143.2,00:01:10,93.5,249,0,--.--,48,0000:51:33,11.32,51,0,-1.00,--.--,-11.32,--.--,0,--.--,--.--,--.--,--.--,--.--,--.--,--.--,0,15:19:15,2020-08-02,--.--,--.--,--.--,--.--,--.--,--.--,--.--,0.00,--.--,--.--,true,true,true,true,true,true,false,false,true,true,false,false,0.08,0.04,0.01,0.15,0.00,0.00,0.44,0.21,43.9443191,-78.8968132,17TPJ 68780 67838,0.0,0.0,256.9,3,10,--.--,--.--,--.--,0.0,0.0,0.0,0,0,0,--.--,--.--,--.--
2020-08-02 15:19:16.819,19.4,1.9,269,-8.5,4.4,10.8,17.8,18.4,0.2,51.0,101.2,158.5,00:01:11,95.9,249,9,--.--,46,0000:51:33,11.32,51,0,-1.00,--.--,-11.32,--.--,0,--.--,--.--,--.--,--.--,--.--,--.--,--.--,0,15:19:16,2020-08-02,--.--,--.--,--.--,--.--,--.--,--.--,--.--,0.00,--.--,--.--,true,true,true,true,true,true,false,false,true,true,false,false,0.08,0.04,0.01,0.15,0.00,0.00,0.44,0.21,43.9443191,-78.8968132,17TPJ 68780 67838,0.0,0.0,256.9,3,10,--.--,--.--,--.--,0.0,0.0,0.0,0,0,0,--.--,--.--,--.--
2020-08-02 15:19:17.819,14.2,1.8,276,-6.8,1.2,8.1,17.6,17.3,0.4,51.3,101.4,171.6,00:01:12,97.7,249,16,--.--,45,0000:51:33,11.32,51,0,-1.00,--.--,-11.32,--.--,0,--.--,--.--,--.--,--.--,--.--,--.--,--.--,0,15:19:17,2020-08-02,--.--,--.--,--.--,--.--,--.--,--.--,--.--,0.00,--.--,--.--,true,true,true,true,true,true,false,false,true,true,false,false,0.08,0.04,0.01,0.15,0.00,0.00,0.44,0.21,43.9443029,-78.8970427,17TPJ 68761 67836,0.0,0.0,270.9,3,10,--.--,--.--,--.--,0.0,0.0,0.0,0,0,0,--.--,--.--,--.--
2020-08-02 15:19:18.804,10.3,1.3,281,-4.9,0.6,5.3,17.5,17.3,0.3,51.6,101.7,184.5,00:01:13,100.0,249,24,--.--,44,0000:51:33,11.32,51,0,-1.00,--.--,-11.32,--.--,0,--.--,--.--,--.--,--.--,--.--,--.--,--.--,0,15:19:18,2020-08-02,--.--,--.--,--.--,--.--,--.--,--.--,--.--,0.00,--.--,--.--,true,true,true,true,true,true,false,false,true,true,false,false,0.03,0.12,0.00,0.08,0.00,0.00,0.44,0.21,43.9443197,-78.8972695,17TPJ 68743 67837,0.0,0.0,279.9,3,10,--.--,--.--,--.--,0.0,0.0,0.0,0,0,0,--.--,--.--,--.--
2020-08-02 15:19:19.805,7.9,1.0,283,-3.2,-0.0,3.9,17.2,17.7,0.2,51.8,101.9,194.8,00:01:14,102.2,249,29,--.--,43,0000:51:33,11.32,51,0,-1.00,--.--,-11.32,--.--,0,--.--,--.--,--.--,--.--,--.--,--.--,--.--,0,15:19:19,2020-08-02,--.--,--.--,--.--,--.--,--.--,--.--,--.--,0.00,--.--,--.--,true,true,true,true,true,true,false,false,true,true,false,false,0.03,0.12,0.00,0.08,0.00,0.00,0.44,0.21,43.9443197,-78.8972695,17TPJ 68743 67837,0.0,0.0,279.9,3,10,--.--,--.--,--.--,0.0,0.0,0.0,0,0,0,--.--,--.--,--.--
2020-08-02 15:19:20.820,6.3,0.7,285,-2.5,-0.5,3.1,17.1,16.9,0.1,51.9,102.0,202.9,00:01:15,104.7,249,34,--.--,43,0000:51:33,11.32,51,0,-1.00,--.--,-11.32,--.--,0,--.--,--.--,--.--,--.--,--.--,--.--,--.--,0,15:19:20,2020-08-02,--.--,--.--,--.--,--.--,--.--,--.--,--.--,0.00,--.--,--.--,true,true,true,true,true,true,false,false,true,true,false,false,0.03,0.12,0.00,0.08,0.00,0.00,0.44,0.21,43.9443469,-78.8974430,17TPJ 68729 67840,0.0,0.0,284.4,3,10,--.--,--.--,--.--,0.0,0.0,0.0,0,0,0,--.--,--.--,--.--
2020-08-02 15:19:21.804,1.2,0.2,287,-8.3,0.0,0.6,16.9,17.0,-0.0,52.0,102.1,217.1,00:01:16,108.8,249,41,--.--,43,0000:51:33,11.32,51,0,-1.00,--.--,-11.32,--.--,0,--.--,--.--,--.--,--.--,--.--,--.--,--.--,0,15:19:21,2020-08-02,--.--,--.--,--.--,--.--,--.--,--.--,--.--,0.00,--.--,--.--,true,true,true,true,true,true,false,false,true,true,false,false,0.04,0.01,0.01,0.06,0.00,0.00,0.43,0.21,43.9443915,-78.8976533,17TPJ 68712 67845,0.0,0.0,288.1,3,10,--.--,--.--,--.--,0.0,0.0,0.0,0,0,0,--.--,--.--,--.--
2020-08-02 15:19:22.820,-3.3,0.2,286,-5.9,0.1,-2.0,16.8,16.8,-0.1,52.0,102.1,227.3,00:01:17,113.5,249,46,--.--,42,0000:51:33,11.32,51,0,-1.00,--.--,-11.32,--.--,0,--.--,--.--,--.--,--.--,--.--,--.--,--.--,0,15:19:22,2020-08-02,--.--,--.--,--.--,--.--,--.--,--.--,--.--,0.00,--.--,--.--,true,true,true,true,true,true,false,false,true,true,false,false,0.04,0.01,0.01,0.06,0.00,0.00,0.43,0.21,43.9443915,-78.8976533,17TPJ 68712 67845,0.0,0.0,288.1,3,10,--.--,--.--,--.--,0.0,0.0,0.0,0,0,0,--.--,--.--,--.--
2020-08-02 15:19:23.804,-6.7,0.1,284,-3.8,0.5,-4.4,16.8,16.2,-0.1,51.9,102.1,239.5,00:01:18,119.7,249,51,--.--,43,0000:51:33,11.32,51,0,-1.00,--.--,-11.32,--.--,0,--.--,--.--,--.--,--.--,--.--,--.--,--.--,0,15:19:23,2020-08-02,--.--,--.--,--.--,--.--,--.--,--.--,--.--,0.00,--.--,--.--,true,true,true,true,true,true,false,false,true,true,false,false,0.04,0.01,0.01,0.06,0.00,0.00,0.43,0.21,43.9444416,-78.8978587,17TPJ 68695 67850,0.0,0.0,288.6,3,10,--.--,--.--,--.--,0.0,0.0,0.0,0,0,0,--.--,--.--,--.--
2020-08-02 15:19:24.821,-8.9,0.2,280,-2.4,1.2,-5.8,16.8,16.6,-0.1,51.9,102.0,253.8,00:01:19,128.1,249,56,--.--,42,0000:51:33,11.32,51,0,-1.00,--.--,-11.32,--.--,0,--.--,--.--,--.--,--.--,--.--,--.--,--.--,0,15:19:24,2020-08-02,--.--,--.--,--.--,--.--,--.--,--.--,--.--,0.00,--.--,--.--,true,true,true,true,true,true,false,false,true,true,false,false,0.03,0.10,0.02,0.04,0.00,0.00,0.42,0.20,43.9444871,-78.8980645,17TPJ 68679 67854,0.0,0.0,285.2,3,10,--.--,--.--,--.--,0.0,0.0,0.0,0,0,0,--.--,--.--,--.--
2020-08-02 15:19:25.804,-9.8,0.3,275,-0.7,1.2,-6.4,16.8,16.6,-0.0,51.9,102.0,266.1,00:01:20,138.2,249,60,--.--,42,0000:51:33,11.32,51,0,-1.00,--.--,-11.32,--.--,0,--.--,--.--,--.--,--.--,--.--,--.--,--.--,0,15:19:25,2020-08-02,--.--,--.--,--.--,--.--,--.--,--.--,--.--,0.00,--.--,--.--,true,true,true,true,true,true,false,false,true,true,false,false,0.03,0.10,0.02,0.04,0.00,0.00,0.42,0.20,43.9445209,-78.8982750,17TPJ 68662 67858,0.0,0.0,279.8,3,10,--.--,--.--,--.--,0.0,0.0,0.0,0,0,0,--.--,--.--,--.--
2020-08-02 15:19:26.804,-9.7,0.2,269,1.4,0.7,-6.7,16.7,16.5,-0.0,51.9,102.0,281.5,00:01:21,150.4,249,63,--.--,42,0000:51:33,11.32,51,0,-1.00,--.--,-11.32,--.--,0,--.--,--.--,--.--,--.--,--.--,--.--,--.--,0,15:19:26,2020-08-02,--.--,--.--,--.--,--.--,--.--,--.--,--.--,0.00,--.--,--.--,true,true,true,true,true,true,false,false,true,true,false,false,0.05,0.20,0.00,0.05,0.00,0.00,0.45,0.21,43.9445391,-78.8984878,17TPJ 68645 67859,0.0,0.0,273.7,3,10,--.--,--.--,--.--,0.0,0.0,0.0,0,0,0,--.--,--.--,--.--
2020-08-02 15:19:27.823,-2.9,0.1,265,68.1,-0.4,-3.9,16.6,16.8,0.0,51.9,102.0,291.8,00:01:22,159.9,344,65,--.--,41,0000:51:33,11.32,51,0,-1.00,--.--,-11.32,--.--,0,--.--,--.--,--.--,--.--,--.--,--.--,--.--,0,15:19:27,2020-08-02,--.--,--.--,--.--,--.--,--.--,--.--,--.--,0.00,--.--,--.--,true,true,true,true,true,true,false,false,true,true,false,false,0.05,0.20,0.00,0.05,0.00,0.00,0.45,0.21,43.9445391,-78.8984878,17TPJ 68645 67859,0.0,0.0,273.7,3,10,--.--,--.--,--.--,0.0,0.0,0.0,0,0,0,--.--,--.--,--.--
2020-08-02 15:19:28.804,29.1,1.2,269,-16.4,10.8,12.0,16.8,16.5,-0.2,51.9,102.0,302.0,00:01:23,168.1,344,66,--.--,45,0000:51:33,11.32,51,0,-1.00,--.--,-11.32,--.--,0,--.--,--.--,--.--,--.--,--.--,--.--,--.--,0,15:19:28,2020-08-02,--.--,--.--,--.--,--.--,--.--,--.--,--.--,0.00,--.--,--.--,true,true,true,true,true,true,false,false,true,true,false,false,0.05,0.20,0.00,0.05,0.00,0.00,0.45,0.21,43.9445413,-78.8987007,17TPJ 68628 67859,0.0,0.0,269.0,3,10,--.--,--.--,--.--,0.0,0.0,0.0,0,0,0,--.--,--.--,--.--
2020-08-02 15:19:29.804,25.3,0.3,282,1.7,9.8,19.3,17.3,16.8,-0.0,51.8,102.0,314.9,00:01:24,179.0,344,68,--.--,44,0000:51:33,11.32,51,0,-1.00,--.--,-11.32,--.--,0,--.--,--.--,--.--,--.--,--.--,--.--,--.--,0,15:19:29,2020-08-02,--.--,--.--,--.--,--.--,--.--,--.--,--.--,0.00,--.--,--.--,true,true,true,true,true,true,false,false,true,true,false,false,0.11,0.08,0.00,0.05,0.00,0.00,0.41,0.20,43.9445413,-78.8987007,17TPJ 68628 67859,0.0,0.0,269.0,3,10,--.--,--.--,--.--,0.0,0.0,0.0,0,0,0,--.--,--.--,--.--
2020-08-02 15:19:30.822,24.2,1.7,295,-1.6,5.0,9.4,17.3,16.7,0.5,52.1,102.2,327.3,00:01:25,188.5,344,71,--.--,43,0000:51:33,11.32,51,0,-1.00,--.--,-11.32,--.--,0,--.--,--.--,--.--,--.--,--.--,--.--,--.--,0,15:19:30,2020-08-02,--.--,--.--,--.--,--.--,--.--,--.--,--.--,0.00,--.--,--.--,true,true,true,true,true,true,false,false,true,true,false,false,0.11,0.08,0.00,0.05,0.00,0.00,0.41,0.20,43.9445576,-78.8989144,17TPJ 68610 67860,0.0,0.0,283.9,3,10,--.--,--.--,--.--,0.0,0.0,0.0,0,0,0,--.--,--.--,--.--
2020-08-02 15:19:31.807,23.6,1.0,301,-1.2,2.7,12.8,17.2,16.7,0.1,52.3,102.4,336.0,00:01:26,195.2,344,73,--.--,43,0000:51:33,11.32,51,0,-1.00,--.--,-11.32,--.--,0,--.--,--.--,--.--,--.--,--.--,--.--,--.--,0,15:19:31,2020-08-02,--.--,--.--,--.--,--.--,--.--,--.--,--.--,0.00,--.--,--.--,true,true,true,true,true,true,false,false,true,true,false,false,0.11,0.08,0.00,0.05,0.00,0.00,0.41,0.20,43.9446011,-78.8990735,17TPJ 68598 67865,0.0,0.0,297.5,3,10,--.--,--.--,--.--,0.0,0.0,0.0,0,0,0,--.--,--.--,--.--
2020-08-02 15:19:32.808,22.5,0.0,311,-2.3,4.8,13.4,17.1,16.9,-0.2,52.3,102.4,347.0,00:01:27,200.8,344,76,--.--,43,0000:51:33,11.32,51,0,-1.00,--.--,-11.32,--.--,0,--.--,--.--,--.--,--.--,--.--,--.--,--.--,0,15:19:32,2020-08-02,--.--,--.--,--.--,--.--,--.--,--.--,--.--,0.00,--.--,--.--,true,true,true,true,true,true,false,false,true,true,false,false,0.15,0.15,0.00,0.06,0.00,0.00,0.43,0.21,43.9446011,-78.8990735,17TPJ 68598 67865,0.0,0.0,297.5,3,10,--.--,--.--,--.--,0.0,0.0,0.0,0,0,0,--.--,--.--,--.--
2020-08-02 15:19:33.823,19.9,0.1,320,-3.0,2.6,9.0,17.0,16.2,-0.3,52.0,102.2,360.7,00:01:28,207.0,344,79,--.--,42,0000:51:33,11.32,51,0,-1.00,--.--,-11.32,--.--,0,--.--,--.--,--.--,--.--,--.--,--.--,--.--,0,15:19:33,2020-08-02,--.--,--.--,--.--,--.--,--.--,--.--,--.--,0.00,--.--,--.--,true,true,true,true,true,true,false,false,true,true,false,false,0.15,0.15,0.00,0.06,0.00,0.00,0.43,0.21,43.9446876,-78.8992483,17TPJ 68583 67874,0.0,0.0,311.3,3,10,--.--,--.--,--.--,0.0,0.0,0.0,0,0,0,--.--,--.--,--.--
2020-08-02 15:19:34.804,18.4,-0.2,326,-2.6,2.6,10.5,16.9,16.7,-0.5,51.8,101.9,367.6,00:01:29,210.3,344,81,--.--,42,0000:51:33,11.32,51,0,-1.00,--.--,-11.32,--.--,0,--.--,--.--,--.--,--.--,--.--,--.--,--.--,0,15:19:34,2020-08-02,--.--,--.--,--.--,--.--,--.--,--.--,--.--,0.00,--.--,--.--,true,true,true,true,true,true,false,false,true,true,false,false,0.15,0.15,0.00,0.06,0.00,0.00,0.43,0.21,43.9448007,-78.8993887,17TPJ 68572 67886,0.0,0.0,324.7,3,10,--.--,--.--,--.--,0.0,0.0,0.0,0,0,0,--.--,--.--,--.--
2020-08-02 15:19:35.825,17.1,-0.2,330,-3.1,3.7,10.6,17.0,16.9,-0.5,51.5,101.7,376.0,00:01:30,212.6,344,83,--.--,42,0000:51:33,11.32,51,0,-1.00,--.--,-11.32,--.--,0,--.--,--.--,--.--,--.--,--.--,--.--,--.--,0,15:19:35,2020-08-02,--.--,--.--,--.--,--.--,--.--,--.--,--.--,0.00,--.--,--.--,true,true,true,true,true,true,false,false,true,true,false,false,0.15,0.15,0.00,0.06,0.00,0.00,0.43,0.21,43.9448007,-78.8993887,17TPJ 68572 67886,0.0,0.0,324.7,3,10,--.--,--.--,--.--,0.0,0.0,0.0,0,0,0,--.--,--.--,--.--
2020-08-02 15:19:36.809,14.8,0.2,336,-4.6,3.4,7.8,17.0,16.6,-0.4,51.2,101.3,386.1,00:01:31,215.5,344,85,--.--,42,0000:51:33,11.32,51,0,-1.00,--.--,-11.32,--.--,0,--.--,--.--,--.--,--.--,--.--,--.--,--.--,0,15:19:36,2020-08-02,--.--,--.--,--.--,--.--,--.--,--.--,--.--,0.00,--.--,--.--,true,true,true,true,true,true,false,false,true,true,false,false,0.12,0.03,0.00,0.08,0.00,0.00,0.42,0.21,43.9449342,-78.8994946,17TPJ 68563 67901,0.0,0.0,335.6,3,10,--.--,--.--,--.--,0.0,0.0,0.0,0,0,0,--.--,--.--,--.--
2020-08-02 15:19:37.804,12.2,0.8,342,-3.4,2.1,6.9,16.9,16.8,-0.3,50.9,101.1,398.4,00:01:32,218.3,344,89,--.--,42,0000:51:33,11.32,51,0,-1.00,--.--,-11.32,--.--,0,--.--,--.--,--.--,--.--,--.--,--.--,--.--,0,15:19:37,2020-08-02,--.--,--.--,--.--,--.--,--.--,--.--,--.--,0.00,--.--,--.--,true,true,true,true,true,true,false,false,true,true,false,false,0.12,0.03,0.00,0.08,0.00,0.00,0.42,0.21,43.9449342,-78.8994946,17TPJ 68563 67901,0.0,0.0,335.6,3,10,--.--,--.--,--.--,0.0,0.0,0.0,0,0,0,--.--,--.--,--.--
2020-08-02 15:19:38.810,9.9,1.0,347,-3.4,1.8,5.9,16.9,16.7,-0.1,50.8,100.9,410.6,00:01:33,220.7,344,92,--.--,42,0000:51:33,11.32,51,0,-1.00,--.--,-11.32,--.--,0,--.--,--.--,--.--,--.--,--.--,--.--,--.--,0,15:19:38,2020-08-02,--.--,--.--,--.--,--.--,--.--,--.--,--.--,0.00,--.--,--.--,true,true,true,true,true,true,false,false,true,true,false,false,0.12,0.03,0.00,0.08,0.00,0.00,0.42,0.21,43.9450791,-78.8995660,17TPJ 68557 67917,0.0,0.0,344.8,3,10,--.--,--.--,--.--,0.0,0.0,0.0,0,0,0,--.--,--.--,--.--
2020-08-02 15:19:39.805,8.1,1.3,350,-3.8,0.7,4.6,16.9,16.6,-0.0,50.7,100.8,419.0,00:01:34,222.5,344,94,--.--,42,0000:51:33,11.32,51,0,-1.00,--.--,-11.32,--.--,0,--.--,--.--,--.--,--.--,--.--,--.--,--.--,0,15:19:39,2020-08-02,--.--,--.--,--.--,--.--,--.--,--.--,--.--,0.00,--.--,--.--,true,true,true,true,true,true,false,false,true,true,false,false,0.06,0.11,0.01,0.07,0.00,0.00,0.42,0.21,43.9452304,-78.8996094,17TPJ 68553 67934,0.0,0.0,351.6,3,10,--.--,--.--,--.--,0.0,0.0,0.0,0,0,0,--.--,--.--,--.--
2020-08-02 15:19:40.827,6.4,1.5,353,-0.7,0.2,3.9,16.7,16.7,0.0,50.7,100.8,430.5,00:01:35,224.3,344,97,--.--,42,0000:51:33,11.32,51,0,-1.00,--.--,-11.32,--.--,0,--.--,--.--,--.--,--.--,--.--,--.--,--.--,0,15:19:40,2020-08-02,--.--,--.--,--.--,--.--,--.--,--.--,--.--,0.00,--.--,--.--,true,true,true,true,true,true,false,false,true,true,false,false,0.06,0.11,0.01,0.07,0.00,0.00,0.42,0.21,43.9452304,-78.8996094,17TPJ 68553 67934,0.0,0.0,351.6,3,10,--.--,--.--,--.--,0.0,0.0,0.0,0,0,0,--.--,--.--,--.--
2020-08-02 15:19:41.805,5.0,1.4,355,-2.2,0.1,2.8,16.6,16.3,0.0,50.7,100.9,439.8,00:01:36,226.1,344,99,--.--,42,0000:51:33,11.32,51,0,-1.00,--.--,-11.32,--.--,0,--.--,--.--,--.--,--.--,--.--,--.--,--.--,0,15:19:41,2020-08-02,--.--,--.--,--.--,--.--,--.--,--.--,--.--,0.00,--.--,--.--,true,true,true,true,true,true,false,false,true,true,false,false,0.06,0.11,0.01,0.07,0.00,0.00,0.42,0.21,43.9453844,-78.8996317,17TPJ 68551 67951,0.0,0.0,356.1,3,10,--.--,--.--,--.--,0.0,0.0,0.0,0,0,0,--.--,--.--,--.--
2020-08-02 15:19:42.811,3.8,1.4,357,-1.6,-0.1,2.0,16.5,16.2,0.0,50.8,100.9,451.0,00:01:37,228.4,344,102,--.--,41,0000:51:33,11.32,51,0,-1.00,--.--,-11.32,--.--,0,--.--,--.--,--.--,--.--,--.--,--.--,--.--,0,15:19:42,2020-08-02,--.--,--.--,--.--,--.--,--.--,--.--,--.--,0.00,--.--,--.--,true,true,true,true,true,true,false,false,true,true,false,false,0.02,0.02,0.00,0.05,0.00,0.00,0.41,0.20,43.9455372,-78.8996396,17TPJ 68549 67968,0.0,0.0,359.3,3,10,--.--,--.--,--.--,0.0,0.0,0.0,0,0,0,--.--,--.--,--.--
2020-08-02 15:19:43.804,3.2,1.4,358,-1.3,-0.1,1.3,16.5,16.4,0.1,50.8,100.9,459.3,00:01:38,229.9,344,104,--.--,41,0000:51:33,11.32,51,0,-1.00,--.--,-11.32,--.--,0,--.--,--.--,--.--,--.--,--.--,--.--,--.--,0,15:19:43,2020-08-02,--.--,--.--,--.--,--.--,--.--,--.--,--.--,0.00,--.--,--.--,true,true,true,true,true,true,false,false,true,true,false,false,0.02,0.02,0.00,0.05,0.00,0.00,0.41,0.20,43.9455372,-78.8996396,17TPJ 68549 67968,0.0,0.0,359.3,3,10,--.--,--.--,--.--,0.0,0.0,0.0,0,0,0,--.--,--.--,--.--
2020-08-02 15:19:44.811,2.0,1.3,359,-1.0,0.1,1.1,16.5,16.1,0.0,50.8,100.9,469.3,00:01:39,232.6,344,107,--.--,41,0000:51:33,11.32,51,0,-1.00,--.--,-11.32,--.--,0,--.--,--.--,--.--,--.--,--.--,--.--,--.--,0,15:19:44,2020-08-02,--.--,--.--,--.--,--.--,--.--,--.--,--.--,0.00,--.--,--.--,true,true,true,true,true,true,false,false,true,true,false,false,0.02,0.02,0.00,0.05,0.00,0.00,0.41,0.20,43.9456907,-78.8996379,17TPJ 68549 67985,0.0,0.0,1.4,3,10,--.--,--.--,--.--,0.0,0.0,0.0,0,0,0,--.--,--.--,--.--
2020-08-02 15:19:45.806,1.5,1.3,359,-0.5,0.2,0.9,16.4,16.0,0.0,50.8,100.9,479.4,00:01:40,234.9,344,109,--.--,41,0000:51:33,11.32,51,0,-1.00,--.--,-11.32,--.--,0,--.--,--.--,--.--,--.--,--.--,--.--,--.--,0,15:19:45,2020-08-02,--.--,--.--,--.--,--.--,--.--,--.--,--.--,0.00,--.--,--.--,true,true,true,true,true,true,false,false,true,true,false,false,0.02,0.02,0.00,0.05,0.00,0.00,0.41,0.20,43.9456907,-78.8996379,17TPJ 68549 67985,0.0,0.0,1.4,3,10,--.--,--.--,--.--,0.0,0.0,0.0,0,0,0,--.--,--.--,--.--
2020-08-02 15:19:46.812,0.9,1.2,359,-0.6,0.3,0.4,16.4,16.4,0.0,50.8,101.0,489.4,00:01:41,238.0,344,111,--.--,41,0000:51:33,11.32,51,0,-1.00,--.--,-11.32,--.--,0,--.--,--.--,--.--,--.--,--.--,--.--,--.--,0,15:19:46,2020-08-02,--.--,--.--,--.--,--.--,--.--,--.--,--.--,0.00,--.--,--.--,true,true,true,true,true,true,false,false,true,true,false,false,0.03,0.13,0.00,0.05,0.00,0.00,0.41,0.20,43.9458423,-78.8996309,17TPJ 68549 68002,0.0,0.0,2.5,3,10,--.--,--.--,--.--,0.0,0.0,0.0,0,0,0,--.--,--.--,--.--
2020-08-02 15:19:47.812,0.3,1.2,0,0.3,0.2,0.1,16.4,16.6,0.0,50.8,101.0,497.5,00:01:42,240.8,344,113,--.--,41,0000:51:33,11.32,51,0,-1.00,--.--,-11.32,--.--,0,--.--,--.--,--.--,--.--,--.--,--.--,--.--,0,15:19:47,2020-08-02,--.--,--.--,--.--,--.--,--.--,--.--,--.--,0.00,--.--,--.--,true,true,true,true,true,true,false,false,true,true,false,false,0.03,0.13,0.00,0.05,0.00,0.00,0.41,0.20,43.9458423,-78.8996309,17TPJ 68549 68002,0.0,0.0,2.5,3,10,--.--,--.--,--.--,0.0,0.0,0.0,0,0,0,--.--,--.--,--.--
2020-08-02 15:19:48.813,-0.1,1.1,0,0.3,-0.3,0.0,16.4,16.2,-0.0,50.8,101.0,508.6,00:01:43,245.0,344,115,--.--,41,0000:51:33,11.32,51,0,-1.00,--.--,-11.32,--.--,0,--.--,--.--,--.--,--.--,--.--,--.--,--.--,0,15:19:48,2020-08-02,--.--,--.--,--.--,--.--,--.--,--.--,--.--,0.00,--.--,--.--,true,true,true,true,true,true,false,false,true,true,false,false,0.03,0.13,0.00,0.05,0.00,0.00,0.41,0.20,43.9459642,-78.8996232,17TPJ 68550 68015,0.0,0.0,2.7,3,10,--.--,--.--,--.--,0.0,0.0,0.0,0,0,0,--.--,--.--,--.--
2020-08-02 15:19:49.830,-0.4,1.0,359,-0.4,-0.1,-0.6,16.3,16.5,-0.0,50.8,101.0,519.9,00:01:44,249.7,--.--,118,--.--,40,0000:51:33,11.32,51,0,-1.00,--.--,-11.32,--.--,0,--.--,--.--,--.--,--.--,--.--,--.--,--.--,0,15:19:49,2020-08-02,--.--,--.--,--.--,--.--,--.--,--.--,--.--,0.00,--.--,--.--,true,true,true,true,true,true,false,false,true,true,false,false,0.03,0.09,0.00,0.04,0.00,0.00,0.43,0.21,43.9461145,-78.8996129,17TPJ 68550 68032,0.0,0.0,2.9,3,10,--.--,--.--,--.--,0.0,0.0,0.0,0,0,0,--.--,--.--,--.--
2020-08-02 15:19:50.830,-0.3,1.0,359,1.6,-0.2,-0.2,16.2,16.6,-0.0,50.8,101.0,530.9,00:01:45,254.0,21,120,--.--,40,0000:51:33,11.32,51,0,-1.00,--.--,-11.32,--.--,0,--.--,--.--,--.--,--.--,--.--,--.--,--.--,0,15:19:50,2020-08-02,--.--,--.--,--.--,--.--,--.--,--.--,--.--,0.00,--.--,--.--,true,true,true,true,true,true,false,false,true,true,false,false,0.03,0.09,0.00,0.04,0.00,0.00,0.43,0.21,43.9461145,-78.8996129,17TPJ 68550 68032,0.0,0.0,2.9,3,10,--.--,--.--,--.--,0.0,0.0,0.0,0,0,0,--.--,--.--,--.--
2020-08-02 15:19:51.809,17.7,1.4,2,-17.8,3.9,7.4,16.3,15.7,-0.1,50.8,101.0,537.9,00:01:46,257.7,21,122,--.--,42,0000:51:33,11.32,51,0,-1.00,--.--,-11.32,--.--,0,--.--,--.--,--.--,--.--,--.--,--.--,--.--,0,15:19:51,2020-08-02,--.--,--.--,--.--,--.--,--.--,--.--,--.--,0.00,--.--,--.--,true,true,true,true,true,true,false,false,true,true,false,false,0.03,0.09,0.00,0.04,0.00,0.00,0.43,0.21,43.9462655,-78.8996027,17TPJ 68550 68049,0.0,0.0,2.6,3,10,--.--,--.--,--.--,0.0,0.0,0.0,0,0,0,--.--,--.--,--.--
2020-08-02 15:19:52.815,13.7,1.1,8,5.5,3.1,11.6,16.5,16.3,-0.1,50.8,100.9,549.4,00:01:47,261.9,175,124,--.--,41,0000:51:33,11.32,51,0,-1.00,--.--,-11.32,--.--,0,--.--,--.--,--.--,--.--,--.--,--.--,--.--,0,15:19:52,2020-08-02,--.--,--.--,--.--,--.--,--.--,--.--,--.--,0.00,--.--,--.--,true,true,true,true,true,true,false,false,true,true,false,false,0.06,0.08,0.01,0.02,0.00,0.00,0.42,0.20,43.9464149,-78.8995875,17TPJ 68551 68065,0.0,0.0,8.1,3,10,--.--,--.--,--.--,0.0,0.0,0.0,0,0,0,--.--,--.--,--.--
2020-08-02 15:19:53.815,38.3,2.7,19,-11.4,22.6,17.9,16.6,16.2,0.1,50.8,100.9,558.1,00:01:48,264.8,175,125,--.--,44,0000:51:33,11.32,51,0,-1.00,--.--,-11.32,--.--,0,--.--,--.--,--.--,--.--,--.--,--.--,--.--,0,15:19:53,2020-08-02,--.--,--.--,--.--,--.--,--.--,--.--,--.--,0.00,--.--,--.--,true,true,true,true,true,true,false,false,true,true,false,false,0.06,0.08,0.01,0.02,0.00,0.00,0.42,0.20,43.9464149,-78.8995875,17TPJ 68551 68065,0.0,0.0,8.1,3,10,--.--,--.--,--.--,0.0,0.0,0.0,0,0,0,--.--,--.--,--.--
2020-08-02 15:19:54.805,37.1,3.1,36,-0.7,14.2,20.5,16.7,16.5,0.2,51.0,101.1,568.1,00:01:49,266.3,175,128,--.--,43,0000:51:33,11.32,51,0,-1.00,--.--,-11.32,--.--,0,--.--,--.--,--.--,--.--,--.--,--.--,--.--,0,15:19:54,2020-08-02,--.--,--.--,--.--,--.--,--.--,--.--,--.--,0.00,--.--,--.--,true,true,true,true,true,true,false,false,true,true,false,false,0.06,0.08,0.01,0.02,0.00,0.00,0.42,0.20,43.9465615,-78.8995360,17TPJ 68555 68082,0.0,0.0,25.1,3,10,--.--,--.--,--.--,0.0,0.0,0.0,0,0,0,--.--,--.--,--.--
2020-08-02 15:19:55.805,37.3,2.7,51,-0.8,13.8,18.2,16.7,16.7,0.1,51.1,101.2,578.8,00:01:50,265.1,175,130,--.--,43,0000:51:33,11.32,51,0,-1.00,--.--,-11.32,--.--,0,--.--,--.--,--.--,--.--,--.--,--.--,--.--,0,15:19:55,2020-08-02,--.--,--.--,--.--,--.--,--.--,--.--,--.--,0.00,--.--,--.--,true,true,true,true,true,true,false,false,true,true,false,false,0.14,0.10,0.00,0.03,0.00,0.00,0.42,0.21,43.9465615,-78.8995360,17TPJ 68555 68082,0.0,0.0,25.1,3,10,--.--,--.--,--.--,0.0,0.0,0.0,0,0,0,--.--,--.--,--.--
2020-08-02 15:19:56.804,37.4,2.6,63,-0.8,13.1,17.9,16.8,16.5,-0.1,51.1,101.2,587.6,00:01:51,262.5,175,132,--.--,43,0000:51:33,11.32,51,0,-1.00,--.--,-11.32,--.--,0,--.--,--.--,--.--,--.--,--.--,--.--,--.--,0,15:19:56,2020-08-02,--.--,--.--,--.--,--.--,--.--,--.--,--.--,0.00,--.--,--.--,true,true,true,true,true,true,false,false,true,true,false,false,0.14,0.10,0.00,0.03,0.00,0.00,0.42,0.21,43.9466787,-78.8994093,17TPJ 68565 68095,0.0,0.0,50.5,3,10,--.--,--.--,--.--,0.0,0.0,0.0,0,0,0,--.--,--.--,--.--
2020-08-02 15:19:57.815,37.8,2.0,78,-0.0,15.8,21.7,16.8,16.5,-0.4,50.9,101.0,596.6,00:01:52,257.8,175,134,--.--,43,0000:51:33,11.32,51,0,-1.00,--.--,-11.32,--.--,0,--.--,--.--,--.--,--.--,--.--,--.--,--.--,0,15:19:57,2020-08-02,--.--,--.--,--.--,--.--,--.--,--.--,--.--,0.00,--.--,--.--,true,true,true,true,true,true,false,false,true,true,false,false,0.14,0.10,0.00,0.03,0.00,0.00,0.42,0.21,43.9466787,-78.8994093,17TPJ 68565 68095,0.0,0.0,50.5,3,10,--.--,--.--,--.--,0.0,0.0,0.0,0,0,0,--.--,--.--,--.--
2020-08-02 15:19:58.817,37.7,2.6,104,-1.9,17.9,21.6,16.7,16.4,-0.0,50.7,100.8,612.4,00:01:53,247.1,175,136,--.--,44,0000:51:33,11.32,51,0,-1.00,--.--,-11.32,--.--,0,--.--,--.--,--.--,--.--,--.--,--.--,--.--,0,15:19:58,2020-08-02,--.--,--.--,--.--,--.--,--.--,--.--,--.--,0.00,--.--,--.--,true,true,true,true,true,true,false,false,true,true,false,false,0.05,0.03,0.00,0.04,0.00,0.00,0.41,0.20,43.9467473,-78.8992236,17TPJ 68579 68103,0.0,0.0,75.0,3,10,--.--,--.--,--.--,0.0,0.0,0.0,0,0,0,--.--,--.--,--.--
2020-08-02 15:19:59.817,36.6,3.1,124,-3.0,13.7,18.0,16.5,16.0,0.2,50.9,101.0,626.1,00:01:54,235.0,175,137,--.--,43,0000:51:33,11.32,51,0,-1.00,--.--,-11.32,--.--,0,--.--,--.--,--.--,--.--,--.--,--.--,--.--,0,15:19:59,2020-08-02,--.--,--.--,--.--,--.--,--.--,--.--,--.--,0.00,--.--,--.--,true,true,true,true,true,true,false,false,true,true,false,false,0.05,0.03,0.00,0.04,0.00,0.00,0.41,0.20,43.9467528,-78.8990148,17TPJ 68596 68104,0.0,0.0,101.5,3,10,--.--,--.--,--.--,0.0,0.0,0.0,0,0,0,--.--,--.--,--.--
