Timestamp,roll,pitch,heading,rollRate,pitchRate,yawRate,groundSpeed,airSpeed,climbRate,altitudeRelative,altitudeAMSL,flightDistance,flightTime,distanceToHome,headingToNextWP,headingToHome,distanceToGCS,throttlePct,hobbs,battery.voltage,battery.percentRemaining,battery.mahConsumed,battery.current,battery.temperature,battery.instantPower,battery.timeRemaining,battery.chargeState,battery2.voltage,battery2.percentRemaining,battery2.mahConsumed,battery2.current,battery2.temperature,battery2.instantPower,battery2.timeRemaining,battery2.chargeState,clock.currentTime,clock.currentDate,distanceSensor.rotationNone,distanceSensor.rotationYaw45,distanceSensor.rotationYaw90,distanceSensor.rotationYaw135,distanceSensor.rotationYaw180,distanceSensor.rotationYaw225,distanceSensor.rotationYaw270,distanceSensor.rotationYaw315,distanceSensor.rotationPitch90,distanceSensor.rotationPitch270,estimatorStatus.goodAttitudeEsimate,estimatorStatus.goodHorizVelEstimate,estimatorStatus.goodVertVelEstimate,estimatorStatus.goodHorizPosRelEstimate,estimatorStatus.goodHorizPosAbsEstimate,estimatorStatus.goodVertPosAbsEstimate,estimatorStatus.goodVertPosAGLEstimate,estimatorStatus.goodConstPosModeEstimate,estimatorStatus.goodPredHorizPosRelEstimate,estimatorStatus.goodPredHorizPosAbsEstimate,estimatorStatus.gpsGlitch,estimatorStatus.accelError,estimatorStatus.velRatio,estimatorStatus.horizPosRatio,estimatorStatus.vertPosRatio,estimatorStatus.magRatio,estimatorStatus.haglRatio,estimatorStatus.tasRatio,estimatorStatus.horizPosAccuracy,estimatorStatus.vertPosAccuracy,gps.lat,gps.lon,gps.mgrs,gps.hdop,gps.vdop,gps.courseOverGround,gps.lock,gps.count,temperature.temperature1,temperature.temperature2,temperature.temperature3,vibration.xAxis,vibration.yAxis,vibration.zAxis,vibration.clipCount1,vibration.clipCount2,vibration.clipCount3,wind.direction,wind.speed,wind.verticalSpeed
2020-08-02 15:31:27.304,-1.1,-1.0,98,-0.2,-0.1,-0.0,0.0,3.2,-0.0,0.0,50.1,0.0,00:00:00,0.0,308,--.--,--.--,0,0000:51:33,12.14,100,0,-1.00,--.--,-12.14,--.--,0,--.--,--.--,--.--,--.--,--.--,--.--,--.--,0,15:31:27,2020-08-02,--.--,--.--,--.--,--.--,--.--,--.--,--.--,0.00,--.--,--.--,true,true,true,true,true,true,false,false,true,true,false,false,0.02,0.00,0.00,0.01,0.00,0.00,0.42,0.20,43.9451549,-78.8968510,17TPJ 68774 67931,0.0,0.0,356.0,3,10,--.--,--.--,--.--,0.0,0.0,0.0,0,0,0,--.--,--.--,--.--
2020-08-02 15:31:28.304,-1.1,-1.0,98,0.2,-0.1,-0.3,0.0,2.0,-0.0,0.0,50.1,0.0,00:00:01,0.0,308,--.--,--.--,24,0000:51:33,12.14,100,0,-1.00,--.--,-12.14,--.--,0,--.--,--.--,--.--,--.--,--.--,--.--,--.--,0,15:31:28,2020-08-02,--.--,--.--,--.--,--.--,--.--,--.--,--.--,0.00,--.--,--.--,true,true,true,true,true,true,false,false,true,true,false,false,0.02,0.00,0.00,0.01,0.00,0.00,0.42,0.20,43.9451549,-78.8968510,17TPJ 68774 67931,0.0,0.0,356.0,3,10,--.--,--.--,--.--,0.0,0.0,0.0,0,0,0,--.--,--.--,--.--
2020-08-02 15:31:29.305,-1.1,-1.0,98,0.1,-0.1,-0.1,0.0,-1.8,-0.0,-0.0,50.1,0.0,00:00:02,0.0,308,--.--,--.--,62,0000:51:33,12.12,99,0,-1.00,--.--,-12.12,--.--,0,--.--,--.--,--.--,--.--,--.--,--.--,--.--,0,15:31:29,2020-08-02,--.--,--.--,--.--,--.--,--.--,--.--,--.--,0.00,--.--,--.--,true,true,true,true,true,true,false,false,true,true,false,false,0.02,0.00,0.00,0.01,0.00,0.00,0.42,0.20,43.9451549,-78.8968510,17TPJ 68774 67931,0.0,0.0,152.7,3,10,--.--,--.--,--.--,0.0,0.0,0.0,0,0,0,--.--,--.--,--.--
2020-08-02 15:31:30.312,0.2,-0.9,98,-2.1,0.3,0.1,0.0,1.8,0.3,0.1,50.2,0.0,00:00:03,0.0,308,--.--,--.--,87,0000:51:33,12.12,99,0,-1.00,--.--,-12.12,--.--,0,--.--,--.--,--.--,--.--,--.--,--.--,--.--,0,15:31:30,2020-08-02,--.--,--.--,--.--,--.--,--.--,--.--,--.--,0.00,--.--,--.--,true,true,true,true,true,true,false,false,true,true,false,false,0.02,0.00,0.00,0.01,0.00,0.00,0.42,0.20,43.9451549,-78.8968510,17TPJ 68774 67931,0.0,0.0,152.7,3,10,--.--,--.--,--.--,0.0,0.0,0.0,0,0,0,--.--,--.--,--.--
2020-08-02 15:31:31.306,-1.3,-0.9,98,-1.9,-0.0,-0.5,0.1,-0.8,1.3,0.7,50.7,0.0,00:00:04,0.1,308,--.--,--.--,89,0000:51:33,12.10,98,0,-1.00,--.--,-12.10,--.--,0,--.--,--.--,--.--,--.--,--.--,--.--,--.--,0,15:31:31,2020-08-02,--.--,--.--,--.--,--.--,--.--,--.--,--.--,0.00,--.--,--.--,true,true,true,true,true,true,false,false,true,true,false,false,0.01,0.00,0.01,0.01,0.00,0.00,0.41,0.20,43.9451548,-78.8968509,17TPJ 68774 67931,0.0,0.0,175.3,3,10,--.--,--.--,--.--,0.0,0.0,0.0,0,0,0,--.--,--.--,--.--
2020-08-02 15:31:32.312,-2.0,-1.1,98,-0.3,-0.2,-0.7,0.0,1.4,1.3,1.7,51.8,0.0,00:00:05,0.1,308,--.--,--.--,83,0000:51:33,12.07,96,0,-1.00,--.--,-12.07,--.--,0,--.--,--.--,--.--,--.--,--.--,--.--,--.--,0,15:31:32,2020-08-02,--.--,--.--,--.--,--.--,--.--,--.--,--.--,0.00,--.--,--.--,true,true,true,true,true,true,false,false,true,true,false,false,0.01,0.00,0.01,0.01,0.00,0.00,0.41,0.20,43.9451542,-78.8968511,17TPJ 68774 67931,0.0,0.0,237.4,3,10,--.--,--.--,--.--,0.0,0.0,0.0,0,0,0,--.--,--.--,--.--
2020-08-02 15:31:33.304,-1.8,-1.3,98,0.4,-0.5,-0.6,0.1,-2.6,1.2,2.6,52.7,0.0,00:00:06,0.1,308,--.--,--.--,83,0000:51:33,12.07,96,0,-1.00,--.--,-12.07,--.--,0,--.--,--.--,--.--,--.--,--.--,--.--,--.--,0,15:31:33,2020-08-02,--.--,--.--,--.--,--.--,--.--,--.--,--.--,0.00,--.--,--.--,true,true,true,true,true,true,false,false,true,true,false,false,0.01,0.00,0.01,0.01,0.00,0.00,0.41,0.20,43.9451542,-78.8968511,17TPJ 68774 67931,0.0,0.0,237.4,3,10,--.--,--.--,--.--,0.0,0.0,0.0,0,0,0,--.--,--.--,--.--
2020-08-02 15:31:34.305,-1.2,-1.3,97,0.5,0.2,-0.6,0.1,0.8,1.1,3.5,53.6,0.0,00:00:07,0.0,308,--.--,--.--,83,0000:51:33,12.05,94,0,-1.00,--.--,-12.05,--.--,0,--.--,--.--,--.--,--.--,--.--,--.--,--.--,0,15:31:34,2020-08-02,--.--,--.--,--.--,--.--,--.--,--.--,--.--,0.00,--.--,--.--,true,true,true,true,true,true,false,false,true,true,false,false,0.02,0.00,0.00,0.00,0.00,0.00,0.43,0.21,43.9451546,-78.8968511,17TPJ 68774 67931,0.0,0.0,1.8,3,10,--.--,--.--,--.--,0.0,0.0,0.0,0,0,0,--.--,--.--,--.--
2020-08-02 15:31:35.305,-0.9,-1.3,97,-0.2,0.0,-0.2,0.0,-2.5,1.0,4.3,54.3,0.0,00:00:08,0.0,308,--.--,--.--,83,0000:51:33,12.02,93,0,-1.00,--.--,-12.02,--.--,0,--.--,--.--,--.--,--.--,--.--,--.--,--.--,0,15:31:35,2020-08-02,--.--,--.--,--.--,--.--,--.--,--.--,--.--,0.00,--.--,--.--,true,true,true,true,true,true,false,false,true,true,false,false,0.02,0.00,0.00,0.00,0.00,0.00,0.43,0.21,43.9451553,-78.8968509,17TPJ 68774 67931,0.0,0.0,0.9,3,10,--.--,--.--,--.--,0.0,0.0,0.0,0,0,0,--.--,--.--,--.--
2020-08-02 15:31:36.304,-0.8,-1.1,97,0.2,0.4,0.0,0.0,-3.6,1.0,5.0,55.0,0.0,00:00:09,0.1,308,--.--,--.--,83,0000:51:33,12.02,93,0,-1.00,--.--,-12.02,--.--,0,--.--,--.--,--.--,--.--,--.--,--.--,--.--,0,15:31:36,2020-08-02,--.--,--.--,--.--,--.--,--.--,--.--,--.--,0.00,--.--,--.--,true,true,true,true,true,true,false,false,true,true,false,false,0.01,0.00,0.00,0.00,0.00,0.00,0.43,0.20,43.9451553,-78.8968509,17TPJ 68774 67931,0.0,0.0,0.9,3,10,--.--,--.--,--.--,0.0,0.0,0.0,0,0,0,--.--,--.--,--.--
2020-08-02 15:31:37.304,-0.8,-1.1,97,-0.1,-0.1,-0.2,0.0,-1.8,1.0,5.5,55.6,0.0,00:00:10,0.1,308,--.--,--.--,83,0000:51:33,11.99,91,0,-1.00,--.--,-11.99,--.--,0,--.--,--.--,--.--,--.--,--.--,--.--,--.--,0,15:31:37,2020-08-02,--.--,--.--,--.--,--.--,--.--,--.--,--.--,0.00,--.--,--.--,true,true,true,true,true,true,false,false,true,true,false,false,0.01,0.00,0.00,0.00,0.00,0.00,0.43,0.20,43.9451557,-78.8968505,17TPJ 68774 67931,0.0,0.0,113.7,3,10,--.--,--.--,--.--,0.0,0.0,0.0,0,0,0,--.--,--.--,--.--
2020-08-02 15:31:38.304,-0.9,-1.0,97,-0.0,0.2,-0.3,0.0,-3.9,1.0,6.2,56.2,0.0,00:00:11,0.1,308,--.--,--.--,83,0000:51:33,11.99,91,0,-1.00,--.--,-11.99,--.--,0,--.--,--.--,--.--,--.--,--.--,--.--,--.--,0,15:31:38,2020-08-02,--.--,--.--,--.--,--.--,--.--,--.--,--.--,0.00,--.--,--.--,true,true,true,true,true,true,false,false,true,true,false,false,0.01,0.00,0.00,0.00,0.00,0.00,0.43,0.20,43.9451557,-78.8968505,17TPJ 68774 67931,0.0,0.0,113.7,3,10,--.--,--.--,--.--,0.0,0.0,0.0,0,0,0,--.--,--.--,--.--
2020-08-02 15:31:39.305,-0.9,-0.9,97,-0.1,0.1,-0.0,0.0,-0.9,1.0,6.8,56.8,0.0,00:00:12,0.0,308,--.--,--.--,83,0000:51:33,11.97,89,0,-1.00,--.--,-11.97,--.--,0,--.--,--.--,--.--,--.--,--.--,--.--,--.--,0,15:31:39,2020-08-02,--.--,--.--,--.--,--.--,--.--,--.--,--.--,0.00,--.--,--.--,true,true,true,true,true,true,false,false,true,true,false,false,0.01,0.00,0.00,0.00,0.00,0.00,0.43,0.20,43.9451555,-78.8968503,17TPJ 68774 67931,0.0,0.0,182.7,3,10,--.--,--.--,--.--,0.0,0.0,0.0,0,0,0,--.--,--.--,--.--
2020-08-02 15:31:40.305,-1.1,-1.0,97,0.1,0.1,0.1,0.0,1.5,1.0,7.5,57.5,0.0,00:00:13,0.0,308,--.--,--.--,83,0000:51:33,11.94,88,0,-1.00,--.--,-11.94,--.--,0,--.--,--.--,--.--,--.--,--.--,--.--,--.--,0,15:31:40,2020-08-02,--.--,--.--,--.--,--.--,--.--,--.--,--.--,0.00,--.--,--.--,true,true,true,true,true,true,false,false,true,true,false,false,0.02,0.00,0.01,0.02,0.00,0.00,0.43,0.20,43.9451551,-78.8968503,17TPJ 68774 67931,0.0,0.0,211.8,3,10,--.--,--.--,--.--,0.0,0.0,0.0,0,0,0,--.--,--.--,--.--
2020-08-02 15:31:41.304,-1.2,-1.0,97,0.0,0.1,0.0,0.0,1.1,1.0,8.2,58.3,0.0,00:00:14,0.0,308,--.--,--.--,83,0000:51:33,11.94,88,0,-1.00,--.--,-11.94,--.--,0,--.--,--.--,--.--,--.--,--.--,--.--,--.--,0,15:31:41,2020-08-02,--.--,--.--,--.--,--.--,--.--,--.--,--.--,0.00,--.--,--.--,true,true,true,true,true,true,false,false,true,true,false,false,0.02,0.00,0.01,0.02,0.00,0.00,0.43,0.20,43.9451551,-78.8968503,17TPJ 68774 67931,0.0,0.0,211.8,3,10,--.--,--.--,--.--,0.0,0.0,0.0,0,0,0,--.--,--.--,--.--
2020-08-02 15:31:42.304,-1.2,-1.2,96,-0.5,-0.1,-0.2,0.0,4.0,1.0,9.0,59.1,0.0,00:00:15,0.0,308,--.--,--.--,83,0000:51:33,11.91,86,0,-1.00,--.--,-11.91,--.--,0,--.--,--.--,--.--,--.--,--.--,--.--,--.--,0,15:31:42,2020-08-02,--.--,--.--,--.--,--.--,--.--,--.--,--.--,0.00,--.--,--.--,true,true,true,true,true,true,false,false,true,true,false,false,0.02,0.00,0.01,0.02,0.00,0.00,0.43,0.20,43.9451548,-78.8968506,17TPJ 68774 67931,0.0,0.0,200.1,3,10,--.--,--.--,--.--,0.0,0.0,0.0,0,0,0,--.--,--.--,--.--
2020-08-02 15:31:43.305,-1.3,-1.3,96,0.1,0.4,-0.5,0.0,2.7,1.0,9.7,59.8,0.0,00:00:16,0.0,308,--.--,--.--,83,0000:51:33,11.88,84,0,-1.00,--.--,-11.88,--.--,0,--.--,--.--,--.--,--.--,--.--,--.--,--.--,0,15:31:43,2020-08-02,--.--,--.--,--.--,--.--,--.--,--.--,--.--,0.00,--.--,--.--,true,true,true,true,true,true,false,false,true,true,false,false,0.03,0.00,0.02,0.01,0.00,0.00,0.45,0.21,43.9451546,-78.8968509,17TPJ 68774 67931,0.0,0.0,240.1,3,10,--.--,--.--,--.--,0.0,0.0,0.0,0,0,0,--.--,--.--,--.--
2020-08-02 15:31:44.305,-1.1,-1.2,96,0.6,0.6,-0.0,0.0,2.6,1.2,10.5,60.5,0.0,00:00:17,0.0,308,--.--,--.--,91,0000:51:33,11.86,83,0,-1.00,--.--,-11.86,--.--,0,--.--,--.--,--.--,--.--,--.--,--.--,--.--,0,15:31:44,2020-08-02,--.--,--.--,--.--,--.--,--.--,--.--,--.--,0.00,--.--,--.--,true,true,true,true,true,true,false,false,true,true,false,false,0.03,0.00,0.02,0.01,0.00,0.00,0.45,0.21,43.9451547,-78.8968510,17TPJ 68774 67931,0.0,0.0,327.7,3,10,--.--,--.--,--.--,0.0,0.0,0.0,0,0,0,--.--,--.--,--.--
2020-08-02 15:31:45.304,-1.0,-1.2,96,-1.2,-1.4,-0.2,0.1,-1.5,2.9,12.4,62.5,0.0,00:00:18,0.0,308,--.--,--.--,89,0000:51:33,11.86,83,0,-1.00,--.--,-11.86,--.--,0,--.--,--.--,--.--,--.--,--.--,--.--,--.--,0,15:31:45,2020-08-02,--.--,--.--,--.--,--.--,--.--,--.--,--.--,0.00,--.--,--.--,true,true,true,true,true,true,false,false,true,true,false,false,0.07,0.00,0.01,0.00,0.00,0.00,0.44,0.21,43.9451547,-78.8968510,17TPJ 68774 67931,0.0,0.0,327.7,3,10,--.--,--.--,--.--,0.0,0.0,0.0,0,0,0,--.--,--.--,--.--
2020-08-02 15:31:46.304,-1.4,-1.5,96,0.3,-0.1,-0.3,0.0,-3.4,2.9,14.5,64.6,0.0,00:00:19,0.1,308,--.--,--.--,89,0000:51:33,11.83,81,0,-1.00,--.--,-11.83,--.--,0,--.--,--.--,--.--,--.--,--.--,--.--,--.--,0,15:31:46,2020-08-02,--.--,--.--,--.--,--.--,--.--,--.--,--.--,0.00,--.--,--.--,true,true,true,true,true,true,false,false,true,true,false,false,0.07,0.00,0.01,0.00,0.00,0.00,0.44,0.21,43.9451545,-78.8968512,17TPJ 68774 67931,0.0,0.0,223.4,3,10,--.--,--.--,--.--,0.0,0.0,0.0,0,0,0,--.--,--.--,--.--
2020-08-02 15:31:47.304,-1.4,-1.4,96,0.0,-0.0,-0.3,0.0,-1.8,2.9,16.7,66.8,0.0,00:00:20,0.1,308,--.--,--.--,90,0000:51:33,11.80,79,0,-1.00,--.--,-11.80,--.--,0,--.--,--.--,--.--,--.--,--.--,--.--,--.--,0,15:31:47,2020-08-02,--.--,--.--,--.--,--.--,--.--,--.--,--.--,0.00,--.--,--.--,true,true,true,true,true,true,false,false,true,true,false,false,0.07,0.00,0.01,0.00,0.00,0.00,0.44,0.21,43.9451542,-78.8968514,17TPJ 68774 67931,0.0,0.0,28.9,3,10,--.--,--.--,--.--,0.0,0.0,0.0,0,0,0,--.--,--.--,--.--
2020-08-02 15:31:48.304,-1.2,-1.4,96,0.2,-0.0,-0.2,0.1,-3.5,2.9,18.3,68.4,0.0,00:00:21,0.0,308,--.--,--.--,90,0000:51:33,11.80,79,0,-1.00,--.--,-11.80,--.--,0,--.--,--.--,--.--,--.--,--.--,--.--,--.--,0,15:31:48,2020-08-02,--.--,--.--,--.--,--.--,--.--,--.--,--.--,0.00,--.--,--.--,true,true,true,true,true,true,false,false,true,true,false,false,0.01,0.01,0.00,0.01,0.00,0.00,0.43,0.21,43.9451542,-78.8968514,17TPJ 68774 67931,0.0,0.0,28.9,3,10,--.--,--.--,--.--,0.0,0.0,0.0,0,0,0,--.--,--.--,--.--
2020-08-02 15:31:49.305,-1.1,-1.4,96,-0.2,0.3,-0.1,0.0,-2.6,2.9,20.2,70.3,0.0,00:00:22,0.0,308,--.--,--.--,90,0000:51:33,11.77,78,0,-1.00,--.--,-11.77,--.--,0,--.--,--.--,--.--,--.--,--.--,--.--,--.--,0,15:31:49,2020-08-02,--.--,--.--,--.--,--.--,--.--,--.--,--.--,0.00,--.--,--.--,true,true,true,true,true,true,false,false,true,true,false,false,0.01,0.01,0.00,0.01,0.00,0.00,0.43,0.21,43.9451544,-78.8968510,17TPJ 68774 67931,0.0,0.0,21.6,3,10,--.--,--.--,--.--,0.0,0.0,0.0,0,0,0,--.--,--.--,--.--
2020-08-02 15:31:50.306,-1.1,-1.2,95,0.2,0.1,-0.4,0.0,-1.4,2.9,22.5,72.6,0.0,00:00:23,0.0,308,--.--,--.--,90,0000:51:33,11.75,76,0,-1.00,--.--,-11.75,--.--,0,--.--,--.--,--.--,--.--,--.--,--.--,--.--,0,15:31:50,2020-08-02,--.--,--.--,--.--,--.--,--.--,--.--,--.--,0.00,--.--,--.--,true,true,true,true,true,true,false,false,true,true,false,false,0.01,0.01,0.00,0.01,0.00,0.00,0.43,0.21,43.9451546,-78.8968504,17TPJ 68774 67931,0.0,0.0,37.0,3,10,--.--,--.--,--.--,0.0,0.0,0.0,0,0,0,--.--,--.--,--.--
2020-08-02 15:31:51.304,-1.1,-1.2,95,0.1,0.2,-0.2,0.0,1.5,2.9,25.2,75.3,0.0,00:00:24,0.1,308,--.--,--.--,90,0000:51:33,11.72,74,0,-1.00,--.--,-11.72,--.--,0,--.--,--.--,--.--,--.--,--.--,--.--,--.--,0,15:31:51,2020-08-02,--.--,--.--,--.--,--.--,--.--,--.--,--.--,0.00,--.--,--.--,true,true,true,true,true,true,false,false,true,true,false,false,0.03,0.01,0.00,0.02,0.00,0.00,0.42,0.21,43.9451548,-78.8968499,17TPJ 68774 67931,0.0,0.0,53.0,3,10,--.--,--.--,--.--,0.0,0.0,0.0,0,0,0,--.--,--.--,--.--
2020-08-02 15:31:52.305,-1.2,-1.1,95,-0.1,0.5,-0.3,0.0,3.9,2.9,27.6,77.6,0.0,00:00:25,0.1,308,--.--,--.--,90,0000:51:33,11.69,73,0,-1.00,--.--,-11.69,--.--,0,--.--,--.--,--.--,--.--,--.--,--.--,--.--,0,15:31:52,2020-08-02,--.--,--.--,--.--,--.--,--.--,--.--,--.--,0.00,--.--,--.--,true,true,true,true,true,true,false,false,true,true,false,false,0.03,0.01,0.00,0.02,0.00,0.00,0.42,0.21,43.9451549,-78.8968496,17TPJ 68774 67931,0.0,0.0,64.6,3,10,--.--,--.--,--.--,0.0,0.0,0.0,0,0,0,--.--,--.--,--.--
2020-08-02 15:31:53.304,-1.3,-1.1,95,-0.2,0.3,-0.3,0.1,-3.0,2.9,29.6,79.7,0.0,00:00:26,0.1,308,--.--,--.--,90,0000:51:33,11.69,73,0,-1.00,--.--,-11.69,--.--,0,--.--,--.--,--.--,--.--,--.--,--.--,--.--,0,15:31:53,2020-08-02,--.--,--.--,--.--,--.--,--.--,--.--,--.--,0.00,--.--,--.--,true,true,true,true,true,true,false,false,true,true,false,false,0.03,0.01,0.00,0.02,0.00,0.00,0.42,0.21,43.9451549,-78.8968496,17TPJ 68774 67931,0.0,0.0,64.6,3,10,--.--,--.--,--.--,0.0,0.0,0.0,0,0,0,--.--,--.--,--.--
2020-08-02 15:31:54.307,-1.2,-1.1,95,0.3,0.2,-0.3,0.1,2.1,2.9,31.5,81.5,0.0,00:00:27,0.1,308,--.--,--.--,89,0000:51:33,11.66,71,0,-1.00,--.--,-11.66,--.--,0,--.--,--.--,--.--,--.--,--.--,--.--,--.--,0,15:31:54,2020-08-02,--.--,--.--,--.--,--.--,--.--,--.--,--.--,0.00,--.--,--.--,true,true,true,true,true,true,false,false,true,true,false,false,0.04,0.01,0.00,0.02,0.00,0.00,0.42,0.21,43.9451551,-78.8968495,17TPJ 68774 67931,0.0,0.0,10.0,3,10,--.--,--.--,--.--,0.0,0.0,0.0,0,0,0,--.--,--.--,--.--
2020-08-02 15:31:55.305,-1.2,-1.1,95,0.1,-0.1,-0.2,0.1,-0.5,2.8,33.2,83.3,0.0,00:00:28,0.1,308,--.--,--.--,89,0000:51:33,11.64,69,0,-1.00,--.--,-11.64,--.--,0,--.--,--.--,--.--,--.--,--.--,--.--,--.--,0,15:31:55,2020-08-02,--.--,--.--,--.--,--.--,--.--,--.--,--.--,0.00,--.--,--.--,true,true,true,true,true,true,false,false,true,true,false,false,0.04,0.01,0.00,0.02,0.00,0.00,0.42,0.21,43.9451553,-78.8968496,17TPJ 68774 67931,0.0,0.0,357.8,3,10,--.--,--.--,--.--,0.0,0.0,0.0,0,0,0,--.--,--.--,--.--
2020-08-02 15:31:56.305,-1.2,-1.1,95,-0.3,0.1,-0.6,0.1,-2.0,2.8,35.0,85.1,0.0,00:00:29,0.1,308,--.--,--.--,89,0000:51:33,11.64,69,0,-1.00,--.--,-11.64,--.--,0,--.--,--.--,--.--,--.--,--.--,--.--,--.--,0,15:31:56,2020-08-02,--.--,--.--,--.--,--.--,--.--,--.--,--.--,0.00,--.--,--.--,true,true,true,true,true,true,false,false,true,true,false,false,0.04,0.01,0.00,0.02,0.00,0.00,0.42,0.21,43.9451553,-78.8968496,17TPJ 68774 67931,0.0,0.0,357.8,3,10,--.--,--.--,--.--,0.0,0.0,0.0,0,0,0,--.--,--.--,--.--
2020-08-02 15:31:57.310,-1.1,-1.1,95,0.3,0.0,-0.1,0.0,3.3,2.9,37.3,87.4,0.0,00:00:30,0.1,308,--.--,--.--,90,0000:51:33,11.61,68,0,-1.00,--.--,-11.61,--.--,0,--.--,--.--,--.--,--.--,--.--,--.--,--.--,0,15:31:57,2020-08-02,--.--,--.--,--.--,--.--,--.--,--.--,--.--,0.00,--.--,--.--,true,true,true,true,true,true,false,false,true,true,false,false,0.01,0.01,0.01,0.00,0.00,0.00,0.44,0.21,43.9451556,-78.8968499,17TPJ 68774 67931,0.0,0.0,324.2,3,10,--.--,--.--,--.--,0.0,0.0,0.0,0,0,0,--.--,--.--,--.--
2020-08-02 15:31:58.304,-1.0,-1.1,95,0.1,0.3,-0.2,0.0,-3.0,2.9,39.0,89.0,0.0,00:00:31,0.1,308,--.--,--.--,90,0000:51:33,11.61,68,0,-1.00,--.--,-11.61,--.--,0,--.--,--.--,--.--,--.--,--.--,--.--,--.--,0,15:31:58,2020-08-02,--.--,--.--,--.--,--.--,--.--,--.--,--.--,0.00,--.--,--.--,true,true,true,true,true,true,false,false,true,true,false,false,0.01,0.01,0.01,0.00,0.00,0.00,0.44,0.21,43.9451556,-78.8968499,17TPJ 68774 67931,0.0,0.0,324.2,3,10,--.--,--.--,--.--,0.0,0.0,0.0,0,0,0,--.--,--.--,--.--
2020-08-02 15:31:59.304,-0.8,-1.3,95,0.3,-0.7,0.0,0.0,2.2,2.7,41.4,91.5,0.0,00:00:32,0.1,308,--.--,--.--,86,0000:51:33,11.58,66,0,-1.00,--.--,-11.58,--.--,0,--.--,--.--,--.--,--.--,--.--,--.--,--.--,0,15:31:59,2020-08-02,--.--,--.--,--.--,--.--,--.--,--.--,--.--,0.00,--.--,--.--,true,true,true,true,true,true,false,false,true,true,false,false,0.02,0.01,0.01,0.03,0.00,0.00,0.44,0.21,43.9451558,-78.8968501,17TPJ 68774 67931,0.0,0.0,283.2,3,10,--.--,--.--,--.--,0.0,0.0,0.0,0,0,0,--.--,--.--,--.--
2020-08-02 15:32:00.304,-0.9,-1.4,95,-0.5,-0.3,-0.1,0.1,2.1,2.1,43.1,93.2,0.0,00:00:33,0.1,308,--.--,--.--,84,0000:51:33,11.55,64,0,-1.00,--.--,-11.55,--.--,0,--.--,--.--,--.--,--.--,--.--,--.--,--.--,0,15:32:00,2020-08-02,--.--,--.--,--.--,--.--,--.--,--.--,--.--,0.00,--.--,--.--,true,true,true,true,true,true,false,false,true,true,false,false,0.02,0.01,0.01,0.03,0.00,0.00,0.44,0.21,43.9451560,-78.8968504,17TPJ 68774 67931,0.0,0.0,288.1,3,10,--.--,--.--,--.--,0.0,0.0,0.0,0,0,0,--.--,--.--,--.--
2020-08-02 15:32:01.304,-1.0,-1.4,95,0.3,-0.2,0.2,0.0,-2.3,1.6,44.6,94.7,0.0,00:00:34,0.1,308,--.--,--.--,83,0000:51:33,11.53,63,0,-1.00,--.--,-11.53,--.--,0,--.--,--.--,--.--,--.--,--.--,--.--,--.--,0,15:32:01,2020-08-02,--.--,--.--,--.--,--.--,--.--,--.--,--.--,0.00,--.--,--.--,true,true,true,true,true,true,false,false,true,true,false,false,0.02,0.01,0.01,0.03,0.00,0.00,0.44,0.21,43.9451559,-78.8968504,17TPJ 68774 67931,0.0,0.0,170.9,3,10,--.--,--.--,--.--,0.0,0.0,0.0,0,0,0,--.--,--.--,--.--
2020-08-02 15:32:02.305,-1.1,-1.4,95,0.3,0.0,-0.1,0.0,2.3,1.3,45.9,96.0,0.0,00:00:35,0.1,308,--.--,--.--,83,0000:51:33,11.50,61,0,-1.00,--.--,-11.50,--.--,0,--.--,--.--,--.--,--.--,--.--,--.--,--.--,0,15:32:02,2020-08-02,--.--,--.--,--.--,--.--,--.--,--.--,--.--,0.00,--.--,--.--,true,true,true,true,true,true,false,false,true,true,false,false,0.01,0.01,0.00,0.03,0.00,0.00,0.43,0.21,43.9451559,-78.8968503,17TPJ 68774 67931,0.0,0.0,46.0,3,10,--.--,--.--,--.--,0.0,0.0,0.0,0,0,0,--.--,--.--,--.--
2020-08-02 15:32:03.304,-1.1,-1.4,95,-0.1,0.0,-0.0,0.0,1.5,1.0,46.6,96.7,0.0,00:00:36,0.1,308,--.--,--.--,82,0000:51:33,11.50,61,0,-1.00,--.--,-11.50,--.--,0,--.--,--.--,--.--,--.--,--.--,--.--,--.--,0,15:32:03,2020-08-02,--.--,--.--,--.--,--.--,--.--,--.--,--.--,0.00,--.--,--.--,true,true,true,true,true,true,false,false,true,true,false,false,0.01,0.01,0.00,0.03,0.00,0.00,0.43,0.21,43.9451559,-78.8968503,17TPJ 68774 67931,0.0,0.0,46.0,3,10,--.--,--.--,--.--,0.0,0.0,0.0,0,0,0,--.--,--.--,--.--
2020-08-02 15:32:04.305,-1.1,-1.3,95,0.1,0.1,-0.1,0.0,-3.2,0.8,47.4,97.5,0.0,00:00:37,0.1,308,--.--,--.--,82,0000:51:33,11.47,59,0,-1.00,--.--,-11.47,--.--,0,--.--,--.--,--.--,--.--,--.--,--.--,--.--,0,15:32:04,2020-08-02,--.--,--.--,--.--,--.--,--.--,--.--,--.--,0.00,--.--,--.--,true,true,true,true,true,true,false,false,true,true,false,false,0.01,0.01,0.00,0.03,0.00,0.00,0.43,0.21,43.9451560,-78.8968500,17TPJ 68774 67931,0.0,0.0,23.3,3,10,--.--,--.--,--.--,0.0,0.0,0.0,0,0,0,--.--,--.--,--.--
2020-08-02 15:32:05.307,-0.9,-1.2,95,0.1,-0.1,0.1,0.1,1.2,0.6,48.0,98.1,0.0,00:00:38,0.1,308,--.--,--.--,82,0000:51:33,11.44,58,0,-1.00,--.--,-11.44,--.--,0,--.--,--.--,--.--,--.--,--.--,--.--,--.--,0,15:32:05,2020-08-02,--.--,--.--,--.--,--.--,--.--,--.--,--.--,0.00,--.--,--.--,true,true,true,true,true,true,false,false,true,true,false,false,0.02,0.01,0.00,0.00,0.00,0.00,0.42,0.21,43.9451562,-78.8968498,17TPJ 68774 67931,0.0,0.0,36.6,3,10,--.--,--.--,--.--,0.0,0.0,0.0,0,0,0,--.--,--.--,--.--
2020-08-02 15:32:06.305,-0.8,-1.2,95,0.3,-0.1,-0.1,0.1,-0.9,0.5,48.4,98.5,0.0,00:00:39,0.1,308,--.--,--.--,82,0000:51:33,11.42,56,0,-1.00,--.--,-11.42,--.--,0,--.--,--.--,--.--,--.--,--.--,--.--,--.--,0,15:32:06,2020-08-02,--.--,--.--,--.--,--.--,--.--,--.--,--.--,0.00,--.--,--.--,true,true,true,true,true,true,false,false,true,true,false,false,0.02,0.01,0.00,0.00,0.00,0.00,0.42,0.21,43.9451563,-78.8968498,17TPJ 68774 67931,0.0,0.0,268.6,3,10,--.--,--.--,--.--,0.0,0.0,0.0,0,0,0,--.--,--.--,--.--
2020-08-02 15:32:07.304,-0.8,-1.2,95,-0.2,0.3,-0.1,0.1,2.2,0.4,48.6,98.7,0.0,00:00:40,0.1,308,--.--,--.--,82,0000:51:33,11.42,56,0,-1.00,--.--,-11.42,--.--,0,--.--,--.--,--.--,--.--,--.--,--.--,--.--,0,15:32:07,2020-08-02,--.--,--.--,--.--,--.--,--.--,--.--,--.--,0.00,--.--,--.--,true,true,true,true,true,true,false,false,true,true,false,false,0.03,0.01,0.00,0.02,0.00,0.00,0.42,0.20,43.9451563,-78.8968498,17TPJ 68774 67931,0.0,0.0,268.6,3,10,--.--,--.--,--.--,0.0,0.0,0.0,0,0,0,--.--,--.--,--.--
2020-08-02 15:32:08.305,-0.9,-1.2,95,-0.2,-0.1,0.1,0.1,-1.6,0.3,48.8,98.9,0.0,00:00:41,0.1,308,--.--,--.--,82,0000:51:33,11.39,54,0,-1.00,--.--,-11.39,--.--,0,--.--,--.--,--.--,--.--,--.--,--.--,--.--,0,15:32:08,2020-08-02,--.--,--.--,--.--,--.--,--.--,--.--,--.--,0.00,--.--,--.--,true,true,true,true,true,true,false,false,true,true,false,false,0.03,0.01,0.00,0.02,0.00,0.00,0.42,0.20,43.9451563,-78.8968501,17TPJ 68774 67931,0.0,0.0,231.7,3,10,--.--,--.--,--.--,0.0,0.0,0.0,0,0,0,--.--,--.--,--.--
2020-08-02 15:32:09.304,-0.9,-1.2,95,-0.2,-0.0,0.0,0.1,2.1,0.3,49.1,99.1,0.0,00:00:42,0.1,308,--.--,--.--,82,0000:51:33,11.39,54,0,-1.00,--.--,-11.39,--.--,0,--.--,--.--,--.--,--.--,--.--,--.--,--.--,0,15:32:09,2020-08-02,--.--,--.--,--.--,--.--,--.--,--.--,--.--,0.00,--.--,--.--,true,true,true,true,true,true,false,false,true,true,false,false,0.03,0.01,0.00,0.02,0.00,0.00,0.42,0.20,43.9451563,-78.8968501,17TPJ 68774 67931,0.0,0.0,231.7,3,10,--.--,--.--,--.--,0.0,0.0,0.0,0,0,0,--.--,--.--,--.--
2020-08-02 15:32:10.305,-1.0,-1.3,95,0.2,-0.1,0.3,0.0,-3.4,0.2,49.2,99.3,0.0,00:00:43,0.0,308,--.--,--.--,81,0000:51:33,11.36,53,0,-1.00,--.--,-11.36,--.--,0,--.--,--.--,--.--,--.--,--.--,--.--,--.--,0,15:32:10,2020-08-02,--.--,--.--,--.--,--.--,--.--,--.--,--.--,0.00,--.--,--.--,true,true,true,true,true,true,false,false,true,true,false,false,0.03,0.01,0.00,0.02,0.00,0.00,0.42,0.20,43.9451560,-78.8968505,17TPJ 68774 67931,0.0,0.0,253.3,3,10,--.--,--.--,--.--,0.0,0.0,0.0,0,0,0,--.--,--.--,--.--
2020-08-02 15:32:11.304,-9.7,11.1,93,-21.2,39.0,-3.0,0.2,-2.4,0.2,49.4,99.5,0.0,00:00:44,0.1,308,--.--,--.--,83,0000:51:33,11.34,51,0,-1.00,--.--,-11.34,--.--,0,--.--,--.--,--.--,--.--,--.--,--.--,--.--,0,15:32:11,2020-08-02,--.--,--.--,--.--,--.--,--.--,--.--,--.--,0.00,--.--,--.--,true,true,true,true,true,true,false,false,true,true,false,false,0.02,0.01,0.01,0.01,0.00,0.00,0.44,0.21,43.9451558,-78.8968510,17TPJ 68774 67931,0.0,0.0,228.0,3,10,--.--,--.--,--.--,0.0,0.0,0.0,0,0,0,--.--,--.--,--.--
2020-08-02 15:32:12.304,-21.9,22.3,83,-1.5,-6.1,-15.2,2.5,2.8,0.1,49.6,99.6,0.0,00:00:45,1.4,308,126,--.--,92,0000:51:33,11.33,51,0,-1.00,--.--,-11.33,--.--,0,--.--,--.--,--.--,--.--,--.--,--.--,--.--,0,15:32:12,2020-08-02,--.--,--.--,--.--,--.--,--.--,--.--,--.--,0.00,--.--,--.--,true,true,true,true,true,true,false,false,true,true,false,false,0.02,0.01,0.01,0.01,0.00,0.00,0.44,0.21,43.9451579,-78.8968564,17TPJ 68774 67931,0.0,0.0,297.1,3,10,--.--,--.--,--.--,0.0,0.0,0.0,0,0,0,--.--,--.--,--.--
2020-08-02 15:32:13.304,-18.7,9.0,76,56.1,-29.8,-18.3,3.9,1.4,-0.1,49.6,99.6,2.1,00:00:46,3.4,308,122,--.--,97,0000:51:33,11.33,51,0,-1.00,--.--,-11.33,--.--,0,--.--,--.--,--.--,--.--,--.--,--.--,--.--,0,15:32:13,2020-08-02,--.--,--.--,--.--,--.--,--.--,--.--,--.--,0.00,--.--,--.--,true,true,true,true,true,true,false,false,true,true,false,false,0.02,0.01,0.01,0.01,0.00,0.00,0.44,0.21,43.9451579,-78.8968564,17TPJ 68774 67931,0.0,0.0,297.1,3,10,--.--,--.--,--.--,0.0,0.0,0.0,0,0,0,--.--,--.--,--.--
2020-08-02 15:32:14.304,-0.7,0.0,74,10.3,3.7,-2.7,2.3,3.9,0.2,49.2,99.3,6.2,00:00:47,6.2,308,120,--.--,92,0000:51:33,11.33,51,0,-1.00,--.--,-11.33,--.--,0,--.--,--.--,--.--,--.--,--.--,--.--,--.--,0,15:32:14,2020-08-02,--.--,--.--,--.--,--.--,--.--,--.--,--.--,0.00,--.--,--.--,true,true,true,true,true,true,false,false,true,true,false,false,0.15,0.02,0.01,0.01,0.00,0.00,0.43,0.21,43.9451716,-78.8968953,17TPJ 68771 67933,0.0,0.0,294.8,3,10,--.--,--.--,--.--,0.0,0.0,0.0,0,0,0,--.--,--.--,--.--
2020-08-02 15:32:15.304,1.2,0.7,73,2.4,0.2,-2.2,1.6,1.4,0.2,49.3,99.3,6.2,00:00:48,6.9,308,120,--.--,86,0000:51:33,11.33,51,0,-1.00,--.--,-11.33,--.--,0,--.--,--.--,--.--,--.--,--.--,--.--,--.--,0,15:32:15,2020-08-02,--.--,--.--,--.--,--.--,--.--,--.--,--.--,0.00,--.--,--.--,true,true,true,true,true,true,false,false,true,true,false,false,0.15,0.02,0.01,0.01,0.00,0.00,0.43,0.21,43.9451716,-78.8968953,17TPJ 68771 67933,0.0,0.0,294.8,3,10,--.--,--.--,--.--,0.0,0.0,0.0,0,0,0,--.--,--.--,--.--
2020-08-02 15:32:16.304,1.2,2.0,72,-0.2,1.9,-1.4,2.5,-1.8,0.1,49.4,99.5,6.2,00:00:49,7.1,308,126,--.--,83,0000:51:33,11.33,51,0,-1.00,--.--,-11.33,--.--,0,--.--,--.--,--.--,--.--,--.--,--.--,--.--,0,15:32:16,2020-08-02,--.--,--.--,--.--,--.--,--.--,--.--,--.--,0.00,--.--,--.--,true,true,true,true,true,true,false,false,true,true,false,false,0.15,0.02,0.01,0.01,0.00,0.00,0.43,0.21,43.9451861,-78.8969291,17TPJ 68768 67934,0.0,0.0,317.3,3,10,--.--,--.--,--.--,0.0,0.0,0.0,0,0,0,--.--,--.--,--.--
2020-08-02 15:32:17.305,0.9,3.1,70,-0.4,0.6,-1.1,5.6,4.8,0.1,49.5,99.6,8.2,00:00:50,6.3,308,151,--.--,79,0000:51:33,11.32,51,0,-1.00,--.--,-11.32,--.--,0,--.--,--.--,--.--,--.--,--.--,--.--,--.--,0,15:32:17,2020-08-02,--.--,--.--,--.--,--.--,--.--,--.--,--.--,0.00,--.--,--.--,true,true,true,true,true,true,false,false,true,true,false,false,0.24,0.05,0.00,0.00,0.00,0.00,0.43,0.21,43.9451979,-78.8969225,17TPJ 68768 67936,0.0,0.0,52.4,3,10,--.--,--.--,--.--,0.0,0.0,0.0,0,0,0,--.--,--.--,--.--
2020-08-02 15:32:18.304,0.6,1.3,69,-0.5,-7.9,0.5,10.5,10.8,-0.1,49.7,99.8,14.4,00:00:51,8.4,308,195,--.--,74,0000:51:33,11.32,51,0,-1.00,--.--,-11.32,--.--,0,--.--,--.--,--.--,--.--,--.--,--.--,--.--,0,15:32:18,2020-08-02,--.--,--.--,--.--,--.--,--.--,--.--,--.--,0.00,--.--,--.--,true,true,true,true,true,true,false,false,true,true,false,false,0.24,0.05,0.00,0.00,0.00,0.00,0.43,0.21,43.9451979,-78.8969225,17TPJ 68768 67936,0.0,0.0,52.4,3,10,--.--,--.--,--.--,0.0,0.0,0.0,0,0,0,--.--,--.--,--.--
2020-08-02 15:32:19.304,0.2,-2.3,68,-0.4,-11.6,-1.3,13.1,13.9,-0.5,49.6,99.6,22.8,00:00:52,14.5,308,218,--.--,75,0000:51:33,11.32,51,0,-1.00,--.--,-11.32,--.--,0,--.--,--.--,--.--,--.--,--.--,--.--,--.--,0,15:32:19,2020-08-02,--.--,--.--,--.--,--.--,--.--,--.--,--.--,0.00,--.--,--.--,true,true,true,true,true,true,false,false,true,true,false,false,0.24,0.05,0.00,0.00,0.00,0.00,0.43,0.21,43.9452288,-78.8968470,17TPJ 68774 67939,0.0,0.0,62.4,3,10,--.--,--.--,--.--,0.0,0.0,0.0,0,0,0,--.--,--.--,--.--
2020-08-02 15:32:20.316,-38.1,1.2,55,8.3,21.0,-12.0,17.6,18.0,-0.4,48.8,98.9,35.5,00:00:53,27.1,308,228,--.--,59,0000:51:33,11.32,51,0,-1.00,--.--,-11.32,--.--,0,--.--,--.--,--.--,--.--,--.--,--.--,--.--,0,15:32:20,2020-08-02,--.--,--.--,--.--,--.--,--.--,--.--,--.--,0.00,--.--,--.--,true,true,true,true,true,true,false,false,true,true,false,false,0.34,0.10,0.00,0.02,0.00,0.00,0.43,0.21,43.9452829,-78.8966973,17TPJ 68786 67946,0.0,0.0,63.7,3,10,--.--,--.--,--.--,0.0,0.0,0.0,0,0,0,--.--,--.--,--.--
2020-08-02 15:32:21.313,-39.3,3.3,36,0.7,17.8,-21.7,18.1,18.1,0.5,49.0,99.0,48.6,00:00:54,39.7,308,226,--.--,55,0000:51:33,11.32,51,0,-1.00,--.--,-11.32,--.--,0,--.--,--.--,--.--,--.--,--.--,--.--,--.--,0,15:32:21,2020-08-02,--.--,--.--,--.--,--.--,--.--,--.--,--.--,0.00,--.--,--.--,true,true,true,true,true,true,false,false,true,true,false,false,0.34,0.10,0.00,0.02,0.00,0.00,0.43,0.21,43.9452829,-78.8966973,17TPJ 68786 67946,0.0,0.0,63.7,3,10,--.--,--.--,--.--,0.0,0.0,0.0,0,0,0,--.--,--.--,--.--
2020-08-02 15:32:22.304,-39.7,3.9,23,0.8,16.2,-16.4,18.3,18.1,0.8,49.4,99.5,57.6,00:00:55,48.9,308,222,--.--,56,0000:51:33,11.32,51,0,-1.00,--.--,-11.32,--.--,0,--.--,--.--,--.--,--.--,--.--,--.--,--.--,0,15:32:22,2020-08-02,--.--,--.--,--.--,--.--,--.--,--.--,--.--,0.00,--.--,--.--,true,true,true,true,true,true,false,false,true,true,false,false,0.34,0.10,0.00,0.02,0.00,0.00,0.43,0.21,43.9453792,-78.8965204,17TPJ 68800 67957,0.0,0.0,38.9,3,10,--.--,--.--,--.--,0.0,0.0,0.0,0,0,0,--.--,--.--,--.--
2020-08-02 15:32:23.304,-40.0,4.9,11,1.5,16.3,-19.2,18.6,18.0,1.0,49.9,100.0,66.5,00:00:56,57.3,308,218,--.--,55,0000:51:33,11.32,51,0,-1.00,--.--,-11.32,--.--,0,--.--,--.--,--.--,--.--,--.--,--.--,--.--,0,15:32:23,2020-08-02,--.--,--.--,--.--,--.--,--.--,--.--,--.--,0.00,--.--,--.--,true,true,true,true,true,true,false,false,true,true,false,false,0.10,0.13,0.01,0.01,0.00,0.00,0.42,0.21,43.9453792,-78.8965204,17TPJ 68800 67957,0.0,0.0,38.9,3,10,--.--,--.--,--.--,0.0,0.0,0.0,0,0,0,--.--,--.--,--.--
2020-08-02 15:32:24.304,-40.4,4.1,353,1.6,17.3,-23.9,18.6,17.9,1.2,50.7,100.8,77.7,00:00:57,66.7,308,212,--.--,53,0000:51:33,11.32,51,0,-1.00,--.--,-11.32,--.--,0,--.--,--.--,--.--,--.--,--.--,--.--,--.--,0,15:32:24,2020-08-02,--.--,--.--,--.--,--.--,--.--,--.--,--.--,0.00,--.--,--.--,true,true,true,true,true,true,false,false,true,true,false,false,0.10,0.13,0.01,0.01,0.00,0.00,0.42,0.21,43.9455285,-78.8964208,17TPJ 68808 67973,0.0,0.0,12.8,3,10,--.--,--.--,--.--,0.0,0.0,0.0,0,0,0,--.--,--.--,--.--
2020-08-02 15:32:25.314,-39.1,2.9,331,5.4,13.4,-19.2,18.4,17.6,1.1,51.8,101.9,93.1,00:00:58,76.8,308,203,--.--,51,0000:51:33,11.32,51,0,-1.00,--.--,-11.32,--.--,0,--.--,--.--,--.--,--.--,--.--,--.--,--.--,0,15:32:25,2020-08-02,--.--,--.--,--.--,--.--,--.--,--.--,--.--,0.00,--.--,--.--,true,true,true,true,true,true,false,false,true,true,false,false,0.10,0.13,0.01,0.01,0.00,0.00,0.42,0.21,43.9456945,-78.8964217,17TPJ 68807 67992,0.0,0.0,346.6,3,10,--.--,--.--,--.--,0.0,0.0,0.0,0,0,0,--.--,--.--,--.--
2020-08-02 15:32:26.305,-33.8,1.1,313,7.5,8.1,-17.5,18.0,17.5,0.6,52.6,102.7,110.0,00:00:59,85.3,308,194,--.--,48,0000:51:33,11.32,51,0,-1.00,--.--,-11.32,--.--,0,--.--,--.--,--.--,--.--,--.--,--.--,--.--,0,15:32:26,2020-08-02,--.--,--.--,--.--,--.--,--.--,--.--,--.--,0.00,--.--,--.--,true,true,true,true,true,true,false,false,true,true,false,false,0.22,0.10,0.01,0.03,0.00,0.00,0.45,0.21,43.9458408,-78.8965223,17TPJ 68799 68008,0.0,0.0,321.3,3,10,--.--,--.--,--.--,0.0,0.0,0.0,0,0,0,--.--,--.--,--.--
2020-08-02 15:32:27.305,-29.0,-0.2,301,8.9,6.5,-15.1,17.9,17.5,0.2,52.7,102.8,120.7,00:01:00,89.9,308,187,--.--,47,0000:51:33,11.32,51,0,-1.00,--.--,-11.32,--.--,0,--.--,--.--,--.--,--.--,--.--,--.--,--.--,0,15:32:27,2020-08-02,--.--,--.--,--.--,--.--,--.--,--.--,--.--,0.00,--.--,--.--,true,true,true,true,true,true,false,false,true,true,false,false,0.22,0.10,0.01,0.03,0.00,0.00,0.45,0.21,43.9458408,-78.8965223,17TPJ 68799 68008,0.0,0.0,321.3,3,10,--.--,--.--,--.--,0.0,0.0,0.0,0,0,0,--.--,--.--,--.--
2020-08-02 15:32:28.304,-23.7,-0.9,292,8.5,4.7,-13.5,17.8,17.3,-0.1,52.6,102.7,131.5,00:01:01,93.6,308,181,--.--,45,0000:51:33,11.32,51,0,-1.00,--.--,-11.32,--.--,0,--.--,--.--,--.--,--.--,--.--,--.--,--.--,0,15:32:28,2020-08-02,--.--,--.--,--.--,--.--,--.--,--.--,--.--,0.00,--.--,--.--,true,true,true,true,true,true,false,false,true,true,false,false,0.22,0.10,0.01,0.03,0.00,0.00,0.45,0.21,43.9459464,-78.8966914,17TPJ 68785 68019,0.0,0.0,301.4,3,10,--.--,--.--,--.--,0.0,0.0,0.0,0,0,0,--.--,--.--,--.--
2020-08-02 15:32:29.307,-17.8,-1.3,283,7.9,3.2,-11.5,17.7,17.6,-0.2,52.4,102.5,144.3,00:01:02,97.6,308,174,--.--,44,0000:51:33,11.32,51,0,-1.00,--.--,-11.32,--.--,0,--.--,--.--,--.--,--.--,--.--,--.--,--.--,0,15:32:29,2020-08-02,--.--,--.--,--.--,--.--,--.--,--.--,--.--,0.00,--.--,--.--,true,true,true,true,true,true,false,false,true,true,false,false,0.20,0.04,0.00,0.04,0.00,0.00,0.42,0.21,43.9460102,-78.8968987,17TPJ 68768 68026,0.0,0.0,285.9,3,10,--.--,--.--,--.--,0.0,0.0,0.0,0,0,0,--.--,--.--,--.--
2020-08-02 15:32:30.304,-12.3,-1.2,276,6.2,1.8,-8.0,17.6,17.2,-0.2,52.1,102.2,157.0,00:01:03,101.5,308,167,--.--,43,0000:51:33,11.32,51,0,-1.00,--.--,-11.32,--.--,0,--.--,--.--,--.--,--.--,--.--,--.--,--.--,0,15:32:30,2020-08-02,--.--,--.--,--.--,--.--,--.--,--.--,--.--,0.00,--.--,--.--,true,true,true,true,true,true,false,false,true,true,false,false,0.20,0.04,0.00,0.04,0.00,0.00,0.42,0.21,43.9460102,-78.8968987,17TPJ 68768 68026,0.0,0.0,285.9,3,10,--.--,--.--,--.--,0.0,0.0,0.0,0,0,0,--.--,--.--,--.--
2020-08-02 15:32:31.304,-9.5,-1.2,272,5.3,1.0,-6.4,17.4,17.6,-0.2,52.0,102.1,165.1,00:01:04,104.3,308,162,--.--,43,0000:51:33,11.32,51,0,-1.00,--.--,-11.32,--.--,0,--.--,--.--,--.--,--.--,--.--,--.--,--.--,0,15:32:31,2020-08-02,--.--,--.--,--.--,--.--,--.--,--.--,--.--,0.00,--.--,--.--,true,true,true,true,true,true,false,false,true,true,false,false,0.20,0.04,0.00,0.04,0.00,0.00,0.42,0.21,43.9460354,-78.8970737,17TPJ 68754 68028,0.0,0.0,277.2,3,10,--.--,--.--,--.--,0.0,0.0,0.0,0,0,0,--.--,--.--,--.--
2020-08-02 15:32:32.304,-3.3,-1.1,269,9.8,0.5,-3.1,17.2,16.7,-0.2,51.8,101.9,175.3,00:01:05,107.9,308,157,--.--,42,0000:51:33,11.32,51,0,-1.00,--.--,-11.32,--.--,0,--.--,--.--,--.--,--.--,--.--,--.--,--.--,0,15:32:32,2020-08-02,--.--,--.--,--.--,--.--,--.--,--.--,--.--,0.00,--.--,--.--,true,true,true,true,true,true,false,false,true,true,false,false,0.10,0.13,0.00,0.04,0.00,0.00,0.44,0.21,43.9460450,-78.8972970,17TPJ 68736 68029,0.0,0.0,270.3,3,10,--.--,--.--,--.--,0.0,0.0,0.0,0,0,0,--.--,--.--,--.--
2020-08-02 15:32:33.304,2.3,-1.0,268,6.8,0.4,0.7,17.1,17.3,-0.2,51.6,101.7,187.6,00:01:06,112.6,308,151,--.--,43,0000:51:33,11.32,51,0,-1.00,--.--,-11.32,--.--,0,--.--,--.--,--.--,--.--,--.--,--.--,--.--,0,15:32:33,2020-08-02,--.--,--.--,--.--,--.--,--.--,--.--,--.--,0.00,--.--,--.--,true,true,true,true,true,true,false,false,true,true,false,false,0.10,0.13,0.00,0.04,0.00,0.00,0.44,0.21,43.9460450,-78.8972970,17TPJ 68736 68029,0.0,0.0,270.3,3,10,--.--,--.--,--.--,0.0,0.0,0.0,0,0,0,--.--,--.--,--.--
2020-08-02 15:32:34.304,7.4,-0.5,271,4.7,0.7,4.0,17.1,17.4,-0.1,51.4,101.5,202.0,00:01:07,120.8,308,145,--.--,43,0000:51:33,11.32,51,0,-1.00,--.--,-11.32,--.--,0,--.--,--.--,--.--,--.--,--.--,--.--,--.--,0,15:32:34,2020-08-02,--.--,--.--,--.--,--.--,--.--,--.--,--.--,0.00,--.--,--.--,true,true,true,true,true,true,false,false,true,true,false,false,0.10,0.13,0.00,0.04,0.00,0.00,0.44,0.21,43.9460417,-78.8975175,17TPJ 68718 68028,0.0,0.0,268.3,3,10,--.--,--.--,--.--,0.0,0.0,0.0,0,0,0,--.--,--.--,--.--
2020-08-02 15:32:35.304,9.7,-0.0,276,0.9,1.3,5.7,17.0,17.2,0.1,51.4,101.5,218.8,00:01:08,130.9,308,139,--.--,43,0000:51:33,11.32,51,0,-1.00,--.--,-11.32,--.--,0,--.--,--.--,--.--,--.--,--.--,--.--,--.--,0,15:32:35,2020-08-02,--.--,--.--,--.--,--.--,--.--,--.--,--.--,0.00,--.--,--.--,true,true,true,true,true,true,false,false,true,true,false,false,0.07,0.07,0.01,0.04,0.00,0.00,0.43,0.21,43.9460398,-78.8977393,17TPJ 68701 68027,0.0,0.0,270.9,3,10,--.--,--.--,--.--,0.0,0.0,0.0,0,0,0,--.--,--.--,--.--
2020-08-02 15:32:36.306,10.5,0.1,280,1.2,1.1,6.2,17.0,17.0,0.1,51.4,101.5,231.3,00:01:09,140.2,308,136,--.--,43,0000:51:33,11.32,51,0,-1.00,--.--,-11.32,--.--,0,--.--,--.--,--.--,--.--,--.--,--.--,--.--,0,15:32:36,2020-08-02,--.--,--.--,--.--,--.--,--.--,--.--,--.--,0.00,--.--,--.--,true,true,true,true,true,true,false,false,true,true,false,false,0.07,0.07,0.01,0.04,0.00,0.00,0.43,0.21,43.9460492,-78.8979584,17TPJ 68683 68028,0.0,0.0,276.1,3,10,--.--,--.--,--.--,0.0,0.0,0.0,0,0,0,--.--,--.--,--.--
2020-08-02 15:32:37.304,10.6,0.1,283,-0.1,1.1,6.2,17.0,17.4,0.1,51.4,101.5,239.6,00:01:10,147.3,308,134,--.--,43,0000:51:33,11.32,51,0,-1.00,--.--,-11.32,--.--,0,--.--,--.--,--.--,--.--,--.--,--.--,--.--,0,15:32:37,2020-08-02,--.--,--.--,--.--,--.--,--.--,--.--,--.--,0.00,--.--,--.--,true,true,true,true,true,true,false,false,true,true,false,false,0.07,0.07,0.01,0.04,0.00,0.00,0.43,0.21,43.9460492,-78.8979584,17TPJ 68683 68028,0.0,0.0,276.1,3,10,--.--,--.--,--.--,0.0,0.0,0.0,0,0,0,--.--,--.--,--.--
2020-08-02 15:32:38.305,10.3,0.1,287,-0.3,1.1,5.8,16.9,17.1,0.2,51.5,101.6,250.2,00:01:11,156.3,308,132,--.--,43,0000:51:33,11.32,51,0,-1.00,--.--,-11.32,--.--,0,--.--,--.--,--.--,--.--,--.--,--.--,--.--,0,15:32:38,2020-08-02,--.--,--.--,--.--,--.--,--.--,--.--,--.--,0.00,--.--,--.--,true,true,true,true,true,true,false,false,true,true,false,false,0.04,0.15,0.00,0.04,0.00,0.00,0.43,0.20,43.9460743,-78.8981743,17TPJ 68666 68030,0.0,0.0,282.3,3,10,--.--,--.--,--.--,0.0,0.0,0.0,0,0,0,--.--,--.--,--.--
2020-08-02 15:32:39.304,9.8,0.1,290,-1.1,0.3,5.7,16.7,16.9,0.1,51.6,101.6,257.1,00:01:12,163.4,308,131,--.--,43,0000:51:33,11.32,51,0,-1.00,--.--,-11.32,--.--,0,--.--,--.--,--.--,--.--,--.--,--.--,--.--,0,15:32:39,2020-08-02,--.--,--.--,--.--,--.--,--.--,--.--,--.--,0.00,--.--,--.--,true,true,true,true,true,true,false,false,true,true,false,false,0.04,0.15,0.00,0.04,0.00,0.00,0.43,0.20,43.9460743,-78.8981743,17TPJ 68666 68030,0.0,0.0,282.3,3,10,--.--,--.--,--.--,0.0,0.0,0.0,0,0,0,--.--,--.--,--.--
2020-08-02 15:32:40.304,9.2,-0.2,293,-1.5,0.5,5.4,16.6,16.8,0.1,51.6,101.7,267.8,00:01:13,172.6,308,130,--.--,43,0000:51:33,11.32,51,0,-1.00,--.--,-11.32,--.--,0,--.--,--.--,--.--,--.--,--.--,--.--,--.--,0,15:32:40,2020-08-02,--.--,--.--,--.--,--.--,--.--,--.--,--.--,0.00,--.--,--.--,true,true,true,true,true,true,false,false,true,true,false,false,0.04,0.15,0.00,0.04,0.00,0.00,0.43,0.20,43.9461160,-78.8983844,17TPJ 68649 68035,0.0,0.0,288.4,3,10,--.--,--.--,--.--,0.0,0.0,0.0,0,0,0,--.--,--.--,--.--
2020-08-02 15:32:41.304,8.3,-0.3,296,-1.3,0.9,4.6,16.6,16.4,0.0,51.6,101.6,277.8,00:01:14,183.5,308,129,--.--,43,0000:51:33,11.32,51,0,-1.00,--.--,-11.32,--.--,0,--.--,--.--,--.--,--.--,--.--,--.--,--.--,0,15:32:41,2020-08-02,--.--,--.--,--.--,--.--,--.--,--.--,--.--,0.00,--.--,--.--,true,true,true,true,true,true,false,false,true,true,false,false,0.07,0.04,0.00,0.04,0.00,0.00,0.42,0.20,43.9461722,-78.8985841,17TPJ 68632 68040,0.0,0.0,294.0,3,10,--.--,--.--,--.--,0.0,0.0,0.0,0,0,0,--.--,--.--,--.--
2020-08-02 15:32:42.304,7.4,-0.4,299,-2.0,0.8,4.0,16.5,16.5,-0.0,51.5,101.6,287.9,00:01:15,193.4,308,128,--.--,43,0000:51:33,11.32,51,0,-1.00,--.--,-11.32,--.--,0,--.--,--.--,--.--,--.--,--.--,--.--,--.--,0,15:32:42,2020-08-02,--.--,--.--,--.--,--.--,--.--,--.--,--.--,0.00,--.--,--.--,true,true,true,true,true,true,false,false,true,true,false,false,0.07,0.04,0.00,0.04,0.00,0.00,0.42,0.20,43.9461722,-78.8985841,17TPJ 68632 68040,0.0,0.0,294.0,3,10,--.--,--.--,--.--,0.0,0.0,0.0,0,0,0,--.--,--.--,--.--
2020-08-02 15:32:43.304,6.2,-0.4,301,-1.7,0.1,3.4,16.5,16.2,-0.1,51.4,101.5,300.1,00:01:16,205.5,308,128,--.--,43,0000:51:33,11.32,51,0,-1.00,--.--,-11.32,--.--,0,--.--,--.--,--.--,--.--,--.--,--.--,--.--,0,15:32:43,2020-08-02,--.--,--.--,--.--,--.--,--.--,--.--,--.--,0.00,--.--,--.--,true,true,true,true,true,true,false,false,true,true,false,false,0.07,0.04,0.00,0.04,0.00,0.00,0.42,0.20,43.9462415,-78.8987762,17TPJ 68617 68048,0.0,0.0,299.0,3,10,--.--,--.--,--.--,0.0,0.0,0.0,0,0,0,--.--,--.--,--.--
2020-08-02 15:32:44.306,5.0,-0.4,303,-2.2,0.4,2.5,16.5,16.4,-0.1,51.3,101.4,312.3,00:01:17,217.2,308,127,--.--,43,0000:51:33,11.32,51,0,-1.00,--.--,-11.32,--.--,0,--.--,--.--,--.--,--.--,--.--,--.--,--.--,0,15:32:44,2020-08-02,--.--,--.--,--.--,--.--,--.--,--.--,--.--,0.00,--.--,--.--,true,true,true,true,true,true,false,false,true,true,false,false,0.10,0.11,0.00,0.04,0.00,0.00,0.41,0.20,43.9463204,-78.8989580,17TPJ 68602 68056,0.0,0.0,303.1,3,10,--.--,--.--,--.--,0.0,0.0,0.0,0,0,0,--.--,--.--,--.--
2020-08-02 15:32:45.304,4.0,-0.4,305,-1.8,0.7,2.2,16.5,16.6,-0.1,51.3,101.3,324.5,00:01:18,228.7,308,127,--.--,42,0000:51:33,11.32,51,0,-1.00,--.--,-11.32,--.--,0,--.--,--.--,--.--,--.--,--.--,--.--,--.--,0,15:32:45,2020-08-02,--.--,--.--,--.--,--.--,--.--,--.--,--.--,0.00,--.--,--.--,true,true,true,true,true,true,false,false,true,true,false,false,0.10,0.11,0.00,0.04,0.00,0.00,0.41,0.20,43.9463204,-78.8989580,17TPJ 68602 68056,0.0,0.0,303.1,3,10,--.--,--.--,--.--,0.0,0.0,0.0,0,0,0,--.--,--.--,--.--
2020-08-02 15:32:46.304,3.3,-0.4,306,-1.3,0.0,1.8,16.5,16.7,-0.1,51.2,101.3,330.8,00:01:19,236.1,308,127,--.--,43,0000:51:33,11.32,51,0,-1.00,--.--,-11.32,--.--,0,--.--,--.--,--.--,--.--,--.--,--.--,--.--,0,15:32:46,2020-08-02,--.--,--.--,--.--,--.--,--.--,--.--,--.--,0.00,--.--,--.--,true,true,true,true,true,true,false,false,true,true,false,false,0.10,0.11,0.00,0.04,0.00,0.00,0.41,0.20,43.9463896,-78.8990990,17TPJ 68590 68064,0.0,0.0,305.4,3,10,--.--,--.--,--.--,0.0,0.0,0.0,0,0,0,--.--,--.--,--.--
2020-08-02 15:32:47.304,-20.3,-0.2,305,-92.4,4.5,-7.9,16.5,16.2,-0.1,51.1,101.2,339.9,00:01:20,245.8,213,127,--.--,43,0000:51:33,11.32,51,0,-1.00,--.--,-11.32,--.--,0,--.--,--.--,--.--,--.--,--.--,--.--,--.--,0,15:32:47,2020-08-02,--.--,--.--,--.--,--.--,--.--,--.--,--.--,0.00,--.--,--.--,true,true,true,true,true,true,false,false,true,true,false,false,0.07,0.09,0.00,0.06,0.00,0.00,0.43,0.21,43.9463896,-78.8990990,17TPJ 68590 68064,0.0,0.0,305.4,3,10,--.--,--.--,--.--,0.0,0.0,0.0,0,0,0,--.--,--.--,--.--
2020-08-02 15:32:48.304,-36.2,2.2,296,8.9,15.9,-16.9,16.6,16.6,-0.1,51.0,101.1,349.0,00:01:21,253.3,213,127,--.--,47,0000:51:33,11.32,51,0,-1.00,--.--,-11.32,--.--,0,--.--,--.--,--.--,--.--,--.--,--.--,--.--,0,15:32:48,2020-08-02,--.--,--.--,--.--,--.--,--.--,--.--,--.--,0.00,--.--,--.--,true,true,true,true,true,true,false,false,true,true,false,false,0.07,0.09,0.00,0.06,0.00,0.00,0.43,0.21,43.9464800,-78.8992681,17TPJ 68577 68073,0.0,0.0,307.3,3,10,--.--,--.--,--.--,0.0,0.0,0.0,0,0,0,--.--,--.--,--.--
2020-08-02 15:32:49.310,-35.3,2.4,277,2.1,14.6,-22.0,16.6,16.9,0.3,51.2,101.2,360.2,00:01:22,265.1,213,126,--.--,46,0000:51:33,11.32,51,0,-1.00,--.--,-11.32,--.--,0,--.--,--.--,--.--,--.--,--.--,--.--,--.--,0,15:32:49,2020-08-02,--.--,--.--,--.--,--.--,--.--,--.--,--.--,0.00,--.--,--.--,true,true,true,true,true,true,false,false,true,true,false,false,0.07,0.09,0.00,0.06,0.00,0.00,0.43,0.21,43.9465545,-78.8994534,17TPJ 68562 68081,0.0,0.0,287.3,3,10,--.--,--.--,--.--,0.0,0.0,0.0,0,0,0,--.--,--.--,--.--
2020-08-02 15:32:50.304,-34.4,2.0,261,2.4,13.4,-20.3,16.5,16.2,0.4,51.4,101.4,371.9,00:01:23,273.6,213,125,--.--,45,0000:51:33,11.32,51,0,-1.00,--.--,-11.32,--.--,0,--.--,--.--,--.--,--.--,--.--,--.--,--.--,0,15:32:50,2020-08-02,--.--,--.--,--.--,--.--,--.--,--.--,--.--,0.00,--.--,--.--,true,true,true,true,true,true,false,false,true,true,false,false,0.07,0.09,0.00,0.06,0.00,0.00,0.43,0.21,43.9465545,-78.8994534,17TPJ 68562 68081,0.0,0.0,287.3,3,10,--.--,--.--,--.--,0.0,0.0,0.0,0,0,0,--.--,--.--,--.--
2020-08-02 15:32:51.304,-33.4,1.7,249,3.1,11.8,-19.4,16.5,16.4,0.4,51.5,101.6,380.2,00:01:24,279.5,213,124,--.--,44,0000:51:33,11.32,51,0,-1.00,--.--,-11.32,--.--,0,--.--,--.--,--.--,--.--,--.--,--.--,--.--,0,15:32:51,2020-08-02,--.--,--.--,--.--,--.--,--.--,--.--,--.--,0.00,--.--,--.--,true,true,true,true,true,true,false,false,true,true,false,false,0.11,0.08,0.00,0.02,0.00,0.00,0.42,0.21,43.9465679,-78.8996641,17TPJ 68545 68082,0.0,0.0,263.0,3,10,--.--,--.--,--.--,0.0,0.0,0.0,0,0,0,--.--,--.--,--.--
2020-08-02 15:32:52.304,-31.5,0.8,234,2.6,9.7,-17.9,16.4,16.7,0.2,51.7,101.8,390.6,00:01:25,285.7,213,122,--.--,44,0000:51:33,11.32,51,0,-1.00,--.--,-11.32,--.--,0,--.--,--.--,--.--,--.--,--.--,--.--,--.--,0,15:32:52,2020-08-02,--.--,--.--,--.--,--.--,--.--,--.--,--.--,0.00,--.--,--.--,true,true,true,true,true,true,false,false,true,true,false,false,0.11,0.08,0.00,0.02,0.00,0.00,0.42,0.21,43.9465679,-78.8996641,17TPJ 68545 68082,0.0,0.0,263.0,3,10,--.--,--.--,--.--,0.0,0.0,0.0,0,0,0,--.--,--.--,--.--
2020-08-02 15:32:53.304,-29.1,0.2,221,4.6,7.9,-15.5,16.3,16.8,-0.0,51.8,101.8,403.3,00:01:26,289.8,213,119,--.--,43,0000:51:33,11.32,51,0,-1.00,--.--,-11.32,--.--,0,--.--,--.--,--.--,--.--,--.--,--.--,--.--,0,15:32:53,2020-08-02,--.--,--.--,--.--,--.--,--.--,--.--,--.--,0.00,--.--,--.--,true,true,true,true,true,true,false,false,true,true,false,false,0.11,0.08,0.00,0.02,0.00,0.00,0.42,0.21,43.9465188,-78.8998654,17TPJ 68529 68076,0.0,0.0,239.9,3,10,--.--,--.--,--.--,0.0,0.0,0.0,0,0,0,--.--,--.--,--.--
2020-08-02 15:32:54.304,-26.8,-0.1,211,4.3,7.3,-15.1,16.3,16.2,-0.1,51.7,101.7,413.6,00:01:27,291.3,213,118,--.--,43,0000:51:33,11.32,51,0,-1.00,--.--,-11.32,--.--,0,--.--,--.--,--.--,--.--,--.--,--.--,--.--,0,15:32:54,2020-08-02,--.--,--.--,--.--,--.--,--.--,--.--,--.--,0.00,--.--,--.--,true,true,true,true,true,true,false,false,true,true,false,false,0.12,0.12,0.00,0.03,0.00,0.00,0.42,0.20,43.9464208,-78.9000254,17TPJ 68516 68065,0.0,0.0,219.7,3,10,--.--,--.--,--.--,0.0,0.0,0.0,0,0,0,--.--,--.--,--.--
2020-08-02 15:32:55.304,-23.9,-0.3,202,4.8,6.2,-14.5,16.3,16.5,-0.2,51.5,101.6,422.7,00:01:28,291.6,173,116,--.--,42,0000:51:33,11.32,51,0,-1.00,--.--,-11.32,--.--,0,--.--,--.--,--.--,--.--,--.--,--.--,--.--,0,15:32:55,2020-08-02,--.--,--.--,--.--,--.--,--.--,--.--,--.--,0.00,--.--,--.--,true,true,true,true,true,true,false,false,true,true,false,false,0.12,0.12,0.00,0.03,0.00,0.00,0.42,0.20,43.9464208,-78.9000254,17TPJ 68516 68065,0.0,0.0,219.7,3,10,--.--,--.--,--.--,0.0,0.0,0.0,0,0,0,--.--,--.--,--.--
2020-08-02 15:32:56.304,-20.3,-0.3,191,4.5,5.1,-13.1,16.2,16.8,-0.2,51.3,101.3,434.2,00:01:29,290.1,167,113,--.--,42,0000:51:33,11.32,51,0,-1.00,--.--,-11.32,--.--,0,--.--,--.--,--.--,--.--,--.--,--.--,--.--,0,15:32:56,2020-08-02,--.--,--.--,--.--,--.--,--.--,--.--,--.--,0.00,--.--,--.--,true,true,true,true,true,true,false,false,true,true,false,false,0.12,0.12,0.00,0.03,0.00,0.00,0.42,0.20,43.9462896,-78.9001339,17TPJ 68508 68050,0.0,0.0,202.3,3,10,--.--,--.--,--.--,0.0,0.0,0.0,0,0,0,--.--,--.--,--.--
2020-08-02 15:32:57.304,-17.9,-0.3,184,5.3,4.1,-11.7,16.2,16.6,-0.2,51.1,101.2,443.4,00:01:30,288.1,167,112,--.--,42,0000:51:33,11.32,51,0,-1.00,--.--,-11.32,--.--,0,--.--,--.--,--.--,--.--,--.--,--.--,--.--,0,15:32:57,2020-08-02,--.--,--.--,--.--,--.--,--.--,--.--,--.--,0.00,--.--,--.--,true,true,true,true,true,true,false,false,true,true,false,false,0.17,0.02,0.01,0.06,0.00,0.00,0.42,0.20,43.9461423,-78.9001884,17TPJ 68504 68034,0.0,0.0,188.1,3,10,--.--,--.--,--.--,0.0,0.0,0.0,0,0,0,--.--,--.--,--.--
2020-08-02 15:32:58.304,-14.2,-0.1,175,4.9,2.5,-9.9,16.3,16.9,-0.1,50.9,101.0,455.7,00:01:31,283.8,167,109,--.--,41,0000:51:33,11.32,51,0,-1.00,--.--,-11.32,--.--,0,--.--,--.--,--.--,--.--,--.--,--.--,--.--,0,15:32:58,2020-08-02,--.--,--.--,--.--,--.--,--.--,--.--,--.--,0.00,--.--,--.--,true,true,true,true,true,true,false,false,true,true,false,false,0.17,0.02,0.01,0.06,0.00,0.00,0.42,0.20,43.9461423,-78.9001884,17TPJ 68504 68034,0.0,0.0,188.1,3,10,--.--,--.--,--.--,0.0,0.0,0.0,0,0,0,--.--,--.--,--.--
2020-08-02 15:32:59.304,-10.5,-0.2,168,5.0,1.4,-7.0,16.3,16.6,-0.1,50.8,100.8,470.4,00:01:32,278.3,167,107,--.--,41,0000:51:33,11.32,51,0,-1.00,--.--,-11.32,--.--,0,--.--,--.--,--.--,--.--,--.--,--.--,--.--,0,15:32:59,2020-08-02,--.--,--.--,--.--,--.--,--.--,--.--,--.--,0.00,--.--,--.--,true,true,true,true,true,true,false,false,true,true,false,false,0.17,0.02,0.01,0.06,0.00,0.00,0.42,0.20,43.9459882,-78.9001969,17TPJ 68503 68017,0.0,0.0,177.0,3,10,--.--,--.--,--.--,0.0,0.0,0.0,0,0,0,--.--,--.--,--.--
2020-08-02 15:33:00.304,-7.5,-0.2,164,3.9,1.0,-5.1,16.4,16.5,-0.1,50.6,100.7,482.6,00:01:33,272.8,167,104,--.--,41,0000:51:33,11.32,51,0,-1.00,--.--,-11.32,--.--,0,--.--,--.--,--.--,--.--,--.--,--.--,--.--,0,15:33:00,2020-08-02,--.--,--.--,--.--,--.--,--.--,--.--,--.--,0.00,--.--,--.--,true,true,true,true,true,true,false,false,true,true,false,false,0.13,0.14,0.01,0.05,0.00,0.00,0.41,0.20,43.9458361,-78.9001702,17TPJ 68506 68000,0.0,0.0,169.1,3,10,--.--,--.--,--.--,0.0,0.0,0.0,0,0,0,--.--,--.--,--.--
2020-08-02 15:33:01.304,-5.3,-0.2,162,3.4,0.4,-3.5,16.4,16.4,-0.1,50.5,100.6,492.7,00:01:34,267.9,167,102,--.--,41,0000:51:33,11.32,51,0,-1.00,--.--,-11.32,--.--,0,--.--,--.--,--.--,--.--,--.--,--.--,--.--,0,15:33:01,2020-08-02,--.--,--.--,--.--,--.--,--.--,--.--,--.--,0.00,--.--,--.--,true,true,true,true,true,true,false,false,true,true,false,false,0.13,0.14,0.01,0.05,0.00,0.00,0.41,0.20,43.9458361,-78.9001702,17TPJ 68506 68000,0.0,0.0,169.1,3,10,--.--,--.--,--.--,0.0,0.0,0.0,0,0,0,--.--,--.--,--.--
2020-08-02 15:33:02.304,-3.4,-0.3,160,3.0,-0.0,-2.6,16.4,16.7,-0.2,50.5,100.5,501.6,00:01:35,263.3,167,101,--.--,42,0000:51:33,11.32,51,0,-1.00,--.--,-11.32,--.--,0,--.--,--.--,--.--,--.--,--.--,--.--,--.--,0,15:33:02,2020-08-02,--.--,--.--,--.--,--.--,--.--,--.--,--.--,0.00,--.--,--.--,true,true,true,true,true,true,false,false,true,true,false,false,0.13,0.14,0.01,0.05,0.00,0.00,0.41,0.20,43.9457170,-78.9001318,17TPJ 68509 67987,0.0,0.0,165.0,3,10,--.--,--.--,--.--,0.0,0.0,0.0,0,0,0,--.--,--.--,--.--
2020-08-02 15:33:03.307,-1.9,-0.1,159,1.7,0.1,-1.3,16.4,16.3,-0.2,50.4,100.4,513.0,00:01:36,258.5,167,99,--.--,41,0000:51:33,11.32,51,0,-1.00,--.--,-11.32,--.--,0,--.--,--.--,--.--,--.--,--.--,--.--,--.--,0,15:33:03,2020-08-02,--.--,--.--,--.--,--.--,--.--,--.--,--.--,0.00,--.--,--.--,true,true,true,true,true,true,false,false,true,true,false,false,0.08,0.08,0.00,0.05,0.00,0.00,0.43,0.21,43.9455717,-78.9000710,17TPJ 68515 67971,0.0,0.0,161.8,3,10,--.--,--.--,--.--,0.0,0.0,0.0,0,0,0,--.--,--.--,--.--
2020-08-02 15:33:04.304,-0.9,0.1,158,2.1,0.5,-0.9,16.4,16.5,-0.1,50.3,100.4,519.9,00:01:37,254.8,167,97,--.--,41,0000:51:33,11.32,51,0,-1.00,--.--,-11.32,--.--,0,--.--,--.--,--.--,--.--,--.--,--.--,--.--,0,15:33:04,2020-08-02,--.--,--.--,--.--,--.--,--.--,--.--,--.--,0.00,--.--,--.--,true,true,true,true,true,true,false,false,true,true,false,false,0.08,0.08,0.00,0.05,0.00,0.00,0.43,0.21,43.9455717,-78.9000710,17TPJ 68515 67971,0.0,0.0,161.8,3,10,--.--,--.--,--.--,0.0,0.0,0.0,0,0,0,--.--,--.--,--.--
2020-08-02 15:33:05.304,0.2,0.1,158,0.9,0.1,-0.1,16.4,16.3,-0.1,50.3,100.3,531.5,00:01:38,250.3,167,95,--.--,42,0000:51:33,11.32,51,0,-1.00,--.--,-11.32,--.--,0,--.--,--.--,--.--,--.--,--.--,--.--,--.--,0,15:33:05,2020-08-02,--.--,--.--,--.--,--.--,--.--,--.--,--.--,0.00,--.--,--.--,true,true,true,true,true,true,false,false,true,true,false,false,0.08,0.08,0.00,0.05,0.00,0.00,0.43,0.21,43.9454272,-78.9000020,17TPJ 68521 67955,0.0,0.0,160.5,3,10,--.--,--.--,--.--,0.0,0.0,0.0,0,0,0,--.--,--.--,--.--
2020-08-02 15:33:06.304,0.9,0.2,158,1.7,0.0,0.1,16.5,16.3,-0.1,50.2,100.3,538.6,00:01:39,246.9,167,93,--.--,42,0000:51:33,11.32,51,0,-1.00,--.--,-11.32,--.--,0,--.--,--.--,--.--,--.--,--.--,--.--,--.--,0,15:33:06,2020-08-02,--.--,--.--,--.--,--.--,--.--,--.--,--.--,0.00,--.--,--.--,true,true,true,true,true,true,false,false,true,true,false,false,0.05,0.06,0.00,0.05,0.00,0.00,0.43,0.21,43.9454272,-78.9000020,17TPJ 68521 67955,0.0,0.0,160.5,3,10,--.--,--.--,--.--,0.0,0.0,0.0,0,0,0,--.--,--.--,--.--
2020-08-02 15:33:07.304,1.6,0.4,159,0.6,0.4,0.8,16.5,16.3,-0.0,50.2,100.3,552.9,00:01:40,241.9,167,90,--.--,42,0000:51:33,11.32,51,0,-1.00,--.--,-11.32,--.--,0,--.--,--.--,--.--,--.--,--.--,--.--,--.--,0,15:33:07,2020-08-02,--.--,--.--,--.--,--.--,--.--,--.--,--.--,0.00,--.--,--.--,true,true,true,true,true,true,false,false,true,true,false,false,0.05,0.06,0.00,0.05,0.00,0.00,0.43,0.21,43.9452847,-78.8999313,17TPJ 68527 67939,0.0,0.0,160.2,3,10,--.--,--.--,--.--,0.0,0.0,0.0,0,0,0,--.--,--.--,--.--
2020-08-02 15:33:08.304,1.9,0.5,159,0.4,0.0,1.0,16.5,15.9,0.0,50.2,100.3,560.9,00:01:41,239.3,167,88,--.--,42,0000:51:33,11.32,51,0,-1.00,--.--,-11.32,--.--,0,--.--,--.--,--.--,--.--,--.--,--.--,--.--,0,15:33:08,2020-08-02,--.--,--.--,--.--,--.--,--.--,--.--,--.--,0.00,--.--,--.--,true,true,true,true,true,true,false,false,true,true,false,false,0.05,0.06,0.00,0.05,0.00,0.00,0.43,0.21,43.9451415,-78.8998609,17TPJ 68533 67923,0.0,0.0,160.8,3,10,--.--,--.--,--.--,0.0,0.0,0.0,0,0,0,--.--,--.--,--.--
2020-08-02 15:33:09.309,-31.0,0.9,157,-85.9,12.3,-11.6,16.5,16.3,0.1,50.2,100.3,575.0,00:01:42,235.6,6,85,--.--,42,0000:51:33,11.32,51,0,-1.00,--.--,-11.32,--.--,0,--.--,--.--,--.--,--.--,--.--,--.--,--.--,0,15:33:09,2020-08-02,--.--,--.--,--.--,--.--,--.--,--.--,--.--,0.00,--.--,--.--,true,true,true,true,true,true,false,false,true,true,false,false,0.03,0.12,0.00,0.01,0.00,0.00,0.42,0.21,43.9451415,-78.8998609,17TPJ 68533 67923,0.0,0.0,160.8,3,10,--.--,--.--,--.--,0.0,0.0,0.0,0,0,0,--.--,--.--,--.--
2020-08-02 15:33:10.304,-36.6,3.2,136,1.6,15.1,-23.5,16.5,16.6,0.4,50.5,100.5,587.6,00:01:43,229.6,6,82,--.--,45,0000:51:33,11.32,51,0,-1.00,--.--,-11.32,--.--,0,--.--,--.--,--.--,--.--,--.--,--.--,--.--,0,15:33:10,2020-08-02,--.--,--.--,--.--,--.--,--.--,--.--,--.--,0.00,--.--,--.--,true,true,true,true,true,true,false,false,true,true,false,false,0.03,0.12,0.00,0.01,0.00,0.00,0.42,0.21,43.9449974,-78.8997933,17TPJ 68539 67907,0.0,0.0,161.1,3,10,--.--,--.--,--.--,0.0,0.0,0.0,0,0,0,--.--,--.--,--.--
2020-08-02 15:33:11.304,-36.5,2.7,117,1.3,13.7,-16.8,16.2,16.5,0.2,50.7,100.8,601.1,00:01:44,221.5,6,80,--.--,44,0000:51:33,11.32,51,0,-1.00,--.--,-11.32,--.--,0,--.--,--.--,--.--,--.--,--.--,--.--,--.--,0,15:33:11,2020-08-02,--.--,--.--,--.--,--.--,--.--,--.--,--.--,0.00,--.--,--.--,true,true,true,true,true,true,false,false,true,true,false,false,0.03,0.12,0.00,0.01,0.00,0.00,0.42,0.21,43.9448681,-78.8996897,17TPJ 68547 67893,0.0,0.0,137.0,3,10,--.--,--.--,--.--,0.0,0.0,0.0,0,0,0,--.--,--.--,--.--
2020-08-02 15:33:12.304,-36.4,3.0,100,0.6,15.1,-21.4,16.1,16.4,0.2,50.8,100.9,612.3,00:01:45,211.5,6,78,--.--,44,0000:51:33,11.32,51,0,-1.00,--.--,-11.32,--.--,0,--.--,--.--,--.--,--.--,--.--,--.--,--.--,0,15:33:12,2020-08-02,--.--,--.--,--.--,--.--,--.--,--.--,--.--,0.00,--.--,--.--,true,true,true,true,true,true,false,false,true,true,false,false,0.13,0.01,0.00,0.05,0.00,0.00,0.41,0.20,43.9447839,-78.8995171,17TPJ 68561 67884,0.0,0.0,111.5,3,10,--.--,--.--,--.--,0.0,0.0,0.0,0,0,0,--.--,--.--,--.--
2020-08-02 15:33:13.307,-36.7,2.1,81,0.6,16.2,-24.0,16.1,16.9,0.1,50.9,101.0,623.8,00:01:46,200.5,6,77,--.--,43,0000:51:33,11.32,51,0,-1.00,--.--,-11.32,--.--,0,--.--,--.--,--.--,--.--,--.--,--.--,--.--,0,15:33:13,2020-08-02,--.--,--.--,--.--,--.--,--.--,--.--,--.--,0.00,--.--,--.--,true,true,true,true,true,true,false,false,true,true,false,false,0.13,0.01,0.00,0.05,0.00,0.00,0.41,0.20,43.9447839,-78.8995171,17TPJ 68561 67884,0.0,0.0,111.5,3,10,--.--,--.--,--.--,0.0,0.0,0.0,0,0,0,--.--,--.--,--.--
2020-08-02 15:33:14.305,-36.9,1.7,63,0.5,14.8,-20.2,16.1,16.7,0.1,50.9,101.0,635.3,00:01:47,189.0,6,78,--.--,43,0000:51:33,11.32,51,0,-1.00,--.--,-11.32,--.--,0,--.--,--.--,--.--,--.--,--.--,--.--,--.--,0,15:33:14,2020-08-02,--.--,--.--,--.--,--.--,--.--,--.--,--.--,0.00,--.--,--.--,true,true,true,true,true,true,false,false,true,true,false,false,0.13,0.01,0.00,0.05,0.00,0.00,0.41,0.20,43.9447606,-78.8993125,17TPJ 68578 67882,0.0,0.0,86.3,3,10,--.--,--.--,--.--,0.0,0.0,0.0,0,0,0,--.--,--.--,--.--
2020-08-02 15:33:15.304,-36.7,1.7,44,1.5,14.0,-18.9,16.1,15.8,-0.0,50.9,101.0,646.9,00:01:48,177.4,6,79,--.--,43,0000:51:33,11.32,51,0,-1.00,--.--,-11.32,--.--,0,--.--,--.--,--.--,--.--,--.--,--.--,--.--,0,15:33:15,2020-08-02,--.--,--.--,--.--,--.--,--.--,--.--,--.--,0.00,--.--,--.--,true,true,true,true,true,true,false,false,true,true,false,false,0.08,0.12,0.00,0.03,0.00,0.00,0.41,0.20,43.9448045,-78.8991133,17TPJ 68594 67887,0.0,0.0,59.7,3,10,--.--,--.--,--.--,0.0,0.0,0.0,0,0,0,--.--,--.--,--.--
2020-08-02 15:33:16.304,-35.3,1.6,25,3.7,13.3,-18.6,16.2,16.4,-0.2,50.7,100.8,662.9,00:01:49,167.7,6,82,--.--,43,0000:51:33,11.32,51,0,-1.00,--.--,-11.32,--.--,0,--.--,--.--,--.--,--.--,--.--,--.--,--.--,0,15:33:16,2020-08-02,--.--,--.--,--.--,--.--,--.--,--.--,--.--,0.00,--.--,--.--,true,true,true,true,true,true,false,false,true,true,false,false,0.08,0.12,0.00,0.03,0.00,0.00,0.41,0.20,43.9449066,-78.8989627,17TPJ 68606 67899,0.0,0.0,34.2,3,10,--.--,--.--,--.--,0.0,0.0,0.0,0,0,0,--.--,--.--,--.--
2020-08-02 15:33:17.304,-32.4,1.5,9,6.2,11.5,-19.0,16.3,16.5,-0.2,50.6,100.6,674.2,00:01:50,163.1,6,86,--.--,42,0000:51:33,11.32,51,0,-1.00,--.--,-11.32,--.--,0,--.--,--.--,--.--,--.--,--.--,--.--,--.--,0,15:33:17,2020-08-02,--.--,--.--,--.--,--.--,--.--,--.--,--.--,0.00,--.--,--.--,true,true,true,true,true,true,false,false,true,true,false,false,0.19,0.18,0.00,0.02,0.00,0.00,0.44,0.21,43.9449066,-78.8989627,17TPJ 68606 67899,0.0,0.0,34.2,3,10,--.--,--.--,--.--,0.0,0.0,0.0,0,0,0,--.--,--.--,--.--
2020-08-02 15:33:18.312,-26.7,0.7,352,8.1,7.6,-17.5,16.2,16.7,-0.1,50.4,100.5,685.5,00:01:51,162.5,6,91,--.--,42,0000:51:33,11.32,51,0,-1.00,--.--,-11.32,--.--,0,--.--,--.--,--.--,--.--,--.--,--.--,--.--,0,15:33:18,2020-08-02,--.--,--.--,--.--,--.--,--.--,--.--,--.--,0.00,--.--,--.--,true,true,true,true,true,true,false,false,true,true,false,false,0.19,0.18,0.00,0.02,0.00,0.00,0.44,0.21,43.9450169,-78.8988933,17TPJ 68611 67911,0.0,0.0,14.9,3,10,--.--,--.--,--.--,0.0,0.0,0.0,0,0,0,--.--,--.--,--.--
2020-08-02 15:33:19.304,-21.0,0.3,342,10.6,4.3,-13.0,16.2,16.5,-0.2,50.3,100.4,696.8,00:01:52,164.8,6,94,--.--,41,0000:51:33,11.32,51,0,-1.00,--.--,-11.32,--.--,0,--.--,--.--,--.--,--.--,--.--,--.--,--.--,0,15:33:19,2020-08-02,--.--,--.--,--.--,--.--,--.--,--.--,--.--,0.00,--.--,--.--,true,true,true,true,true,true,false,false,true,true,false,false,0.19,0.18,0.00,0.02,0.00,0.00,0.44,0.21,43.9451667,-78.8988785,17TPJ 68612 67928,0.0,0.0,354.1,3,10,--.--,--.--,--.--,0.0,0.0,0.0,0,0,0,--.--,--.--,--.--
2020-08-02 15:33:20.304,-15.7,0.0,336,10.2,2.1,-9.3,16.2,16.2,-0.2,50.3,100.3,705.8,00:01:53,168.3,6,97,--.--,41,0000:51:33,11.32,51,0,-1.00,--.--,-11.32,--.--,0,--.--,--.--,--.--,--.--,--.--,--.--,--.--,0,15:33:20,2020-08-02,--.--,--.--,--.--,--.--,--.--,--.--,--.--,0.00,--.--,--.--,true,true,true,true,true,true,false,false,true,true,false,false,0.07,0.04,0.00,0.03,0.00,0.00,0.43,0.21,43.9451667,-78.8988785,17TPJ 68612 67928,0.0,0.0,354.1,3,10,--.--,--.--,--.--,0.0,0.0,0.0,0,0,0,--.--,--.--,--.--
2020-08-02 15:33:21.304,-9.5,-0.3,332,10.0,0.6,-5.8,16.2,16.3,-0.3,50.1,100.2,715.0,00:01:54,173.6,6,99,--.--,41,0000:51:33,11.32,51,0,-1.00,--.--,-11.32,--.--,0,--.--,--.--,--.--,--.--,--.--,--.--,--.--,0,15:33:21,2020-08-02,--.--,--.--,--.--,--.--,--.--,--.--,--.--,0.00,--.--,--.--,true,true,true,true,true,true,false,false,true,true,false,false,0.07,0.04,0.00,0.03,0.00,0.00,0.43,0.21,43.9453136,-78.8989293,17TPJ 68607 67944,0.0,0.0,339.3,3,10,--.--,--.--,--.--,0.0,0.0,0.0,0,0,0,--.--,--.--,--.--
