Timestamp,roll,pitch,heading,rollRate,pitchRate,yawRate,groundSpeed,airSpeed,climbRate,altitudeRelative,altitudeAMSL,flightDistance,flightTime,distanceToHome,headingToNextWP,headingToHome,distanceToGCS,throttlePct,hobbs,battery.voltage,battery.percentRemaining,battery.mahConsumed,battery.current,battery.temperature,battery.instantPower,battery.timeRemaining,battery.chargeState,battery2.voltage,battery2.percentRemaining,battery2.mahConsumed,battery2.current,battery2.temperature,battery2.instantPower,battery2.timeRemaining,battery2.chargeState,clock.currentTime,clock.currentDate,distanceSensor.rotationNone,distanceSensor.rotationYaw45,distanceSensor.rotationYaw90,distanceSensor.rotationYaw135,distanceSensor.rotationYaw180,distanceSensor.rotationYaw225,distanceSensor.rotationYaw270,distanceSensor.rotationYaw315,distanceSensor.rotationPitch90,distanceSensor.rotationPitch270,estimatorStatus.goodAttitudeEsimate,estimatorStatus.goodHorizVelEstimate,estimatorStatus.goodVertVelEstimate,estimatorStatus.goodHorizPosRelEstimate,estimatorStatus.goodHorizPosAbsEstimate,estimatorStatus.goodVertPosAbsEstimate,estimatorStatus.goodVertPosAGLEstimate,estimatorStatus.goodConstPosModeEstimate,estimatorStatus.goodPredHorizPosRelEstimate,estimatorStatus.goodPredHorizPosAbsEstimate,estimatorStatus.gpsGlitch,estimatorStatus.accelError,estimatorStatus.velRatio,estimatorStatus.horizPosRatio,estimatorStatus.vertPosRatio,estimatorStatus.magRatio,estimatorStatus.haglRatio,estimatorStatus.tasRatio,estimatorStatus.horizPosAccuracy,estimatorStatus.vertPosAccuracy,gps.lat,gps.lon,gps.mgrs,gps.hdop,gps.vdop,gps.courseOverGround,gps.lock,gps.count,temperature.temperature1,temperature.temperature2,temperature.temperature3,vibration.xAxis,vibration.yAxis,vibration.zAxis,vibration.clipCount1,vibration.clipCount2,vibration.clipCount3,wind.direction,wind.speed,wind.verticalSpeed
2020-08-02 13:54:55.808,-1.2,-0.7,98,-26.5,0.4,-0.3,0.0,4.2,0.1,0.0,50.2,0.0,00:00:00,0.0,308,--.--,--.--,35,0002:27:50,12.14,100,0,-1.00,--.--,-12.14,--.--,0,--.--,--.--,--.--,--.--,--.--,--.--,--.--,0,13:54:55,2020-08-02,1.03,--.--,--.--,--.--,--.--,--.--,--.--,0.00,--.--,--.--,true,true,true,true,true,true,true,false,true,true,false,false,0.01,0.00,0.00,0.00,0.00,0.00,0.46,0.21,43.9451549,-78.8968510,17TPJ 68774 67931,0.0,0.0,83.7,3,10,--.--,--.--,--.--,0.0,0.0,0.0,0,0,0,--.--,--.--,--.--
2020-08-02 13:54:56.810,-1.0,-0.7,99,-4.5,7.4,-2.9,0.0,3.0,1.2,0.7,50.9,0.0,00:00:01,0.0,308,--.--,--.--,48,0002:27:50,12.12,99,0,-1.00,--.--,-12.12,--.--,0,--.--,--.--,--.--,--.--,--.--,--.--,--.--,0,13:54:56,2020-08-02,1.03,--.--,--.--,--.--,--.--,--.--,--.--,0.00,--.--,--.--,true,true,true,true,true,true,true,false,true,true,false,false,0.01,0.00,0.00,0.00,0.00,0.00,0.46,0.21,43.9451549,-78.8968510,17TPJ 68774 67931,0.0,0.0,311.1,3,10,--.--,--.--,--.--,0.0,0.0,0.0,0,0,0,--.--,--.--,--.--
2020-08-02 13:54:57.809,-0.8,-0.8,99,-0.2,2.7,-3.7,0.0,-3.5,2.4,2.5,52.8,0.0,00:00:02,0.0,308,--.--,--.--,42,0002:27:50,12.10,98,0,-1.00,--.--,-12.10,--.--,0,--.--,--.--,--.--,--.--,--.--,--.--,--.--,0,13:54:57,2020-08-02,4.92,--.--,--.--,--.--,--.--,--.--,--.--,0.00,--.--,--.--,true,true,true,true,true,true,true,false,true,true,false,false,0.02,0.01,0.01,0.01,0.00,0.00,0.44,0.21,43.9451546,-78.8968511,17TPJ 68774 67931,0.0,0.0,215.0,3,10,--.--,--.--,--.--,0.0,0.0,0.0,0,0,0,--.--,--.--,--.--
2020-08-02 13:54:58.810,-1.2,-1.0,99,1.6,-6.3,3.3,0.0,2.5,1.7,4.6,54.8,0.0,00:00:03,0.1,308,--.--,--.--,44,0002:27:50,12.07,96,0,-1.00,--.--,-12.07,--.--,0,--.--,--.--,--.--,--.--,--.--,--.--,--.--,0,13:54:58,2020-08-02,4.92,--.--,--.--,--.--,--.--,--.--,--.--,0.00,--.--,--.--,true,true,true,true,true,true,true,false,true,true,false,false,0.02,0.01,0.01,0.01,0.00,0.00,0.44,0.21,43.9451544,-78.8968516,17TPJ 68774 67931,0.0,0.0,219.8,3,10,--.--,--.--,--.--,0.0,0.0,0.0,0,0,0,--.--,--.--,--.--
2020-08-02 13:54:59.811,-1.4,-1.2,99,-4.3,2.6,0.4,0.0,2.3,1.5,6.2,56.5,0.0,00:00:04,0.1,308,--.--,--.--,45,0002:27:50,12.05,94,0,-1.00,--.--,-12.05,--.--,0,--.--,--.--,--.--,--.--,--.--,--.--,--.--,0,13:54:59,2020-08-02,5.00,--.--,--.--,--.--,--.--,--.--,--.--,0.00,--.--,--.--,true,true,true,true,true,true,false,false,true,true,false,false,0.01,0.01,0.01,0.00,0.00,0.00,0.44,0.21,43.9451542,-78.8968519,17TPJ 68774 67931,0.0,0.0,311.0,3,10,--.--,--.--,--.--,0.0,0.0,0.0,0,0,0,--.--,--.--,--.--
2020-08-02 13:55:00.811,-1.0,-1.3,99,13.7,9.2,1.7,0.0,-4.3,1.5,7.8,58.0,0.0,00:00:05,0.0,308,--.--,--.--,45,0002:27:50,12.02,93,0,-1.00,--.--,-12.02,--.--,0,--.--,--.--,--.--,--.--,--.--,--.--,--.--,0,13:55:00,2020-08-02,5.00,--.--,--.--,--.--,--.--,--.--,--.--,0.00,--.--,--.--,true,true,true,true,true,true,false,false,true,true,false,false,0.01,0.01,0.01,0.00,0.00,0.00,0.44,0.21,43.9451543,-78.8968517,17TPJ 68774 67931,0.0,0.0,29.3,3,10,--.--,--.--,--.--,0.0,0.0,0.0,0,0,0,--.--,--.--,--.--
2020-08-02 13:55:01.810,-1.1,-1.1,99,-6.2,-0.7,2.9,0.0,-0.7,1.5,9.3,59.5,0.0,00:00:06,0.0,308,--.--,--.--,45,0002:27:50,11.99,91,0,-1.00,--.--,-11.99,--.--,0,--.--,--.--,--.--,--.--,--.--,--.--,--.--,0,13:55:01,2020-08-02,5.00,--.--,--.--,--.--,--.--,--.--,--.--,0.00,--.--,--.--,true,true,true,true,true,true,false,false,true,true,false,false,0.02,0.00,0.00,0.00,0.00,0.00,0.44,0.21,43.9451546,-78.8968512,17TPJ 68774 67931,0.0,0.0,64.0,3,10,--.--,--.--,--.--,0.0,0.0,0.0,0,0,0,--.--,--.--,--.--
2020-08-02 13:55:02.812,-0.8,-0.7,99,7.4,-0.9,-2.4,0.0,-3.8,2.1,11.0,61.2,0.0,00:00:07,0.0,308,--.--,--.--,55,0002:27:50,11.97,89,0,-1.00,--.--,-11.97,--.--,0,--.--,--.--,--.--,--.--,--.--,--.--,--.--,0,13:55:02,2020-08-02,5.00,--.--,--.--,--.--,--.--,--.--,--.--,0.00,--.--,--.--,true,true,true,true,true,true,false,false,true,true,false,false,0.02,0.00,0.00,0.00,0.00,0.00,0.44,0.21,43.9451548,-78.8968506,17TPJ 68774 67931,0.0,0.0,39.7,3,10,--.--,--.--,--.--,0.0,0.0,0.0,0,0,0,--.--,--.--,--.--
2020-08-02 13:55:03.812,-0.9,-0.7,99,-6.7,5.7,-1.9,0.0,4.0,3.0,13.9,64.1,0.0,00:00:08,0.0,308,--.--,--.--,47,0002:27:50,11.94,88,0,-1.00,--.--,-11.94,--.--,0,--.--,--.--,--.--,--.--,--.--,--.--,--.--,0,13:55:03,2020-08-02,5.00,--.--,--.--,--.--,--.--,--.--,--.--,0.00,--.--,--.--,true,true,true,true,true,true,false,false,true,true,false,false,0.02,0.00,0.03,0.04,0.00,0.00,0.43,0.21,43.9451548,-78.8968504,17TPJ 68774 67931,0.0,0.0,153.8,3,10,--.--,--.--,--.--,0.0,0.0,0.0,0,0,0,--.--,--.--,--.--
2020-08-02 13:55:04.804,-1.2,-1.1,99,3.8,8.0,1.0,0.0,-3.1,3.0,16.9,67.1,0.0,00:00:09,0.0,308,--.--,--.--,46,0002:27:50,11.91,86,0,-1.00,--.--,-11.91,--.--,0,--.--,--.--,--.--,--.--,--.--,--.--,--.--,0,13:55:04,2020-08-02,5.00,--.--,--.--,--.--,--.--,--.--,--.--,0.00,--.--,--.--,true,true,true,true,true,true,false,false,true,true,false,false,0.02,0.00,0.03,0.04,0.00,0.00,0.43,0.21,43.9451545,-78.8968505,17TPJ 68774 67931,0.0,0.0,228.1,3,10,--.--,--.--,--.--,0.0,0.0,0.0,0,0,0,--.--,--.--,--.--
2020-08-02 13:55:05.813,-1.4,-1.1,99,1.9,2.5,-0.3,0.0,2.5,3.0,19.9,70.1,0.0,00:00:10,0.0,308,--.--,--.--,47,0002:27:50,11.88,84,0,-1.00,--.--,-11.88,--.--,0,--.--,--.--,--.--,--.--,--.--,--.--,--.--,0,13:55:05,2020-08-02,5.00,--.--,--.--,--.--,--.--,--.--,--.--,0.00,--.--,--.--,true,true,true,true,true,true,false,false,true,true,false,false,0.01,0.00,0.00,0.01,0.00,0.00,0.42,0.20,43.9451544,-78.8968506,17TPJ 68774 67931,0.0,0.0,131.1,3,10,--.--,--.--,--.--,0.0,0.0,0.0,0,0,0,--.--,--.--,--.--
2020-08-02 13:55:06.813,-1.4,-1.1,99,-1.8,-1.3,-6.2,0.0,2.4,3.0,22.9,73.1,0.0,00:00:11,0.0,308,--.--,--.--,47,0002:27:50,11.86,83,0,-1.00,--.--,-11.86,--.--,0,--.--,--.--,--.--,--.--,--.--,--.--,--.--,0,13:55:06,2020-08-02,5.00,--.--,--.--,--.--,--.--,--.--,--.--,0.00,--.--,--.--,true,true,true,true,true,true,false,false,true,true,false,false,0.01,0.00,0.00,0.01,0.00,0.00,0.42,0.20,43.9451546,-78.8968504,17TPJ 68774 67931,0.0,0.0,17.8,3,10,--.--,--.--,--.--,0.0,0.0,0.0,0,0,0,--.--,--.--,--.--
2020-08-02 13:55:07.813,-1.1,-1.2,99,0.2,5.2,-5.1,0.0,3.6,3.0,25.9,76.1,0.0,00:00:12,0.0,308,--.--,--.--,47,0002:27:50,11.83,81,0,-1.00,--.--,-11.83,--.--,0,--.--,--.--,--.--,--.--,--.--,--.--,--.--,0,13:55:07,2020-08-02,5.00,--.--,--.--,--.--,--.--,--.--,--.--,0.00,--.--,--.--,true,true,true,true,true,true,false,false,true,true,false,false,0.03,0.01,0.00,0.02,0.00,0.00,0.43,0.21,43.9451548,-78.8968503,17TPJ 68774 67931,0.0,0.0,11.3,3,10,--.--,--.--,--.--,0.0,0.0,0.0,0,0,0,--.--,--.--,--.--
2020-08-02 13:55:08.814,-1.0,-1.1,99,-4.8,10.4,1.0,0.0,-2.7,2.9,28.9,79.1,0.0,00:00:13,0.1,308,--.--,--.--,46,0002:27:50,11.80,79,0,-1.00,--.--,-11.80,--.--,0,--.--,--.--,--.--,--.--,--.--,--.--,--.--,0,13:55:08,2020-08-02,5.00,--.--,--.--,--.--,--.--,--.--,--.--,0.00,--.--,--.--,true,true,true,true,true,true,false,false,true,true,false,false,0.03,0.01,0.00,0.02,0.00,0.00,0.43,0.21,43.9451550,-78.8968500,17TPJ 68774 67931,0.0,0.0,33.9,3,10,--.--,--.--,--.--,0.0,0.0,0.0,0,0,0,--.--,--.--,--.--
2020-08-02 13:55:09.804,-1.0,-1.0,99,0.7,5.3,1.8,0.1,-1.9,2.9,31.8,82.0,0.0,00:00:14,0.1,308,--.--,--.--,47,0002:27:50,11.77,78,0,-1.00,--.--,-11.77,--.--,0,--.--,--.--,--.--,--.--,--.--,--.--,--.--,0,13:55:09,2020-08-02,5.00,--.--,--.--,--.--,--.--,--.--,--.--,0.00,--.--,--.--,true,true,true,true,true,true,false,false,true,true,false,false,0.02,0.01,0.01,0.02,0.00,0.00,0.43,0.21,43.9451552,-78.8968497,17TPJ 68774 67931,0.0,0.0,269.1,3,10,--.--,--.--,--.--,0.0,0.0,0.0,0,0,0,--.--,--.--,--.--
2020-08-02 13:55:10.814,-0.9,-1.0,99,6.6,-1.9,-4.2,0.0,-3.9,2.9,34.7,84.9,0.0,00:00:15,0.1,308,--.--,--.--,47,0002:27:50,11.75,76,0,-1.00,--.--,-11.75,--.--,0,--.--,--.--,--.--,--.--,--.--,--.--,--.--,0,13:55:10,2020-08-02,5.00,--.--,--.--,--.--,--.--,--.--,--.--,0.00,--.--,--.--,true,true,true,true,true,true,false,false,true,true,false,false,0.02,0.01,0.01,0.02,0.00,0.00,0.43,0.21,43.9451553,-78.8968494,17TPJ 68774 67931,0.0,0.0,189.5,3,10,--.--,--.--,--.--,0.0,0.0,0.0,0,0,0,--.--,--.--,--.--
2020-08-02 13:55:11.815,-0.8,-0.9,99,1.5,3.6,-6.7,0.1,1.2,2.9,37.6,87.8,0.0,00:00:16,0.1,308,--.--,--.--,47,0002:27:50,11.72,74,0,-1.00,--.--,-11.72,--.--,0,--.--,--.--,--.--,--.--,--.--,--.--,--.--,0,13:55:11,2020-08-02,5.00,--.--,--.--,--.--,--.--,--.--,--.--,0.00,--.--,--.--,true,true,true,true,true,true,false,false,true,true,false,false,0.02,0.01,0.01,0.04,0.00,0.00,0.42,0.20,43.9451550,-78.8968494,17TPJ 68774 67931,0.0,0.0,206.3,3,10,--.--,--.--,--.--,0.0,0.0,0.0,0,0,0,--.--,--.--,--.--
2020-08-02 13:55:12.815,-0.9,-0.9,99,0.2,9.7,0.9,0.1,1.1,2.8,40.4,90.7,0.0,00:00:17,0.1,308,--.--,--.--,46,0002:27:50,11.69,73,0,-1.00,--.--,-11.69,--.--,0,--.--,--.--,--.--,--.--,--.--,--.--,--.--,0,13:55:12,2020-08-02,5.00,--.--,--.--,--.--,--.--,--.--,--.--,0.00,--.--,--.--,true,true,true,true,true,true,false,false,true,true,false,false,0.02,0.01,0.01,0.04,0.00,0.00,0.42,0.20,43.9451547,-78.8968493,17TPJ 68774 67931,0.0,0.0,207.8,3,10,--.--,--.--,--.--,0.0,0.0,0.0,0,0,0,--.--,--.--,--.--
2020-08-02 13:55:13.804,-1.5,-1.2,99,-3.7,-3.5,-3.2,0.1,-2.1,2.1,43.0,93.2,0.0,00:00:18,0.1,308,--.--,--.--,44,0002:27:50,11.66,71,0,-1.00,--.--,-11.66,--.--,0,--.--,--.--,--.--,--.--,--.--,--.--,--.--,0,13:55:13,2020-08-02,5.00,--.--,--.--,--.--,--.--,--.--,--.--,0.00,--.--,--.--,true,true,true,true,true,true,false,false,true,true,false,false,0.02,0.01,0.01,0.04,0.00,0.00,0.42,0.20,43.9451544,-78.8968496,17TPJ 68774 67931,0.0,0.0,204.9,3,10,--.--,--.--,--.--,0.0,0.0,0.0,0,0,0,--.--,--.--,--.--
2020-08-02 13:55:14.805,-1.6,-1.3,99,-15.7,-0.5,-1.1,0.0,3.1,1.6,44.8,95.0,0.0,00:00:19,0.1,308,--.--,--.--,44,0002:27:50,11.64,69,0,-1.00,--.--,-11.64,--.--,0,--.--,--.--,--.--,--.--,--.--,--.--,--.--,0,13:55:14,2020-08-02,5.00,--.--,--.--,--.--,--.--,--.--,--.--,0.00,--.--,--.--,true,true,true,true,true,true,false,false,true,true,false,false,0.02,0.01,0.00,0.03,0.00,0.00,0.42,0.20,43.9451542,-78.8968499,17TPJ 68774 67931,0.0,0.0,249.7,3,10,--.--,--.--,--.--,0.0,0.0,0.0,0,0,0,--.--,--.--,--.--
2020-08-02 13:55:15.804,-1.4,-1.4,99,6.1,2.4,-4.9,0.0,-3.0,1.2,46.1,96.4,0.0,00:00:20,0.1,308,--.--,--.--,44,0002:27:50,11.61,68,0,-1.00,--.--,-11.61,--.--,0,--.--,--.--,--.--,--.--,--.--,--.--,--.--,0,13:55:15,2020-08-02,5.00,--.--,--.--,--.--,--.--,--.--,--.--,0.00,--.--,--.--,true,true,true,true,true,true,false,false,true,true,false,false,0.02,0.01,0.00,0.03,0.00,0.00,0.42,0.20,43.9451543,-78.8968501,17TPJ 68774 67931,0.0,0.0,337.8,3,10,--.--,--.--,--.--,0.0,0.0,0.0,0,0,0,--.--,--.--,--.--
2020-08-02 13:55:16.805,-1.4,-1.2,99,-4.1,-5.7,0.3,0.0,1.9,0.9,47.1,97.4,0.0,00:00:21,0.1,308,--.--,--.--,44,0002:27:50,11.58,66,0,-1.00,--.--,-11.58,--.--,0,--.--,--.--,--.--,--.--,--.--,--.--,--.--,0,13:55:16,2020-08-02,5.00,--.--,--.--,--.--,--.--,--.--,--.--,0.00,--.--,--.--,true,true,true,true,true,true,false,false,true,true,false,false,0.02,0.01,0.00,0.01,0.00,0.00,0.41,0.20,43.9451545,-78.8968500,17TPJ 68774 67931,0.0,0.0,40.2,3,10,--.--,--.--,--.--,0.0,0.0,0.0,0,0,0,--.--,--.--,--.--
2020-08-02 13:55:17.808,-0.9,-1.4,99,9.3,-5.9,-3.3,0.1,-2.8,0.7,47.9,98.1,0.0,00:00:22,0.1,308,--.--,--.--,44,0002:27:50,11.55,64,0,-1.00,--.--,-11.55,--.--,0,--.--,--.--,--.--,--.--,--.--,--.--,--.--,0,13:55:17,2020-08-02,5.00,--.--,--.--,--.--,--.--,--.--,--.--,0.00,--.--,--.--,true,true,true,true,true,true,false,false,true,true,false,false,0.02,0.01,0.00,0.01,0.00,0.00,0.41,0.20,43.9451547,-78.8968498,17TPJ 68774 67931,0.0,0.0,14.8,3,10,--.--,--.--,--.--,0.0,0.0,0.0,0,0,0,--.--,--.--,--.--
2020-08-02 13:55:18.805,-1.0,-1.1,99,6.8,1.8,1.3,0.0,-1.8,0.5,48.5,98.7,0.0,00:00:23,0.1,308,--.--,--.--,44,0002:27:50,11.53,63,0,-1.00,--.--,-11.53,--.--,0,--.--,--.--,--.--,--.--,--.--,--.--,--.--,0,13:55:18,2020-08-02,5.00,--.--,--.--,--.--,--.--,--.--,--.--,0.00,--.--,--.--,true,true,true,true,true,true,false,false,true,true,false,false,0.02,0.01,0.01,0.02,0.00,0.00,0.44,0.21,43.9451548,-78.8968497,17TPJ 68774 67931,0.0,0.0,312.4,3,10,--.--,--.--,--.--,0.0,0.0,0.0,0,0,0,--.--,--.--,--.--
2020-08-02 13:55:19.805,-0.8,-1.2,99,4.6,-2.1,0.6,0.1,3.2,0.3,48.9,99.1,0.0,00:00:24,0.1,308,--.--,--.--,43,0002:27:50,11.50,61,0,-1.00,--.--,-11.50,--.--,0,--.--,--.--,--.--,--.--,--.--,--.--,--.--,0,13:55:19,2020-08-02,5.00,--.--,--.--,--.--,--.--,--.--,--.--,0.00,--.--,--.--,true,true,true,true,true,true,false,false,true,true,false,false,0.02,0.01,0.01,0.02,0.00,0.00,0.44,0.21,43.9451547,-78.8968497,17TPJ 68774 67931,0.0,0.0,311.3,3,10,--.--,--.--,--.--,0.0,0.0,0.0,0,0,0,--.--,--.--,--.--
2020-08-02 13:55:20.805,-1.1,-1.1,99,3.0,-2.2,2.9,0.0,-2.5,0.2,49.2,99.5,0.0,00:00:25,0.1,308,--.--,--.--,44,0002:27:50,11.47,59,0,-1.00,--.--,-11.47,--.--,0,--.--,--.--,--.--,--.--,--.--,--.--,--.--,0,13:55:20,2020-08-02,5.00,--.--,--.--,--.--,--.--,--.--,--.--,0.00,--.--,--.--,true,true,true,true,true,true,false,false,true,true,false,false,0.03,0.01,0.00,0.02,0.00,0.00,0.43,0.21,43.9451546,-78.8968498,17TPJ 68774 67931,0.0,0.0,223.7,3,10,--.--,--.--,--.--,0.0,0.0,0.0,0,0,0,--.--,--.--,--.--
2020-08-02 13:55:21.804,-21.8,18.3,80,58.7,24.0,-25.3,0.9,-2.9,0.2,49.5,99.7,0.0,00:00:26,0.1,308,--.--,--.--,42,0002:27:50,11.44,58,0,-1.00,--.--,-11.44,--.--,0,--.--,--.--,--.--,--.--,--.--,--.--,--.--,0,13:55:21,2020-08-02,5.00,--.--,--.--,--.--,--.--,--.--,--.--,0.00,--.--,--.--,true,true,true,true,true,true,false,false,true,true,false,false,0.03,0.01,0.00,0.02,0.00,0.00,0.43,0.21,43.9451545,-78.8968502,17TPJ 68774 67931,0.0,0.0,259.4,3,10,--.--,--.--,--.--,0.0,0.0,0.0,0,0,0,--.--,--.--,--.--
2020-08-02 13:55:22.810,-38.1,-6.1,36,-1.0,-6.6,-65.7,4.0,2.4,0.0,49.7,99.9,2.0,00:00:27,2.9,308,124,--.--,54,0002:27:50,11.42,56,0,-1.00,--.--,-11.42,--.--,0,--.--,--.--,--.--,--.--,--.--,--.--,--.--,0,13:55:22,2020-08-02,5.00,--.--,--.--,--.--,--.--,--.--,--.--,0.00,--.--,--.--,true,true,true,true,true,true,false,false,true,true,false,false,0.03,0.00,0.01,0.02,0.00,0.00,0.42,0.21,43.9451552,-78.8968519,17TPJ 68774 67931,0.0,0.0,300.5,3,10,--.--,--.--,--.--,0.0,0.0,0.0,0,0,0,--.--,--.--,--.--
2020-08-02 13:55:23.806,-14.3,-31.1,348,0.8,-4.5,-33.4,4.6,3.5,0.1,49.7,99.9,6.2,00:00:28,7.5,308,122,--.--,55,0002:27:50,11.39,54,0,-1.00,--.--,-11.39,--.--,0,--.--,--.--,--.--,--.--,--.--,--.--,--.--,0,13:55:23,2020-08-02,5.00,--.--,--.--,--.--,--.--,--.--,--.--,0.00,--.--,--.--,true,true,true,true,true,true,false,false,true,true,false,false,0.03,0.00,0.01,0.02,0.00,0.00,0.42,0.21,43.9451669,-78.8968813,17TPJ 68772 67932,0.0,0.0,298.9,3,10,--.--,--.--,--.--,0.0,0.0,0.0,0,0,0,--.--,--.--,--.--
2020-08-02 13:55:24.805,4.9,-35.2,313,-10.5,-2.3,-12.7,4.5,2.5,0.2,49.7,99.9,12.3,00:00:29,12.5,308,124,--.--,54,0002:27:50,11.36,53,0,-1.00,--.--,-11.36,--.--,0,--.--,--.--,--.--,--.--,--.--,--.--,--.--,0,13:55:24,2020-08-02,5.00,--.--,--.--,--.--,--.--,--.--,--.--,0.00,--.--,--.--,true,true,true,true,true,true,false,false,true,true,false,false,0.27,0.03,0.00,0.02,0.00,0.00,0.42,0.20,43.9451904,-78.8969363,17TPJ 68767 67935,0.0,0.0,304.1,3,10,--.--,--.--,--.--,0.0,0.0,0.0,0,0,0,--.--,--.--,--.--
2020-08-02 13:55:25.805,7.6,-34.5,308,11.0,7.8,-5.1,4.8,4.9,0.2,49.7,99.9,16.4,00:00:30,17.7,308,126,--.--,55,0002:27:50,11.34,51,0,-1.00,--.--,-11.34,--.--,0,--.--,--.--,--.--,--.--,--.--,--.--,--.--,0,13:55:25,2020-08-02,5.00,--.--,--.--,--.--,--.--,--.--,--.--,0.00,--.--,--.--,true,true,true,true,true,true,false,false,true,true,false,false,0.27,0.03,0.00,0.02,0.00,0.00,0.42,0.20,43.9452192,-78.8969886,17TPJ 68763 67938,0.0,0.0,309.5,3,10,--.--,--.--,--.--,0.0,0.0,0.0,0,0,0,--.--,--.--,--.--
2020-08-02 13:55:26.805,6.7,-32.3,307,4.6,7.8,-2.3,4.7,4.7,0.2,49.7,99.9,22.6,00:00:31,23.0,308,127,--.--,54,0002:27:50,11.33,51,0,-1.00,--.--,-11.33,--.--,0,--.--,--.--,--.--,--.--,--.--,--.--,--.--,0,13:55:26,2020-08-02,5.00,--.--,--.--,--.--,--.--,--.--,--.--,0.00,--.--,--.--,true,true,true,true,true,true,false,false,true,true,false,false,0.23,0.08,0.00,0.01,0.00,0.00,0.42,0.20,43.9452512,-78.8970403,17TPJ 68759 67941,0.0,0.0,311.4,3,10,--.--,--.--,--.--,0.0,0.0,0.0,0,0,0,--.--,--.--,--.--
2020-08-02 13:55:27.804,6.2,-31.8,307,22.0,4.1,0.1,4.5,4.5,0.2,49.7,99.9,26.7,00:00:32,28.1,308,128,--.--,53,0002:27:50,11.33,51,0,-1.00,--.--,-11.33,--.--,0,--.--,--.--,--.--,--.--,--.--,--.--,--.--,0,13:55:27,2020-08-02,5.00,--.--,--.--,--.--,--.--,--.--,--.--,0.00,--.--,--.--,true,true,true,true,true,true,false,false,true,true,false,false,0.23,0.08,0.00,0.01,0.00,0.00,0.42,0.20,43.9452830,-78.8970902,17TPJ 68755 67945,0.0,0.0,311.0,3,10,--.--,--.--,--.--,0.0,0.0,0.0,0,0,0,--.--,--.--,--.--
2020-08-02 13:55:28.820,5.5,-33.3,307,1.0,-0.6,-1.4,4.6,0.3,0.1,49.7,100.0,32.8,00:00:33,32.9,308,128,--.--,54,0002:27:50,11.33,51,0,-1.00,--.--,-11.33,--.--,0,--.--,--.--,--.--,--.--,--.--,--.--,--.--,0,13:55:28,2020-08-02,5.00,--.--,--.--,--.--,--.--,--.--,--.--,0.00,--.--,--.--,true,true,true,true,true,true,false,false,true,true,false,false,0.10,0.08,0.01,0.02,0.00,0.00,0.42,0.20,43.9453065,-78.8971279,17TPJ 68752 67947,0.0,0.0,310.8,3,10,--.--,--.--,--.--,0.0,0.0,0.0,0,0,0,--.--,--.--,--.--
2020-08-02 13:55:29.807,5.6,-33.8,307,1.6,8.4,-3.0,4.8,3.3,0.1,49.8,100.0,37.0,00:00:34,37.7,308,128,--.--,54,0002:27:50,11.32,51,0,-1.00,--.--,-11.32,--.--,0,--.--,--.--,--.--,--.--,--.--,--.--,--.--,0,13:55:29,2020-08-02,5.00,--.--,--.--,--.--,--.--,--.--,--.--,0.00,--.--,--.--,true,true,true,true,true,true,false,false,true,true,false,false,0.10,0.08,0.01,0.02,0.00,0.00,0.42,0.20,43.9453348,-78.8971746,17TPJ 68748 67950,0.0,0.0,309.1,3,10,--.--,--.--,--.--,0.0,0.0,0.0,0,0,0,--.--,--.--,--.--
2020-08-02 13:55:30.805,5.5,-33.4,308,3.1,7.4,-0.7,4.8,4.5,0.1,49.9,100.1,41.0,00:00:35,42.6,308,128,--.--,54,0002:27:50,11.32,51,0,-1.00,--.--,-11.32,--.--,0,--.--,--.--,--.--,--.--,--.--,--.--,--.--,0,13:55:30,2020-08-02,5.00,--.--,--.--,--.--,--.--,--.--,--.--,0.00,--.--,--.--,true,true,true,true,true,true,false,false,true,true,false,false,0.06,0.04,0.00,0.02,0.00,0.00,0.44,0.21,43.9453625,-78.8972231,17TPJ 68744 67953,0.0,0.0,308.1,3,10,--.--,--.--,--.--,0.0,0.0,0.0,0,0,0,--.--,--.--,--.--
2020-08-02 13:55:31.805,5.5,-33.1,308,-5.0,9.6,-6.7,4.8,4.6,0.1,49.9,100.1,47.2,00:00:36,47.5,308,128,--.--,54,0002:27:50,11.32,51,0,-1.00,--.--,-11.32,--.--,0,--.--,--.--,--.--,--.--,--.--,--.--,--.--,0,13:55:31,2020-08-02,5.00,--.--,--.--,--.--,--.--,--.--,--.--,0.00,--.--,--.--,true,true,true,true,true,true,false,false,true,true,false,false,0.06,0.04,0.00,0.02,0.00,0.00,0.44,0.21,43.9453905,-78.8972727,17TPJ 68740 67956,0.0,0.0,307.9,3,10,--.--,--.--,--.--,0.0,0.0,0.0,0,0,0,--.--,--.--,--.--
2020-08-02 13:55:32.804,5.7,-33.2,307,7.1,-0.4,-2.8,4.8,3.0,0.0,49.9,100.2,51.3,00:00:37,52.6,308,128,--.--,53,0002:27:50,11.32,51,0,-1.00,--.--,-11.32,--.--,0,--.--,--.--,--.--,--.--,--.--,--.--,--.--,0,13:55:32,2020-08-02,5.00,--.--,--.--,--.--,--.--,--.--,--.--,0.00,--.--,--.--,true,true,true,true,true,true,false,false,true,true,false,false,0.05,0.06,0.01,0.01,0.00,0.00,0.43,0.21,43.9454186,-78.8973222,17TPJ 68736 67959,0.0,0.0,308.1,3,10,--.--,--.--,--.--,0.0,0.0,0.0,0,0,0,--.--,--.--,--.--
2020-08-02 13:55:33.821,5.4,-33.8,307,-5.8,9.8,-2.5,4.8,4.9,0.0,50.0,100.2,57.5,00:00:38,57.5,308,128,--.--,54,0002:27:50,11.32,51,0,-1.00,--.--,-11.32,--.--,0,--.--,--.--,--.--,--.--,--.--,--.--,--.--,0,13:55:33,2020-08-02,5.00,--.--,--.--,--.--,--.--,--.--,--.--,0.00,--.--,--.--,true,true,true,true,true,true,false,false,true,true,false,false,0.05,0.06,0.01,0.01,0.00,0.00,0.43,0.21,43.9454464,-78.8973713,17TPJ 68732 67962,0.0,0.0,308.5,3,10,--.--,--.--,--.--,0.0,0.0,0.0,0,0,0,--.--,--.--,--.--
2020-08-02 13:55:34.806,5.6,-34.0,308,-2.6,6.7,2.2,4.9,5.4,-0.0,50.0,100.2,61.6,00:00:39,62.4,308,128,--.--,53,0002:27:50,11.32,51,0,-1.00,--.--,-11.32,--.--,0,--.--,--.--,--.--,--.--,--.--,--.--,--.--,0,13:55:34,2020-08-02,5.00,--.--,--.--,--.--,--.--,--.--,--.--,0.00,--.--,--.--,true,true,true,true,true,true,false,false,true,true,false,false,0.03,0.01,0.00,0.00,0.00,0.00,0.42,0.20,43.9454741,-78.8974203,17TPJ 68728 67965,0.0,0.0,307.5,3,10,--.--,--.--,--.--,0.0,0.0,0.0,0,0,0,--.--,--.--,--.--
2020-08-02 13:55:35.822,5.4,-33.6,308,-9.9,-1.4,3.5,4.9,4.9,-0.0,50.0,100.2,65.6,00:00:40,67.4,308,128,--.--,53,0002:27:50,11.32,51,0,-1.00,--.--,-11.32,--.--,0,--.--,--.--,--.--,--.--,--.--,--.--,--.--,0,13:55:35,2020-08-02,5.00,--.--,--.--,--.--,--.--,--.--,--.--,0.00,--.--,--.--,true,true,true,true,true,true,false,false,true,true,false,false,0.03,0.01,0.00,0.00,0.00,0.00,0.42,0.20,43.9455021,-78.8974705,17TPJ 68724 67968,0.0,0.0,307.6,3,10,--.--,--.--,--.--,0.0,0.0,0.0,0,0,0,--.--,--.--,--.--
2020-08-02 13:55:36.804,5.5,-33.4,307,-17.5,-2.1,1.6,4.9,4.3,-0.0,50.0,100.2,71.7,00:00:41,72.5,308,128,--.--,53,0002:27:50,11.32,51,0,-1.00,--.--,-11.32,--.--,0,--.--,--.--,--.--,--.--,--.--,--.--,--.--,0,13:55:36,2020-08-02,5.00,--.--,--.--,--.--,--.--,--.--,--.--,0.00,--.--,--.--,true,true,true,true,true,true,false,false,true,true,false,false,0.04,0.04,0.00,0.01,0.00,0.00,0.41,0.20,43.9455305,-78.8975213,17TPJ 68719 67971,0.0,0.0,307.7,3,10,--.--,--.--,--.--,0.0,0.0,0.0,0,0,0,--.--,--.--,--.--
2020-08-02 13:55:37.823,5.2,-33.3,308,-0.3,1.1,2.4,4.9,2.9,-0.0,50.0,100.2,75.7,00:00:42,77.5,308,128,--.--,53,0002:27:50,11.32,51,0,-1.00,--.--,-11.32,--.--,0,--.--,--.--,--.--,--.--,--.--,--.--,--.--,0,13:55:37,2020-08-02,5.00,--.--,--.--,--.--,--.--,--.--,--.--,0.00,--.--,--.--,true,true,true,true,true,true,false,false,true,true,false,false,0.04,0.04,0.00,0.01,0.00,0.00,0.41,0.20,43.9455588,-78.8975713,17TPJ 68715 67974,0.0,0.0,308.2,3,10,--.--,--.--,--.--,0.0,0.0,0.0,0,0,0,--.--,--.--,--.--
2020-08-02 13:55:38.809,5.0,-34.5,308,-6.7,-7.7,-2.2,4.9,4.1,-0.0,50.0,100.3,81.8,00:00:43,82.4,308,128,--.--,54,0002:27:50,11.32,51,0,-1.00,--.--,-11.32,--.--,0,--.--,--.--,--.--,--.--,--.--,--.--,--.--,0,13:55:38,2020-08-02,5.00,--.--,--.--,--.--,--.--,--.--,--.--,0.00,--.--,--.--,true,true,true,true,true,true,false,false,true,true,false,false,0.01,0.05,0.00,0.00,0.00,0.00,0.41,0.20,43.9455815,-78.8976110,17TPJ 68712 67977,0.0,0.0,308.3,3,10,--.--,--.--,--.--,0.0,0.0,0.0,0,0,0,--.--,--.--,--.--
2020-08-02 13:55:39.804,5.5,-34.3,307,-6.0,4.4,4.4,5.0,5.6,-0.0,50.0,100.2,86.0,00:00:44,87.3,308,128,--.--,54,0002:27:50,11.32,51,0,-1.00,--.--,-11.32,--.--,0,--.--,--.--,--.--,--.--,--.--,--.--,--.--,0,13:55:39,2020-08-02,5.00,--.--,--.--,--.--,--.--,--.--,--.--,0.00,--.--,--.--,true,true,true,true,true,true,false,false,true,true,false,false,0.01,0.05,0.00,0.00,0.00,0.00,0.41,0.20,43.9456091,-78.8976599,17TPJ 68708 67980,0.0,0.0,308.0,3,10,--.--,--.--,--.--,0.0,0.0,0.0,0,0,0,--.--,--.--,--.--
2020-08-02 13:55:40.808,5.6,-33.9,308,-2.0,12.8,1.7,5.0,4.1,-0.0,50.0,100.2,92.1,00:00:45,92.3,308,128,--.--,54,0002:27:50,11.32,51,0,-1.00,--.--,-11.32,--.--,0,--.--,--.--,--.--,--.--,--.--,--.--,--.--,0,13:55:40,2020-08-02,5.00,--.--,--.--,--.--,--.--,--.--,--.--,0.00,--.--,--.--,true,true,true,true,true,true,false,false,true,true,false,false,0.01,0.01,0.00,0.00,0.00,0.00,0.43,0.20,43.9456373,-78.8977100,17TPJ 68704 67983,0.0,0.0,308.1,3,10,--.--,--.--,--.--,0.0,0.0,0.0,0,0,0,--.--,--.--,--.--
2020-08-02 13:55:41.804,5.6,-33.5,308,-6.6,5.3,-0.6,5.0,3.7,-0.0,50.0,100.2,96.1,00:00:46,97.4,308,128,--.--,54,0002:27:50,11.32,51,0,-1.00,--.--,-11.32,--.--,0,--.--,--.--,--.--,--.--,--.--,--.--,--.--,0,13:55:41,2020-08-02,5.00,--.--,--.--,--.--,--.--,--.--,--.--,0.00,--.--,--.--,true,true,true,true,true,true,false,false,true,true,false,false,0.01,0.01,0.00,0.00,0.00,0.00,0.43,0.20,43.9456659,-78.8977607,17TPJ 68700 67986,0.0,0.0,308.5,3,10,--.--,--.--,--.--,0.0,0.0,0.0,0,0,0,--.--,--.--,--.--
2020-08-02 13:55:42.804,5.2,-33.4,307,-17.6,1.6,1.7,4.9,3.9,-0.0,50.0,100.2,102.2,00:00:47,102.3,308,128,--.--,54,0002:27:50,11.32,51,0,-1.00,--.--,-11.32,--.--,0,--.--,--.--,--.--,--.--,--.--,--.--,--.--,0,13:55:42,2020-08-02,5.00,--.--,--.--,--.--,--.--,--.--,--.--,0.00,--.--,--.--,true,true,true,true,true,true,false,false,true,true,false,false,0.02,0.04,0.00,0.01,0.00,0.00,0.42,0.20,43.9456946,-78.8978109,17TPJ 68696 67989,0.0,0.0,308.6,3,10,--.--,--.--,--.--,0.0,0.0,0.0,0,0,0,--.--,--.--,--.--
2020-08-02 13:55:43.804,5.2,-34.1,307,-24.6,3.6,4.8,4.9,4.6,-0.0,50.0,100.3,106.2,00:00:48,107.2,308,128,--.--,53,0002:27:50,11.32,51,0,-1.00,--.--,-11.32,--.--,0,--.--,--.--,--.--,--.--,--.--,--.--,--.--,0,13:55:43,2020-08-02,5.00,--.--,--.--,--.--,--.--,--.--,--.--,0.00,--.--,--.--,true,true,true,true,true,true,false,false,true,true,false,false,0.02,0.04,0.00,0.01,0.00,0.00,0.42,0.20,43.9457231,-78.8978605,17TPJ 68692 67992,0.0,0.0,308.6,3,10,--.--,--.--,--.--,0.0,0.0,0.0,0,0,0,--.--,--.--,--.--
2020-08-02 13:55:44.804,5.0,-34.3,308,0.5,-4.7,4.7,5.0,4.1,0.0,50.0,100.3,110.3,00:00:49,112.2,308,128,--.--,53,0002:27:50,11.32,51,0,-1.00,--.--,-11.32,--.--,0,--.--,--.--,--.--,--.--,--.--,--.--,--.--,0,13:55:44,2020-08-02,5.00,--.--,--.--,--.--,--.--,--.--,--.--,0.00,--.--,--.--,true,true,true,true,true,true,false,false,true,true,false,false,0.01,0.03,0.00,0.02,0.00,0.00,0.42,0.20,43.9457513,-78.8979096,17TPJ 68688 67995,0.0,0.0,308.3,3,10,--.--,--.--,--.--,0.0,0.0,0.0,0,0,0,--.--,--.--,--.--
2020-08-02 13:55:45.809,5.1,-33.6,307,-1.1,-1.4,-3.6,4.9,2.9,-0.0,50.0,100.3,116.5,00:00:50,117.3,308,128,--.--,54,0002:27:50,11.32,51,0,-1.00,--.--,-11.32,--.--,0,--.--,--.--,--.--,--.--,--.--,--.--,--.--,0,13:55:45,2020-08-02,5.00,--.--,--.--,--.--,--.--,--.--,--.--,0.00,--.--,--.--,true,true,true,true,true,true,false,false,true,true,false,false,0.01,0.03,0.00,0.02,0.00,0.00,0.42,0.20,43.9457795,-78.8979595,17TPJ 68684 67998,0.0,0.0,308.1,3,10,--.--,--.--,--.--,0.0,0.0,0.0,0,0,0,--.--,--.--,--.--
2020-08-02 13:55:46.804,4.9,-33.4,307,-3.9,-2.5,1.0,4.9,2.8,-0.0,50.0,100.3,120.5,00:00:51,122.3,308,128,--.--,53,0002:27:50,11.32,51,0,-1.00,--.--,-11.32,--.--,0,--.--,--.--,--.--,--.--,--.--,--.--,--.--,0,13:55:46,2020-08-02,5.00,--.--,--.--,--.--,--.--,--.--,--.--,0.00,--.--,--.--,true,true,true,true,true,true,false,false,true,true,false,false,0.01,0.03,0.00,0.00,0.00,0.00,0.42,0.20,43.9458079,-78.8980100,17TPJ 68679 68001,0.0,0.0,308.2,3,10,--.--,--.--,--.--,0.0,0.0,0.0,0,0,0,--.--,--.--,--.--
2020-08-02 13:55:47.808,5.2,-34.7,307,1.4,2.1,0.3,5.0,5.4,-0.0,50.0,100.3,126.6,00:00:52,127.1,308,128,--.--,54,0002:27:50,11.32,51,0,-1.00,--.--,-11.32,--.--,0,--.--,--.--,--.--,--.--,--.--,--.--,--.--,0,13:55:47,2020-08-02,5.00,--.--,--.--,--.--,--.--,--.--,--.--,0.00,--.--,--.--,true,true,true,true,true,true,false,false,true,true,false,false,0.01,0.03,0.00,0.00,0.00,0.00,0.42,0.20,43.9458300,-78.8980493,17TPJ 68676 68004,0.0,0.0,308.1,3,10,--.--,--.--,--.--,0.0,0.0,0.0,0,0,0,--.--,--.--,--.--
2020-08-02 13:55:48.804,5.3,-34.6,308,-5.7,8.6,2.0,5.1,4.6,-0.0,50.0,100.2,130.7,00:00:53,132.1,308,128,--.--,54,0002:27:50,11.32,51,0,-1.00,--.--,-11.32,--.--,0,--.--,--.--,--.--,--.--,--.--,--.--,--.--,0,13:55:48,2020-08-02,5.00,--.--,--.--,--.--,--.--,--.--,--.--,0.00,--.--,--.--,true,true,true,true,true,true,false,false,true,true,false,false,0.01,0.02,0.01,0.01,0.00,0.00,0.43,0.20,43.9458578,-78.8980993,17TPJ 68672 68006,0.0,0.0,307.6,3,10,--.--,--.--,--.--,0.0,0.0,0.0,0,0,0,--.--,--.--,--.--
2020-08-02 13:55:49.811,5.3,-33.7,307,-3.7,3.0,5.4,5.0,5.0,-0.0,50.0,100.2,136.8,00:00:54,137.2,308,128,--.--,54,0002:27:50,11.32,51,0,-1.00,--.--,-11.32,--.--,0,--.--,--.--,--.--,--.--,--.--,--.--,--.--,0,13:55:49,2020-08-02,5.00,--.--,--.--,--.--,--.--,--.--,--.--,0.00,--.--,--.--,true,true,true,true,true,true,false,false,true,true,false,false,0.01,0.02,0.01,0.01,0.00,0.00,0.43,0.20,43.9458861,-78.8981500,17TPJ 68668 68010,0.0,0.0,307.8,3,10,--.--,--.--,--.--,0.0,0.0,0.0,0,0,0,--.--,--.--,--.--
2020-08-02 13:55:50.814,5.0,-33.4,308,-25.6,-5.0,3.0,5.0,4.9,0.0,50.0,100.2,140.8,00:00:55,142.2,308,128,--.--,53,0002:27:50,11.32,51,0,-1.00,--.--,-11.32,--.--,0,--.--,--.--,--.--,--.--,--.--,--.--,--.--,0,13:55:50,2020-08-02,5.00,--.--,--.--,--.--,--.--,--.--,--.--,0.00,--.--,--.--,true,true,true,true,true,true,false,false,true,true,false,false,0.01,0.02,0.00,0.00,0.00,0.00,0.43,0.20,43.9459146,-78.8982012,17TPJ 68664 68013,0.0,0.0,307.6,3,10,--.--,--.--,--.--,0.0,0.0,0.0,0,0,0,--.--,--.--,--.--
2020-08-02 13:55:51.811,5.3,-33.4,307,-5.4,-1.8,4.0,4.9,5.4,0.0,50.0,100.2,146.8,00:00:56,147.3,308,128,--.--,54,0002:27:50,11.32,51,0,-1.00,--.--,-11.32,--.--,0,--.--,--.--,--.--,--.--,--.--,--.--,--.--,0,13:55:51,2020-08-02,5.00,--.--,--.--,--.--,--.--,--.--,--.--,0.00,--.--,--.--,true,true,true,true,true,true,false,false,true,true,false,false,0.01,0.02,0.00,0.00,0.00,0.00,0.43,0.20,43.9459428,-78.8982512,17TPJ 68660 68016,0.0,0.0,308.1,3,10,--.--,--.--,--.--,0.0,0.0,0.0,0,0,0,--.--,--.--,--.--
2020-08-02 13:55:52.812,5.3,-34.6,307,9.1,-3.3,5.0,5.0,4.6,0.0,50.0,100.2,150.9,00:00:57,152.1,308,128,--.--,54,0002:27:50,11.32,51,0,-1.00,--.--,-11.32,--.--,0,--.--,--.--,--.--,--.--,--.--,--.--,--.--,0,13:55:52,2020-08-02,5.00,--.--,--.--,--.--,--.--,--.--,--.--,0.00,--.--,--.--,true,true,true,true,true,true,false,false,true,true,false,false,0.02,0.04,0.00,0.01,0.00,0.00,0.42,0.20,43.9459707,-78.8983009,17TPJ 68656 68019,0.0,0.0,308.3,3,10,--.--,--.--,--.--,0.0,0.0,0.0,0,0,0,--.--,--.--,--.--
2020-08-02 13:55:53.804,5.6,-34.4,308,-1.2,3.5,-2.5,5.0,5.8,0.0,50.0,100.2,157.1,00:00:58,157.0,308,128,--.--,54,0002:27:50,11.32,51,0,-1.00,--.--,-11.32,--.--,0,--.--,--.--,--.--,--.--,--.--,--.--,--.--,0,13:55:53,2020-08-02,5.00,--.--,--.--,--.--,--.--,--.--,--.--,0.00,--.--,--.--,true,true,true,true,true,true,false,false,true,true,false,false,0.02,0.04,0.00,0.01,0.00,0.00,0.42,0.20,43.9459988,-78.8983509,17TPJ 68652 68022,0.0,0.0,307.6,3,10,--.--,--.--,--.--,0.0,0.0,0.0,0,0,0,--.--,--.--,--.--
2020-08-02 13:55:54.804,5.1,-33.8,308,-16.1,12.8,0.3,5.0,3.7,0.0,50.0,100.2,161.2,00:00:59,162.2,308,128,--.--,53,0002:27:50,11.32,51,0,-1.00,--.--,-11.32,--.--,0,--.--,--.--,--.--,--.--,--.--,--.--,--.--,0,13:55:54,2020-08-02,5.00,--.--,--.--,--.--,--.--,--.--,--.--,0.00,--.--,--.--,true,true,true,true,true,true,false,false,true,true,false,false,0.02,0.01,0.00,0.01,0.00,0.00,0.42,0.19,43.9460272,-78.8984016,17TPJ 68647 68025,0.0,0.0,307.9,3,10,--.--,--.--,--.--,0.0,0.0,0.0,0,0,0,--.--,--.--,--.--
2020-08-02 13:55:55.804,5.5,-33.5,307,-5.9,6.4,-2.1,5.0,5.1,0.0,50.0,100.2,167.3,00:01:00,167.2,308,128,--.--,54,0002:27:50,11.32,51,0,-1.00,--.--,-11.32,--.--,0,--.--,--.--,--.--,--.--,--.--,--.--,--.--,0,13:55:55,2020-08-02,5.00,--.--,--.--,--.--,--.--,--.--,--.--,0.00,--.--,--.--,true,true,true,true,true,true,false,false,true,true,false,false,0.02,0.01,0.00,0.01,0.00,0.00,0.42,0.19,43.9460560,-78.8984526,17TPJ 68643 68028,0.0,0.0,308.3,3,10,--.--,--.--,--.--,0.0,0.0,0.0,0,0,0,--.--,--.--,--.--
2020-08-02 13:55:56.804,5.1,-33.3,307,-10.6,5.0,-1.7,4.9,4.7,0.0,50.0,100.2,171.3,00:01:01,172.2,308,128,--.--,53,0002:27:50,11.32,51,0,-1.00,--.--,-11.32,--.--,0,--.--,--.--,--.--,--.--,--.--,--.--,--.--,0,13:55:56,2020-08-02,5.00,--.--,--.--,--.--,--.--,--.--,--.--,0.00,--.--,--.--,true,true,true,true,true,true,false,false,true,true,false,false,0.01,0.03,0.00,0.01,0.00,0.00,0.41,0.19,43.9460843,-78.8985027,17TPJ 68639 68031,0.0,0.0,308.4,3,10,--.--,--.--,--.--,0.0,0.0,0.0,0,0,0,--.--,--.--,--.--
2020-08-02 13:55:57.830,5.2,-34.3,307,0.4,-1.4,5.3,4.9,3.7,0.0,50.0,100.2,175.3,00:01:02,177.1,308,128,--.--,54,0002:27:50,11.32,51,0,-1.00,--.--,-11.32,--.--,0,--.--,--.--,--.--,--.--,--.--,--.--,--.--,0,13:55:57,2020-08-02,5.00,--.--,--.--,--.--,--.--,--.--,--.--,0.00,--.--,--.--,true,true,true,true,true,true,false,false,true,true,false,false,0.01,0.03,0.00,0.01,0.00,0.00,0.41,0.19,43.9461068,-78.8985426,17TPJ 68636 68033,0.0,0.0,307.8,3,10,--.--,--.--,--.--,0.0,0.0,0.0,0,0,0,--.--,--.--,--.--
2020-08-02 13:55:58.804,5.4,-34.7,307,7.7,-6.2,-0.8,5.0,3.9,0.0,50.0,100.2,181.5,00:01:03,182.0,308,128,--.--,54,0002:27:50,11.32,51,0,-1.00,--.--,-11.32,--.--,0,--.--,--.--,--.--,--.--,--.--,--.--,--.--,0,13:55:58,2020-08-02,5.00,--.--,--.--,--.--,--.--,--.--,--.--,0.00,--.--,--.--,true,true,true,true,true,true,false,false,true,true,false,false,0.03,0.02,0.00,0.01,0.00,0.00,0.43,0.20,43.9461344,-78.8985919,17TPJ 68632 68036,0.0,0.0,307.5,3,10,--.--,--.--,--.--,0.0,0.0,0.0,0,0,0,--.--,--.--,--.--
2020-08-02 13:55:59.813,5.6,-34.1,308,9.3,1.2,-3.0,5.0,1.2,0.0,50.0,100.2,185.5,00:01:04,187.1,308,128,--.--,53,0002:27:50,11.32,51,0,-1.00,--.--,-11.32,--.--,0,--.--,--.--,--.--,--.--,--.--,--.--,--.--,0,13:55:59,2020-08-02,5.00,--.--,--.--,--.--,--.--,--.--,--.--,0.00,--.--,--.--,true,true,true,true,true,true,false,false,true,true,false,false,0.03,0.02,0.00,0.01,0.00,0.00,0.43,0.20,43.9461624,-78.8986428,17TPJ 68628 68039,0.0,0.0,307.3,3,10,--.--,--.--,--.--,0.0,0.0,0.0,0,0,0,--.--,--.--,--.--
2020-08-02 13:56:00.805,5.6,-33.9,308,-12.9,12.0,-2.2,5.0,4.6,0.0,50.0,100.2,191.6,00:01:05,192.2,308,128,--.--,53,0002:27:50,11.32,51,0,-1.00,--.--,-11.32,--.--,0,--.--,--.--,--.--,--.--,--.--,--.--,--.--,0,13:56:00,2020-08-02,5.00,--.--,--.--,--.--,--.--,--.--,--.--,0.00,--.--,--.--,true,true,true,true,true,true,false,false,true,true,false,false,0.01,0.03,0.01,0.01,0.00,0.00,0.43,0.19,43.9461906,-78.8986937,17TPJ 68623 68042,0.0,0.0,307.8,3,10,--.--,--.--,--.--,0.0,0.0,0.0,0,0,0,--.--,--.--,--.--
2020-08-02 13:56:01.808,5.4,-33.4,308,-10.9,1.2,0.3,4.9,5.8,-0.0,50.0,100.2,195.7,00:01:06,197.2,308,128,--.--,54,0002:27:50,11.32,51,0,-1.00,--.--,-11.32,--.--,0,--.--,--.--,--.--,--.--,--.--,--.--,--.--,0,13:56:01,2020-08-02,5.00,--.--,--.--,--.--,--.--,--.--,--.--,0.00,--.--,--.--,true,true,true,true,true,true,false,false,true,true,false,false,0.01,0.03,0.01,0.01,0.00,0.00,0.43,0.19,43.9462193,-78.8987443,17TPJ 68619 68045,0.0,0.0,308.6,3,10,--.--,--.--,--.--,0.0,0.0,0.0,0,0,0,--.--,--.--,--.--
2020-08-02 13:56:02.804,5.1,-34.7,308,-20.2,1.1,1.0,4.9,4.3,0.0,50.0,100.2,201.8,00:01:07,202.1,308,128,--.--,53,0002:27:50,11.32,51,0,-1.00,--.--,-11.32,--.--,0,--.--,--.--,--.--,--.--,--.--,--.--,--.--,0,13:56:02,2020-08-02,5.00,--.--,--.--,--.--,--.--,--.--,--.--,0.00,--.--,--.--,true,true,true,true,true,true,false,false,true,true,false,false,0.01,0.04,0.01,0.00,0.00,0.00,0.43,0.19,43.9462476,-78.8987936,17TPJ 68615 68048,0.0,0.0,308.5,3,10,--.--,--.--,--.--,0.0,0.0,0.0,0,0,0,--.--,--.--,--.--
2020-08-02 13:56:03.805,5.2,-34.6,308,1.0,3.2,5.1,5.0,4.7,-0.0,50.0,100.3,205.9,00:01:08,207.0,308,128,--.--,54,0002:27:50,11.32,51,0,-1.00,--.--,-11.32,--.--,0,--.--,--.--,--.--,--.--,--.--,--.--,--.--,0,13:56:03,2020-08-02,5.00,--.--,--.--,--.--,--.--,--.--,--.--,0.00,--.--,--.--,true,true,true,true,true,true,false,false,true,true,false,false,0.01,0.04,0.01,0.00,0.00,0.00,0.43,0.19,43.9462757,-78.8988430,17TPJ 68611 68051,0.0,0.0,307.9,3,10,--.--,--.--,--.--,0.0,0.0,0.0,0,0,0,--.--,--.--,--.--
2020-08-02 13:56:04.804,5.3,-34.3,308,9.3,-3.9,5.9,5.0,1.0,-0.0,50.0,100.2,212.0,00:01:09,212.1,308,128,--.--,54,0002:27:50,11.32,51,0,-1.00,--.--,-11.32,--.--,0,--.--,--.--,--.--,--.--,--.--,--.--,--.--,0,13:56:04,2020-08-02,5.00,--.--,--.--,--.--,--.--,--.--,--.--,0.00,--.--,--.--,true,true,true,true,true,true,false,false,true,true,false,false,0.01,0.01,0.00,0.01,0.00,0.00,0.42,0.19,43.9463040,-78.8988932,17TPJ 68607 68054,0.0,0.0,308.0,3,10,--.--,--.--,--.--,0.0,0.0,0.0,0,0,0,--.--,--.--,--.--
2020-08-02 13:56:05.804,5.4,-33.8,307,-6.8,1.7,1.4,5.0,4.0,-0.0,50.0,100.2,216.0,00:01:10,217.0,308,128,--.--,54,0002:27:50,11.32,51,0,-1.00,--.--,-11.32,--.--,0,--.--,--.--,--.--,--.--,--.--,--.--,--.--,0,13:56:05,2020-08-02,5.00,--.--,--.--,--.--,--.--,--.--,--.--,0.00,--.--,--.--,true,true,true,true,true,true,false,false,true,true,false,false,0.01,0.01,0.00,0.01,0.00,0.00,0.42,0.19,43.9463326,-78.8989442,17TPJ 68603 68058,0.0,0.0,307.7,3,10,--.--,--.--,--.--,0.0,0.0,0.0,0,0,0,--.--,--.--,--.--
2020-08-02 13:56:06.804,5.3,-33.7,308,-7.6,7.7,-0.8,4.9,5.3,-0.0,50.0,100.2,222.1,00:01:11,222.1,308,128,--.--,53,0002:27:50,11.32,51,0,-1.00,--.--,-11.32,--.--,0,--.--,--.--,--.--,--.--,--.--,--.--,--.--,0,13:56:06,2020-08-02,5.00,--.--,--.--,--.--,--.--,--.--,--.--,0.00,--.--,--.--,true,true,true,true,true,true,false,false,true,true,false,false,0.02,0.03,0.00,0.01,0.00,0.00,0.41,0.19,43.9463610,-78.8989946,17TPJ 68599 68061,0.0,0.0,308.6,3,10,--.--,--.--,--.--,0.0,0.0,0.0,0,0,0,--.--,--.--,--.--
2020-08-02 13:56:07.804,5.3,-34.5,307,-2.2,0.5,0.5,4.9,3.3,-0.0,50.0,100.3,226.2,00:01:12,227.0,308,128,--.--,54,0002:27:50,11.32,51,0,-1.00,--.--,-11.32,--.--,0,--.--,--.--,--.--,--.--,--.--,--.--,--.--,0,13:56:07,2020-08-02,5.00,--.--,--.--,--.--,--.--,--.--,--.--,0.00,--.--,--.--,true,true,true,true,true,true,false,false,true,true,false,false,0.02,0.03,0.00,0.01,0.00,0.00,0.41,0.19,43.9463835,-78.8990341,17TPJ 68596 68063,0.0,0.0,308.4,3,10,--.--,--.--,--.--,0.0,0.0,0.0,0,0,0,--.--,--.--,--.--
2020-08-02 13:56:08.818,5.1,-34.6,308,-12.6,2.5,1.6,5.0,4.2,-0.0,50.0,100.2,230.2,00:01:13,232.0,308,128,--.--,54,0002:27:50,11.32,51,0,-1.00,--.--,-11.32,--.--,0,--.--,--.--,--.--,--.--,--.--,--.--,--.--,0,13:56:08,2020-08-02,5.00,--.--,--.--,--.--,--.--,--.--,--.--,0.00,--.--,--.--,true,true,true,true,true,true,false,false,true,true,false,false,0.01,0.03,0.00,0.01,0.00,0.00,0.43,0.20,43.9464114,-78.8990831,17TPJ 68592 68066,0.0,0.0,308.1,3,10,--.--,--.--,--.--,0.0,0.0,0.0,0,0,0,--.--,--.--,--.--
2020-08-02 13:56:09.806,5.5,-34.3,308,-1.1,4.2,0.4,5.1,4.0,-0.0,50.0,100.3,236.3,00:01:14,237.0,308,128,--.--,54,0002:27:50,11.32,51,0,-1.00,--.--,-11.32,--.--,0,--.--,--.--,--.--,--.--,--.--,--.--,--.--,0,13:56:09,2020-08-02,5.00,--.--,--.--,--.--,--.--,--.--,--.--,0.00,--.--,--.--,true,true,true,true,true,true,false,false,true,true,false,false,0.01,0.03,0.00,0.01,0.00,0.00,0.43,0.20,43.9464399,-78.8991336,17TPJ 68587 68069,0.0,0.0,307.7,3,10,--.--,--.--,--.--,0.0,0.0,0.0,0,0,0,--.--,--.--,--.--
2020-08-02 13:56:10.819,5.4,-33.7,308,1.8,4.5,1.7,5.0,1.6,-0.0,50.0,100.3,240.4,00:01:15,242.1,308,128,--.--,54,0002:27:50,11.32,51,0,-1.00,--.--,-11.32,--.--,0,--.--,--.--,--.--,--.--,--.--,--.--,--.--,0,13:56:10,2020-08-02,5.00,--.--,--.--,--.--,--.--,--.--,--.--,0.00,--.--,--.--,true,true,true,true,true,true,false,false,true,true,false,false,0.01,0.02,0.00,0.01,0.00,0.00,0.43,0.19,43.9464685,-78.8991845,17TPJ 68583 68072,0.0,0.0,308.3,3,10,--.--,--.--,--.--,0.0,0.0,0.0,0,0,0,--.--,--.--,--.--
2020-08-02 13:56:11.804,5.1,-33.5,307,-5.2,1.3,0.0,5.0,4.2,-0.0,50.0,100.2,246.5,00:01:16,247.1,308,128,--.--,53,0002:27:50,11.32,51,0,-1.00,--.--,-11.32,--.--,0,--.--,--.--,--.--,--.--,--.--,--.--,--.--,0,13:56:11,2020-08-02,5.00,--.--,--.--,--.--,--.--,--.--,--.--,0.00,--.--,--.--,true,true,true,true,true,true,false,false,true,true,false,false,0.01,0.02,0.00,0.01,0.00,0.00,0.43,0.19,43.9464971,-78.8992346,17TPJ 68579 68075,0.0,0.0,308.5,3,10,--.--,--.--,--.--,0.0,0.0,0.0,0,0,0,--.--,--.--,--.--
2020-08-02 13:56:12.818,5.2,-34.7,307,-3.6,5.8,2.1,4.9,4.9,0.0,50.0,100.2,250.6,00:01:17,252.1,308,128,--.--,53,0002:27:50,11.32,51,0,-1.00,--.--,-11.32,--.--,0,--.--,--.--,--.--,--.--,--.--,--.--,--.--,0,13:56:12,2020-08-02,5.00,--.--,--.--,--.--,--.--,--.--,--.--,0.00,--.--,--.--,true,true,true,true,true,true,false,false,true,true,false,false,0.03,0.03,0.00,0.01,0.00,0.00,0.43,0.19,43.9465255,-78.8992841,17TPJ 68575 68078,0.0,0.0,308.5,3,10,--.--,--.--,--.--,0.0,0.0,0.0,0,0,0,--.--,--.--,--.--
2020-08-02 13:56:13.819,5.3,-34.6,307,1.0,6.2,6.9,5.0,4.7,0.0,50.0,100.2,256.7,00:01:18,257.0,308,128,--.--,54,0002:27:50,11.32,51,0,-1.00,--.--,-11.32,--.--,0,--.--,--.--,--.--,--.--,--.--,--.--,--.--,0,13:56:13,2020-08-02,5.00,--.--,--.--,--.--,--.--,--.--,--.--,0.00,--.--,--.--,true,true,true,true,true,true,false,false,true,true,false,false,0.03,0.03,0.00,0.01,0.00,0.00,0.43,0.19,43.9465533,-78.8993328,17TPJ 68571 68081,0.0,0.0,308.2,3,10,--.--,--.--,--.--,0.0,0.0,0.0,0,0,0,--.--,--.--,--.--
2020-08-02 13:56:14.808,5.4,-34.4,307,-2.2,4.4,-1.4,5.1,4.9,0.0,50.0,100.2,260.8,00:01:19,262.0,308,128,--.--,54,0002:27:50,11.32,51,0,-1.00,--.--,-11.32,--.--,0,--.--,--.--,--.--,--.--,--.--,--.--,--.--,0,13:56:14,2020-08-02,5.00,--.--,--.--,--.--,--.--,--.--,--.--,0.00,--.--,--.--,true,true,true,true,true,true,false,false,true,true,false,false,0.02,0.01,0.00,0.01,0.00,0.00,0.42,0.19,43.9465818,-78.8993833,17TPJ 68567 68084,0.0,0.0,307.8,3,10,--.--,--.--,--.--,0.0,0.0,0.0,0,0,0,--.--,--.--,--.--
2020-08-02 13:56:15.807,5.2,-33.7,307,-6.0,15.2,-0.4,5.0,5.5,0.0,50.0,100.2,267.0,00:01:20,267.0,308,128,--.--,54,0002:27:50,11.32,51,0,-1.00,--.--,-11.32,--.--,0,--.--,--.--,--.--,--.--,--.--,--.--,--.--,0,13:56:15,2020-08-02,5.00,--.--,--.--,--.--,--.--,--.--,--.--,0.00,--.--,--.--,true,true,true,true,true,true,false,false,true,true,false,false,0.02,0.01,0.00,0.01,0.00,0.00,0.42,0.19,43.9466102,-78.8994341,17TPJ 68563 68087,0.0,0.0,308.1,3,10,--.--,--.--,--.--,0.0,0.0,0.0,0,0,0,--.--,--.--,--.--
2020-08-02 13:56:16.804,5.1,-33.6,307,2.2,7.4,-0.7,5.0,3.0,0.0,50.0,100.2,271.0,00:01:21,272.0,308,128,--.--,54,0002:27:50,11.32,51,0,-1.00,--.--,-11.32,--.--,0,--.--,--.--,--.--,--.--,--.--,--.--,--.--,0,13:56:16,2020-08-02,5.00,--.--,--.--,--.--,--.--,--.--,--.--,0.00,--.--,--.--,true,true,true,true,true,true,false,false,true,true,false,false,0.03,0.02,0.00,0.01,0.00,0.00,0.41,0.19,43.9466386,-78.8994848,17TPJ 68559 68090,0.0,0.0,307.9,3,10,--.--,--.--,--.--,0.0,0.0,0.0,0,0,0,--.--,--.--,--.--
2020-08-02 13:56:17.804,4.8,-33.8,307,-8.0,6.0,-0.7,4.9,5.3,0.0,50.0,100.2,277.1,00:01:22,277.0,308,128,--.--,53,0002:27:50,11.32,51,0,-1.00,--.--,-11.32,--.--,0,--.--,--.--,--.--,--.--,--.--,--.--,--.--,0,13:56:17,2020-08-02,5.00,--.--,--.--,--.--,--.--,--.--,--.--,0.00,--.--,--.--,true,true,true,true,true,true,false,false,true,true,false,false,0.03,0.02,0.00,0.01,0.00,0.00,0.41,0.19,43.9466664,-78.8995347,17TPJ 68555 68093,0.0,0.0,307.2,3,10,--.--,--.--,--.--,0.0,0.0,0.0,0,0,0,--.--,--.--,--.--
2020-08-02 13:56:18.804,5.2,-34.6,308,1.5,0.2,2.0,5.0,5.3,0.0,50.0,100.2,281.2,00:01:23,281.8,308,128,--.--,55,0002:27:50,11.32,51,0,-1.00,--.--,-11.32,--.--,0,--.--,--.--,--.--,--.--,--.--,--.--,--.--,0,13:56:18,2020-08-02,5.00,--.--,--.--,--.--,--.--,--.--,--.--,0.00,--.--,--.--,true,true,true,true,true,true,false,false,true,true,false,false,0.02,0.04,0.00,0.02,0.00,0.00,0.44,0.20,43.9466884,-78.8995748,17TPJ 68551 68096,0.0,0.0,307.1,3,10,--.--,--.--,--.--,0.0,0.0,0.0,0,0,0,--.--,--.--,--.--
2020-08-02 13:56:19.804,5.3,-34.5,308,4.6,2.2,5.0,5.1,3.2,0.0,50.0,100.2,285.3,00:01:24,286.9,308,128,--.--,54,0002:27:50,11.32,51,0,-1.00,--.--,-11.32,--.--,0,--.--,--.--,--.--,--.--,--.--,--.--,--.--,0,13:56:19,2020-08-02,5.00,--.--,--.--,--.--,--.--,--.--,--.--,0.00,--.--,--.--,true,true,true,true,true,true,false,false,true,true,false,false,0.02,0.04,0.00,0.02,0.00,0.00,0.44,0.20,43.9467157,-78.8996253,17TPJ 68547 68099,0.0,0.0,307.0,3,10,--.--,--.--,--.--,0.0,0.0,0.0,0,0,0,--.--,--.--,--.--
2020-08-02 13:56:20.804,5.3,-34.1,308,2.4,-1.7,2.0,5.0,4.4,0.0,50.0,100.2,291.4,00:01:25,291.9,308,128,--.--,54,0002:27:50,11.32,51,0,-1.00,--.--,-11.32,--.--,0,--.--,--.--,--.--,--.--,--.--,--.--,--.--,0,13:56:20,2020-08-02,5.00,--.--,--.--,--.--,--.--,--.--,--.--,0.00,--.--,--.--,true,true,true,true,true,true,false,false,true,true,false,false,0.04,0.01,0.00,0.04,0.00,0.00,0.43,0.19,43.9467439,-78.8996771,17TPJ 68543 68102,0.0,0.0,307.5,3,10,--.--,--.--,--.--,0.0,0.0,0.0,0,0,0,--.--,--.--,--.--
2020-08-02 13:56:21.804,5.2,-33.6,308,-11.0,1.9,-1.8,5.0,2.5,0.0,50.0,100.2,295.4,00:01:26,297.0,308,128,--.--,54,0002:27:50,11.32,51,0,-1.00,--.--,-11.32,--.--,0,--.--,--.--,--.--,--.--,--.--,--.--,--.--,0,13:56:21,2020-08-02,5.00,--.--,--.--,--.--,--.--,--.--,--.--,0.00,--.--,--.--,true,true,true,true,true,true,false,false,true,true,false,false,0.04,0.01,0.00,0.04,0.00,0.00,0.43,0.19,43.9467721,-78.8997282,17TPJ 68539 68105,0.0,0.0,307.8,3,10,--.--,--.--,--.--,0.0,0.0,0.0,0,0,0,--.--,--.--,--.--
2020-08-02 13:56:22.822,5.1,-33.5,308,-1.5,5.5,3.5,4.9,3.6,0.0,50.0,100.2,301.5,00:01:27,302.0,308,128,--.--,54,0002:27:50,11.32,51,0,-1.00,--.--,-11.32,--.--,0,--.--,--.--,--.--,--.--,--.--,--.--,--.--,0,13:56:22,2020-08-02,5.00,--.--,--.--,--.--,--.--,--.--,--.--,0.00,--.--,--.--,true,true,true,true,true,true,false,false,true,true,false,false,0.04,0.04,0.00,0.00,0.00,0.00,0.43,0.19,43.9468005,-78.8997788,17TPJ 68535 68108,0.0,0.0,308.0,3,10,--.--,--.--,--.--,0.0,0.0,0.0,0,0,0,--.--,--.--,--.--
2020-08-02 13:56:23.804,5.2,-32.4,308,-3.5,25.9,-4.1,5.0,2.9,0.0,50.0,100.2,305.6,00:01:28,306.9,308,128,--.--,54,0002:27:50,11.32,51,0,-1.00,--.--,-11.32,--.--,0,--.--,--.--,--.--,--.--,--.--,--.--,--.--,0,13:56:23,2020-08-02,5.00,--.--,--.--,--.--,--.--,--.--,--.--,0.00,--.--,--.--,true,true,true,true,true,true,false,false,true,true,false,false,0.04,0.04,0.00,0.00,0.00,0.00,0.43,0.19,43.9468284,-78.8998282,17TPJ 68531 68111,0.0,0.0,308.1,3,10,--.--,--.--,--.--,0.0,0.0,0.0,0,0,0,--.--,--.--,--.--
2020-08-02 13:56:24.804,4.0,-10.8,309,10.7,7.3,-1.2,3.4,2.4,0.0,50.0,100.2,309.6,00:01:29,311.0,308,128,--.--,48,0002:27:50,11.32,51,0,-1.00,--.--,-11.32,--.--,0,--.--,--.--,--.--,--.--,--.--,--.--,--.--,0,13:56:24,2020-08-02,5.00,--.--,--.--,--.--,--.--,--.--,--.--,0.00,--.--,--.--,true,true,true,true,true,true,false,false,true,true,false,false,0.03,0.02,0.01,0.00,0.00,0.00,0.42,0.19,43.9468564,-78.8998782,17TPJ 68527 68114,0.0,0.0,308.0,3,10,--.--,--.--,--.--,0.0,0.0,0.0,0,0,0,--.--,--.--,--.--
2020-08-02 13:56:25.808,2.3,-2.5,307,-52.7,5.9,-4.1,1.5,-3.7,0.1,50.0,100.2,311.7,00:01:30,313.2,308,128,--.--,43,0002:27:50,11.32,51,0,-1.00,--.--,-11.32,--.--,0,--.--,--.--,--.--,--.--,--.--,--.--,--.--,0,13:56:25,2020-08-02,5.00,--.--,--.--,--.--,--.--,--.--,--.--,0.00,--.--,--.--,true,true,true,true,true,true,false,false,true,true,false,false,0.03,0.02,0.01,0.00,0.00,0.00,0.42,0.19,43.9468804,-78.8999171,17TPJ 68523 68116,0.0,0.0,313.8,3,10,--.--,--.--,--.--,0.0,0.0,0.0,0,0,0,--.--,--.--,--.--
2020-08-02 13:56:26.810,-23.5,4.9,285,-78.3,10.0,-35.4,0.6,2.8,0.1,50.1,100.3,313.7,00:01:31,313.9,190,128,--.--,39,0002:27:50,11.32,51,0,-1.00,--.--,-11.32,--.--,0,--.--,--.--,--.--,--.--,--.--,--.--,--.--,0,13:56:26,2020-08-02,5.00,--.--,--.--,--.--,--.--,--.--,--.--,0.00,--.--,--.--,true,true,true,true,true,true,false,false,true,true,false,false,0.10,0.03,0.01,0.06,0.00,0.00,0.41,0.19,43.9468934,-78.8999336,17TPJ 68522 68118,0.0,0.0,321.8,3,10,--.--,--.--,--.--,0.0,0.0,0.0,0,0,0,--.--,--.--,--.--
2020-08-02 13:56:27.804,-23.5,-15.4,242,-44.6,-4.4,-53.0,2.4,-2.6,-0.1,50.1,100.3,313.7,00:01:32,313.0,190,128,--.--,48,0002:27:50,11.32,51,0,-1.00,--.--,-11.32,--.--,0,--.--,--.--,--.--,--.--,--.--,--.--,--.--,0,13:56:27,2020-08-02,5.00,--.--,--.--,--.--,--.--,--.--,--.--,0.00,--.--,--.--,true,true,true,true,true,true,false,false,true,true,false,false,0.10,0.03,0.01,0.06,0.00,0.00,0.41,0.19,43.9468953,-78.8999386,17TPJ 68522 68118,0.0,0.0,187.0,3,10,--.--,--.--,--.--,0.0,0.0,0.0,0,0,0,--.--,--.--,--.--
2020-08-02 13:56:28.810,-6.9,-35.4,197,6.0,12.1,-16.9,4.6,4.6,-0.1,50.1,100.3,317.8,00:01:33,310.7,190,127,--.--,55,0002:27:50,11.32,51,0,-1.00,--.--,-11.32,--.--,0,--.--,--.--,--.--,--.--,--.--,--.--,--.--,0,13:56:28,2020-08-02,5.00,--.--,--.--,--.--,--.--,--.--,--.--,0.00,--.--,--.--,true,true,true,true,true,true,false,false,true,true,false,false,0.13,0.06,0.00,0.05,0.00,0.00,0.43,0.20,43.9468812,-78.8999390,17TPJ 68522 68116,0.0,0.0,179.4,3,10,--.--,--.--,--.--,0.0,0.0,0.0,0,0,0,--.--,--.--,--.--
2020-08-02 13:56:29.825,-2.9,-29.2,194,-0.9,12.7,-17.2,5.1,5.6,-0.1,50.0,100.3,324.0,00:01:34,307.5,180,126,--.--,55,0002:27:50,11.32,51,0,-1.00,--.--,-11.32,--.--,0,--.--,--.--,--.--,--.--,--.--,--.--,--.--,0,13:56:29,2020-08-02,5.00,--.--,--.--,--.--,--.--,--.--,--.--,0.00,--.--,--.--,true,true,true,true,true,true,false,false,true,true,false,false,0.13,0.06,0.00,0.05,0.00,0.00,0.43,0.20,43.9468449,-78.8999370,17TPJ 68522 68112,0.0,0.0,177.6,3,10,--.--,--.--,--.--,0.0,0.0,0.0,0,0,0,--.--,--.--,--.--
2020-08-02 13:56:30.809,6.1,-29.2,181,0.7,-5.1,-2.8,4.8,3.9,-0.0,50.0,100.2,328.1,00:01:35,304.4,180,126,--.--,54,0002:27:50,11.32,51,0,-1.00,--.--,-11.32,--.--,0,--.--,--.--,--.--,--.--,--.--,--.--,--.--,0,13:56:30,2020-08-02,5.00,--.--,--.--,--.--,--.--,--.--,--.--,0.00,--.--,--.--,true,true,true,true,true,true,false,false,true,true,false,false,0.18,0.06,0.00,0.02,0.00,0.00,0.43,0.20,43.9467939,-78.8999360,17TPJ 68522 68107,0.0,0.0,181.0,3,10,--.--,--.--,--.--,0.0,0.0,0.0,0,0,0,--.--,--.--,--.--
2020-08-02 13:56:31.804,5.7,-28.1,180,-8.2,6.3,-2.6,4.6,4.4,0.0,49.9,100.2,334.3,00:01:36,301.7,180,125,--.--,53,0002:27:50,11.32,51,0,-1.00,--.--,-11.32,--.--,0,--.--,--.--,--.--,--.--,--.--,--.--,--.--,0,13:56:31,2020-08-02,5.00,--.--,--.--,--.--,--.--,--.--,--.--,0.00,--.--,--.--,true,true,true,true,true,true,false,false,true,true,false,false,0.18,0.06,0.00,0.02,0.00,0.00,0.43,0.20,43.9467440,-78.8999382,17TPJ 68522 68101,0.0,0.0,183.1,3,10,--.--,--.--,--.--,0.0,0.0,0.0,0,0,0,--.--,--.--,--.--
2020-08-02 13:56:32.804,4.1,-28.3,179,-0.1,-0.9,-1.0,4.5,4.8,0.0,49.9,100.2,338.4,00:01:37,299.1,180,124,--.--,53,0002:27:50,11.32,51,0,-1.00,--.--,-11.32,--.--,0,--.--,--.--,--.--,--.--,--.--,--.--,--.--,0,13:56:32,2020-08-02,5.00,--.--,--.--,--.--,--.--,--.--,--.--,0.00,--.--,--.--,true,true,true,true,true,true,false,false,true,true,false,false,0.14,0.09,0.01,0.02,0.00,0.00,0.43,0.20,43.9466973,-78.8999429,17TPJ 68522 68096,0.0,0.0,184.6,3,10,--.--,--.--,--.--,0.0,0.0,0.0,0,0,0,--.--,--.--,--.--
2020-08-02 13:56:33.804,3.0,-29.4,179,3.5,-0.1,-2.0,4.6,2.6,0.0,49.9,100.2,342.5,00:01:38,296.6,180,123,--.--,53,0002:27:50,11.32,51,0,-1.00,--.--,-11.32,--.--,0,--.--,--.--,--.--,--.--,--.--,--.--,--.--,0,13:56:33,2020-08-02,5.00,--.--,--.--,--.--,--.--,--.--,--.--,0.00,--.--,--.--,true,true,true,true,true,true,false,false,true,true,false,false,0.14,0.09,0.01,0.02,0.00,0.00,0.43,0.20,43.9466527,-78.8999474,17TPJ 68522 68091,0.0,0.0,183.4,3,10,--.--,--.--,--.--,0.0,0.0,0.0,0,0,0,--.--,--.--,--.--
2020-08-02 13:56:34.810,2.9,-29.9,179,0.4,5.4,1.1,4.7,5.8,0.0,50.0,100.2,348.7,00:01:39,294.0,180,122,--.--,53,0002:27:50,11.32,51,0,-1.00,--.--,-11.32,--.--,0,--.--,--.--,--.--,--.--,--.--,--.--,--.--,0,13:56:34,2020-08-02,5.00,--.--,--.--,--.--,--.--,--.--,--.--,0.00,--.--,--.--,true,true,true,true,true,true,false,false,true,true,false,false,0.08,0.04,0.00,0.00,0.00,0.00,0.43,0.20,43.9466090,-78.8999498,17TPJ 68522 68086,0.0,0.0,181.4,3,10,--.--,--.--,--.--,0.0,0.0,0.0,0,0,0,--.--,--.--,--.--
2020-08-02 13:56:35.808,2.9,-29.8,179,2.7,1.0,3.1,4.8,3.8,0.0,50.0,100.2,352.9,00:01:40,291.3,180,122,--.--,53,0002:27:50,11.32,51,0,-1.00,--.--,-11.32,--.--,0,--.--,--.--,--.--,--.--,--.--,--.--,--.--,0,13:56:35,2020-08-02,5.00,--.--,--.--,--.--,--.--,--.--,--.--,0.00,--.--,--.--,true,true,true,true,true,true,false,false,true,true,false,false,0.08,0.04,0.00,0.00,0.00,0.00,0.43,0.20,43.9465642,-78.8999504,17TPJ 68522 68081,0.0,0.0,180.1,3,10,--.--,--.--,--.--,0.0,0.0,0.0,0,0,0,--.--,--.--,--.--
2020-08-02 13:56:36.810,2.8,-29.5,180,0.2,0.8,9.9,4.8,3.8,0.0,50.0,100.2,359.0,00:01:41,288.8,180,121,--.--,53,0002:27:50,11.32,51,0,-1.00,--.--,-11.32,--.--,0,--.--,--.--,--.--,--.--,--.--,--.--,--.--,0,13:56:36,2020-08-02,5.00,--.--,--.--,--.--,--.--,--.--,--.--,0.00,--.--,--.--,true,true,true,true,true,true,false,false,true,true,false,false,0.04,0.06,0.00,0.00,0.00,0.00,0.42,0.20,43.9465194,-78.8999505,17TPJ 68522 68076,0.0,0.0,179.8,3,10,--.--,--.--,--.--,0.0,0.0,0.0,0,0,0,--.--,--.--,--.--
2020-08-02 13:56:37.811,2.6,-29.5,180,2.3,-3.7,2.5,4.8,3.8,-0.0,50.0,100.2,363.2,00:01:42,286.3,180,120,--.--,53,0002:27:50,11.32,51,0,-1.00,--.--,-11.32,--.--,0,--.--,--.--,--.--,--.--,--.--,--.--,--.--,0,13:56:37,2020-08-02,5.00,--.--,--.--,--.--,--.--,--.--,--.--,0.00,--.--,--.--,true,true,true,true,true,true,false,false,true,true,false,false,0.04,0.06,0.00,0.00,0.00,0.00,0.42,0.20,43.9464743,-78.8999504,17TPJ 68522 68071,0.0,0.0,179.9,3,10,--.--,--.--,--.--,0.0,0.0,0.0,0,0,0,--.--,--.--,--.--
2020-08-02 13:56:38.804,2.3,-30.4,180,0.3,-1.7,5.1,4.9,4.3,-0.0,50.0,100.2,367.3,00:01:43,283.9,180,119,--.--,53,0002:27:50,11.32,51,0,-1.00,--.--,-11.32,--.--,0,--.--,--.--,--.--,--.--,--.--,--.--,--.--,0,13:56:38,2020-08-02,5.00,--.--,--.--,--.--,--.--,--.--,--.--,0.00,--.--,--.--,true,true,true,true,true,true,false,false,true,true,false,false,0.02,0.03,0.00,0.01,0.00,0.00,0.44,0.20,43.9464390,-78.8999503,17TPJ 68522 68067,0.0,0.0,179.9,3,10,--.--,--.--,--.--,0.0,0.0,0.0,0,0,0,--.--,--.--,--.--
2020-08-02 13:56:39.804,2.5,-30.4,180,3.1,-1.1,-2.9,5.0,4.2,-0.0,50.0,100.2,373.4,00:01:44,281.5,180,118,--.--,53,0002:27:50,11.32,51,0,-1.00,--.--,-11.32,--.--,0,--.--,--.--,--.--,--.--,--.--,--.--,--.--,0,13:56:39,2020-08-02,5.00,--.--,--.--,--.--,--.--,--.--,--.--,0.00,--.--,--.--,true,true,true,true,true,true,false,false,true,true,false,false,0.02,0.03,0.00,0.01,0.00,0.00,0.44,0.20,43.9463941,-78.8999499,17TPJ 68522 68062,0.0,0.0,179.4,3,10,--.--,--.--,--.--,0.0,0.0,0.0,0,0,0,--.--,--.--,--.--
2020-08-02 13:56:40.804,2.9,-29.9,180,2.9,4.1,3.9,5.0,4.3,-0.0,50.0,100.2,377.6,00:01:45,279.1,180,117,--.--,53,0002:27:50,11.32,51,0,-1.00,--.--,-11.32,--.--,0,--.--,--.--,--.--,--.--,--.--,--.--,--.--,0,13:56:40,2020-08-02,5.00,--.--,--.--,--.--,--.--,--.--,--.--,0.00,--.--,--.--,true,true,true,true,true,true,false,false,true,true,false,false,0.02,0.02,0.00,0.01,0.00,0.00,0.43,0.20,43.9463483,-78.8999490,17TPJ 68522 68057,0.0,0.0,179.1,3,10,--.--,--.--,--.--,0.0,0.0,0.0,0,0,0,--.--,--.--,--.--
2020-08-02 13:56:41.804,3.0,-29.8,180,-5.9,2.6,-1.3,5.0,3.6,-0.0,50.0,100.2,383.7,00:01:46,276.9,180,116,--.--,53,0002:27:50,11.32,51,0,-1.00,--.--,-11.32,--.--,0,--.--,--.--,--.--,--.--,--.--,--.--,--.--,0,13:56:41,2020-08-02,5.00,--.--,--.--,--.--,--.--,--.--,--.--,0.00,--.--,--.--,true,true,true,true,true,true,false,false,true,true,false,false,0.02,0.02,0.00,0.01,0.00,0.00,0.43,0.20,43.9463021,-78.8999485,17TPJ 68522 68052,0.0,0.0,179.6,3,10,--.--,--.--,--.--,0.0,0.0,0.0,0,0,0,--.--,--.--,--.--
2020-08-02 13:56:42.804,2.9,-29.9,180,3.7,-0.9,5.2,4.9,3.4,-0.0,50.0,100.2,387.7,00:01:47,274.7,180,115,--.--,53,0002:27:50,11.32,51,0,-1.00,--.--,-11.32,--.--,0,--.--,--.--,--.--,--.--,--.--,--.--,--.--,0,13:56:42,2020-08-02,5.00,--.--,--.--,--.--,--.--,--.--,--.--,0.00,--.--,--.--,true,true,true,true,true,true,false,false,true,true,false,false,0.02,0.04,0.01,0.00,0.00,0.00,0.43,0.20,43.9462565,-78.8999485,17TPJ 68523 68047,0.0,0.0,180.1,3,10,--.--,--.--,--.--,0.0,0.0,0.0,0,0,0,--.--,--.--,--.--
2020-08-02 13:56:43.804,2.8,-30.7,180,0.8,1.1,-0.6,5.0,5.2,0.0,50.0,100.2,393.7,00:01:48,272.6,180,115,--.--,53,0002:27:50,11.32,51,0,-1.00,--.--,-11.32,--.--,0,--.--,--.--,--.--,--.--,--.--,--.--,--.--,0,13:56:43,2020-08-02,5.00,--.--,--.--,--.--,--.--,--.--,--.--,0.00,--.--,--.--,true,true,true,true,true,true,false,false,true,true,false,false,0.02,0.04,0.01,0.00,0.00,0.00,0.43,0.20,43.9462113,-78.8999486,17TPJ 68523 68042,0.0,0.0,180.2,3,10,--.--,--.--,--.--,0.0,0.0,0.0,0,0,0,--.--,--.--,--.--
2020-08-02 13:56:44.805,2.8,-30.7,180,2.5,-2.2,-3.3,5.0,4.8,0.0,50.0,100.2,397.8,00:01:49,270.6,180,114,--.--,53,0002:27:50,11.32,51,0,-1.00,--.--,-11.32,--.--,0,--.--,--.--,--.--,--.--,--.--,--.--,--.--,0,13:56:44,2020-08-02,5.00,--.--,--.--,--.--,--.--,--.--,--.--,0.00,--.--,--.--,true,true,true,true,true,true,false,false,true,true,false,false,0.03,0.01,0.00,0.03,0.00,0.00,0.42,0.20,43.9461658,-78.8999488,17TPJ 68523 68037,0.0,0.0,179.8,3,10,--.--,--.--,--.--,0.0,0.0,0.0,0,0,0,--.--,--.--,--.--
2020-08-02 13:56:45.804,2.8,-30.1,180,0.6,7.3,6.0,5.0,5.2,0.0,50.0,100.2,403.9,00:01:50,268.7,180,113,--.--,53,0002:27:50,11.32,51,0,-1.00,--.--,-11.32,--.--,0,--.--,--.--,--.--,--.--,--.--,--.--,--.--,0,13:56:45,2020-08-02,5.00,--.--,--.--,--.--,--.--,--.--,--.--,0.00,--.--,--.--,true,true,true,true,true,true,false,false,true,true,false,false,0.03,0.01,0.00,0.03,0.00,0.00,0.42,0.20,43.9461198,-78.8999488,17TPJ 68523 68032,0.0,0.0,180.1,3,10,--.--,--.--,--.--,0.0,0.0,0.0,0,0,0,--.--,--.--,--.--
2020-08-02 13:56:46.804,2.9,-29.8,180,-3.1,1.6,-5.6,5.0,4.7,0.0,50.0,100.2,407.9,00:01:51,266.8,180,112,--.--,53,0002:27:50,11.32,51,0,-1.00,--.--,-11.32,--.--,0,--.--,--.--,--.--,--.--,--.--,--.--,--.--,0,13:56:46,2020-08-02,5.00,--.--,--.--,--.--,--.--,--.--,--.--,0.00,--.--,--.--,true,true,true,true,true,true,false,false,true,true,false,false,0.03,0.02,0.01,0.00,0.00,0.00,0.42,0.20,43.9460734,-78.8999488,17TPJ 68523 68027,0.0,0.0,180.3,3,10,--.--,--.--,--.--,0.0,0.0,0.0,0,0,0,--.--,--.--,--.--
2020-08-02 13:56:47.804,3.0,-29.8,180,0.3,2.8,-0.4,5.0,2.3,0.0,50.0,100.2,412.0,00:01:52,265.0,180,111,--.--,52,0002:27:50,11.32,51,0,-1.00,--.--,-11.32,--.--,0,--.--,--.--,--.--,--.--,--.--,--.--,--.--,0,13:56:47,2020-08-02,5.00,--.--,--.--,--.--,--.--,--.--,--.--,0.00,--.--,--.--,true,true,true,true,true,true,false,false,true,true,false,false,0.03,0.02,0.01,0.00,0.00,0.00,0.42,0.20,43.9460279,-78.8999491,17TPJ 68523 68022,0.0,0.0,180.2,3,10,--.--,--.--,--.--,0.0,0.0,0.0,0,0,0,--.--,--.--,--.--
2020-08-02 13:56:48.804,2.7,-30.0,180,0.1,0.7,-5.3,5.0,5.9,0.0,50.0,100.2,418.2,00:01:53,263.3,180,110,--.--,53,0002:27:50,11.32,51,0,-1.00,--.--,-11.32,--.--,0,--.--,--.--,--.--,--.--,--.--,--.--,--.--,0,13:56:48,2020-08-02,5.00,--.--,--.--,--.--,--.--,--.--,--.--,0.00,--.--,--.--,true,true,true,true,true,true,false,false,true,true,false,false,0.03,0.03,0.00,0.00,0.00,0.00,0.41,0.20,43.9459827,-78.8999494,17TPJ 68523 68017,0.0,0.0,180.7,3,10,--.--,--.--,--.--,0.0,0.0,0.0,0,0,0,--.--,--.--,--.--
2020-08-02 13:56:49.804,2.2,-30.5,180,2.3,-1.6,2.6,5.0,3.6,0.0,50.0,100.2,422.4,00:01:54,261.8,180,109,--.--,53,0002:27:50,11.32,51,0,-1.00,--.--,-11.32,--.--,0,--.--,--.--,--.--,--.--,--.--,--.--,--.--,0,13:56:49,2020-08-02,5.00,--.--,--.--,--.--,--.--,--.--,--.--,0.00,--.--,--.--,true,true,true,true,true,true,false,false,true,true,false,false,0.03,0.03,0.00,0.00,0.00,0.00,0.41,0.20,43.9459378,-78.8999497,17TPJ 68523 68012,0.0,0.0,180.2,3,10,--.--,--.--,--.--,0.0,0.0,0.0,0,0,0,--.--,--.--,--.--
2020-08-02 13:56:50.811,2.5,-30.7,180,3.0,1.6,0.4,5.1,3.9,0.0,50.0,100.2,428.5,00:01:55,260.2,180,108,--.--,53,0002:27:50,11.32,51,0,-1.00,--.--,-11.32,--.--,0,--.--,--.--,--.--,--.--,--.--,--.--,--.--,0,13:56:50,2020-08-02,5.00,--.--,--.--,--.--,--.--,--.--,--.--,0.00,--.--,--.--,true,true,true,true,true,true,false,false,true,true,false,false,0.03,0.07,0.01,0.00,0.00,0.00,0.43,0.20,43.9459015,-78.8999496,17TPJ 68524 68008,0.0,0.0,179.7,3,10,--.--,--.--,--.--,0.0,0.0,0.0,0,0,0,--.--,--.--,--.--
