Timestamp,roll,pitch,heading,rollRate,pitchRate,yawRate,groundSpeed,airSpeed,climbRate,altitudeRelative,altitudeAMSL,flightDistance,flightTime,distanceToHome,headingToNextWP,headingToHome,distanceToGCS,throttlePct,hobbs,battery.voltage,battery.percentRemaining,battery.mahConsumed,battery.current,battery.temperature,battery.instantPower,battery.timeRemaining,battery.chargeState,battery2.voltage,battery2.percentRemaining,battery2.mahConsumed,battery2.current,battery2.temperature,battery2.instantPower,battery2.timeRemaining,battery2.chargeState,clock.currentTime,clock.currentDate,distanceSensor.rotationNone,distanceSensor.rotationYaw45,distanceSensor.rotationYaw90,distanceSensor.rotationYaw135,distanceSensor.rotationYaw180,distanceSensor.rotationYaw225,distanceSensor.rotationYaw270,distanceSensor.rotationYaw315,distanceSensor.rotationPitch90,distanceSensor.rotationPitch270,estimatorStatus.goodAttitudeEsimate,estimatorStatus.goodHorizVelEstimate,estimatorStatus.goodVertVelEstimate,estimatorStatus.goodHorizPosRelEstimate,estimatorStatus.goodHorizPosAbsEstimate,estimatorStatus.goodVertPosAbsEstimate,estimatorStatus.goodVertPosAGLEstimate,estimatorStatus.goodConstPosModeEstimate,estimatorStatus.goodPredHorizPosRelEstimate,estimatorStatus.goodPredHorizPosAbsEstimate,estimatorStatus.gpsGlitch,estimatorStatus.accelError,estimatorStatus.velRatio,estimatorStatus.horizPosRatio,estimatorStatus.vertPosRatio,estimatorStatus.magRatio,estimatorStatus.haglRatio,estimatorStatus.tasRatio,estimatorStatus.horizPosAccuracy,estimatorStatus.vertPosAccuracy,gps.lat,gps.lon,gps.mgrs,gps.hdop,gps.vdop,gps.courseOverGround,gps.lock,gps.count,temperature.temperature1,temperature.temperature2,temperature.temperature3,vibration.xAxis,vibration.yAxis,vibration.zAxis,vibration.clipCount1,vibration.clipCount2,vibration.clipCount3,wind.direction,wind.speed,wind.verticalSpeed
2020-08-02 14:20:26.805,-0.7,-1.5,98,-6.2,-2.8,-1.0,0.0,3.2,-0.0,-0.0,50.2,0.0,00:00:00,0.0,308,--.--,--.--,45,0002:27:50,12.14,100,0,-1.00,--.--,-12.14,--.--,0,--.--,--.--,--.--,--.--,--.--,--.--,--.--,0,14:20:26,2020-08-02,1.03,--.--,--.--,--.--,--.--,--.--,--.--,0.00,--.--,--.--,true,true,true,true,true,true,false,false,true,true,false,false,0.03,0.01,0.01,0.01,0.00,0.00,0.42,0.20,43.9451550,-78.8968509,17TPJ 68774 67931,0.0,0.0,324.0,3,10,--.--,--.--,--.--,0.0,0.0,0.0,0,0,0,--.--,--.--,--.--
2020-08-02 14:20:27.804,-1.1,-0.9,98,4.0,0.3,2.6,0.0,-1.2,1.2,0.7,50.9,0.0,00:00:01,0.0,308,--.--,--.--,48,0002:27:50,12.12,99,0,-1.00,--.--,-12.12,--.--,0,--.--,--.--,--.--,--.--,--.--,--.--,--.--,0,14:20:27,2020-08-02,1.03,--.--,--.--,--.--,--.--,--.--,--.--,0.00,--.--,--.--,true,true,true,true,true,true,false,false,true,true,false,false,0.02,0.01,0.01,0.01,0.00,0.00,0.41,0.20,43.9451550,-78.8968509,17TPJ 68774 67931,0.0,0.0,41.0,3,10,--.--,--.--,--.--,0.0,0.0,0.0,0,0,0,--.--,--.--,--.--
2020-08-02 14:20:28.806,-1.3,-0.7,98,0.2,2.8,5.4,0.0,-1.5,2.3,2.6,52.8,0.0,00:00:02,0.0,308,--.--,--.--,40,0002:27:50,12.10,98,0,-1.00,--.--,-12.10,--.--,0,--.--,--.--,--.--,--.--,--.--,--.--,--.--,0,14:20:28,2020-08-02,4.98,--.--,--.--,--.--,--.--,--.--,--.--,0.00,--.--,--.--,true,true,true,true,true,true,false,false,true,true,false,false,0.02,0.01,0.01,0.01,0.00,0.00,0.41,0.20,43.9451548,-78.8968507,17TPJ 68774 67931,0.0,0.0,140.7,3,10,--.--,--.--,--.--,0.0,0.0,0.0,0,0,0,--.--,--.--,--.--
2020-08-02 14:20:29.804,-1.5,-1.4,98,-1.5,7.4,-1.3,0.0,-3.5,1.6,4.5,54.8,0.0,00:00:03,0.0,308,--.--,--.--,45,0002:27:50,12.07,96,0,-1.00,--.--,-12.07,--.--,0,--.--,--.--,--.--,--.--,--.--,--.--,--.--,0,14:20:29,2020-08-02,4.98,--.--,--.--,--.--,--.--,--.--,--.--,0.00,--.--,--.--,true,true,true,true,true,true,false,false,true,true,false,false,0.07,0.00,0.01,0.02,0.00,0.00,0.41,0.20,43.9451547,-78.8968511,17TPJ 68774 67931,0.0,0.0,283.2,3,10,--.--,--.--,--.--,0.0,0.0,0.0,0,0,0,--.--,--.--,--.--
2020-08-02 14:20:30.805,-1.3,-1.6,98,-0.9,-6.8,-3.7,0.0,-0.7,1.5,6.1,56.4,0.0,00:00:04,0.0,308,--.--,--.--,45,0002:27:50,12.05,94,0,-1.00,--.--,-12.05,--.--,0,--.--,--.--,--.--,--.--,--.--,--.--,--.--,0,14:20:30,2020-08-02,5.00,--.--,--.--,--.--,--.--,--.--,--.--,0.00,--.--,--.--,true,true,true,true,true,true,false,false,true,true,false,false,0.07,0.00,0.01,0.02,0.00,0.00,0.41,0.20,43.9451549,-78.8968517,17TPJ 68774 67931,0.0,0.0,345.3,3,10,--.--,--.--,--.--,0.0,0.0,0.0,0,0,0,--.--,--.--,--.--
2020-08-02 14:20:31.820,-0.7,-1.4,98,0.4,-5.0,2.8,0.0,-3.0,1.5,7.7,58.0,0.0,00:00:05,0.0,308,--.--,--.--,45,0002:27:50,12.02,93,0,-1.00,--.--,-12.02,--.--,0,--.--,--.--,--.--,--.--,--.--,--.--,--.--,0,14:20:31,2020-08-02,5.00,--.--,--.--,--.--,--.--,--.--,--.--,0.00,--.--,--.--,true,true,true,true,true,true,false,false,true,true,false,false,0.04,0.00,0.01,0.00,0.00,0.00,0.43,0.21,43.9451554,-78.8968517,17TPJ 68774 67931,0.0,0.0,359.5,3,10,--.--,--.--,--.--,0.0,0.0,0.0,0,0,0,--.--,--.--,--.--
2020-08-02 14:20:32.804,-0.2,-1.2,98,1.1,4.7,-1.3,0.0,3.4,1.5,9.2,59.4,0.0,00:00:06,0.1,308,--.--,--.--,45,0002:27:50,11.99,91,0,-1.00,--.--,-11.99,--.--,0,--.--,--.--,--.--,--.--,--.--,--.--,--.--,0,14:20:32,2020-08-02,5.00,--.--,--.--,--.--,--.--,--.--,--.--,0.00,--.--,--.--,true,true,true,true,true,true,false,false,true,true,false,false,0.04,0.00,0.01,0.00,0.00,0.00,0.43,0.21,43.9451558,-78.8968514,17TPJ 68774 67931,0.0,0.0,96.2,3,10,--.--,--.--,--.--,0.0,0.0,0.0,0,0,0,--.--,--.--,--.--
2020-08-02 14:20:33.807,-0.6,-1.1,98,1.9,2.5,-3.3,0.0,-0.2,1.9,10.8,61.0,0.0,00:00:07,0.0,308,--.--,--.--,54,0002:27:50,11.97,89,0,-1.00,--.--,-11.97,--.--,0,--.--,--.--,--.--,--.--,--.--,--.--,--.--,0,14:20:33,2020-08-02,5.00,--.--,--.--,--.--,--.--,--.--,--.--,0.00,--.--,--.--,true,true,true,true,true,true,false,false,true,true,false,false,0.01,0.00,0.01,0.00,0.00,0.00,0.44,0.21,43.9451557,-78.8968512,17TPJ 68774 67931,0.0,0.0,172.3,3,10,--.--,--.--,--.--,0.0,0.0,0.0,0,0,0,--.--,--.--,--.--
2020-08-02 14:20:34.807,-0.9,-1.1,98,3.9,-0.7,2.6,0.0,-1.7,2.9,13.7,63.9,0.0,00:00:08,0.0,308,--.--,--.--,47,0002:27:50,11.94,88,0,-1.00,--.--,-11.94,--.--,0,--.--,--.--,--.--,--.--,--.--,--.--,--.--,0,14:20:34,2020-08-02,5.00,--.--,--.--,--.--,--.--,--.--,--.--,0.00,--.--,--.--,true,true,true,true,true,true,false,false,true,true,false,false,0.01,0.00,0.01,0.00,0.00,0.00,0.44,0.21,43.9451553,-78.8968510,17TPJ 68774 67931,0.0,0.0,190.8,3,10,--.--,--.--,--.--,0.0,0.0,0.0,0,0,0,--.--,--.--,--.--
2020-08-02 14:20:35.807,-1.4,-1.4,98,-5.6,-5.7,5.0,0.0,1.5,2.9,16.6,66.9,0.0,00:00:09,0.0,308,--.--,--.--,47,0002:27:50,11.91,86,0,-1.00,--.--,-11.91,--.--,0,--.--,--.--,--.--,--.--,--.--,--.--,--.--,0,14:20:35,2020-08-02,5.00,--.--,--.--,--.--,--.--,--.--,--.--,0.00,--.--,--.--,true,true,true,true,true,true,false,false,true,true,false,false,0.03,0.00,0.01,0.01,0.00,0.00,0.43,0.21,43.9451549,-78.8968513,17TPJ 68774 67931,0.0,0.0,240.0,3,10,--.--,--.--,--.--,0.0,0.0,0.0,0,0,0,--.--,--.--,--.--
2020-08-02 14:20:36.807,-1.3,-1.7,98,-9.1,-8.5,0.2,0.0,-1.8,2.9,19.6,69.9,0.0,00:00:10,0.0,308,--.--,--.--,46,0002:27:50,11.88,84,0,-1.00,--.--,-11.88,--.--,0,--.--,--.--,--.--,--.--,--.--,--.--,--.--,0,14:20:36,2020-08-02,5.00,--.--,--.--,--.--,--.--,--.--,--.--,0.00,--.--,--.--,true,true,true,true,true,true,false,false,true,true,false,false,0.03,0.00,0.01,0.01,0.00,0.00,0.43,0.21,43.9451549,-78.8968516,17TPJ 68774 67931,0.0,0.0,315.4,3,10,--.--,--.--,--.--,0.0,0.0,0.0,0,0,0,--.--,--.--,--.--
2020-08-02 14:20:37.807,-1.1,-1.7,98,4.4,-3.2,1.5,0.0,2.0,2.9,22.6,72.8,0.0,00:00:11,0.0,308,--.--,--.--,47,0002:27:50,11.86,83,0,-1.00,--.--,-11.86,--.--,0,--.--,--.--,--.--,--.--,--.--,--.--,--.--,0,14:20:37,2020-08-02,5.00,--.--,--.--,--.--,--.--,--.--,--.--,0.00,--.--,--.--,true,true,true,true,true,true,false,false,true,true,false,false,0.04,0.00,0.01,0.01,0.00,0.00,0.42,0.20,43.9451553,-78.8968516,17TPJ 68774 67931,0.0,0.0,16.8,3,10,--.--,--.--,--.--,0.0,0.0,0.0,0,0,0,--.--,--.--,--.--
2020-08-02 14:20:38.806,-0.7,-1.4,98,13.4,4.4,3.7,0.0,3.2,2.9,25.6,75.8,0.0,00:00:12,0.0,308,--.--,--.--,46,0002:27:50,11.83,81,0,-1.00,--.--,-11.83,--.--,0,--.--,--.--,--.--,--.--,--.--,--.--,--.--,0,14:20:38,2020-08-02,5.00,--.--,--.--,--.--,--.--,--.--,--.--,0.00,--.--,--.--,true,true,true,true,true,true,false,false,true,true,false,false,0.04,0.00,0.01,0.01,0.00,0.00,0.42,0.20,43.9451558,-78.8968513,17TPJ 68774 67931,0.0,0.0,19.4,3,10,--.--,--.--,--.--,0.0,0.0,0.0,0,0,0,--.--,--.--,--.--
2020-08-02 14:20:39.807,-0.9,-1.3,98,0.7,2.3,2.7,0.0,-2.6,2.9,28.5,78.8,0.0,00:00:13,0.1,308,--.--,--.--,47,0002:27:50,11.80,79,0,-1.00,--.--,-11.80,--.--,0,--.--,--.--,--.--,--.--,--.--,--.--,--.--,0,14:20:39,2020-08-02,5.00,--.--,--.--,--.--,--.--,--.--,--.--,0.00,--.--,--.--,true,true,true,true,true,true,false,false,true,true,false,false,0.01,0.01,0.01,0.00,0.00,0.00,0.41,0.20,43.9451562,-78.8968510,17TPJ 68774 67931,0.0,0.0,56.2,3,10,--.--,--.--,--.--,0.0,0.0,0.0,0,0,0,--.--,--.--,--.--
2020-08-02 14:20:40.808,-0.8,-1.3,98,5.2,-3.7,1.5,0.1,2.8,2.9,31.4,81.7,0.0,00:00:14,0.1,308,--.--,--.--,46,0002:27:50,11.77,78,0,-1.00,--.--,-11.77,--.--,0,--.--,--.--,--.--,--.--,--.--,--.--,--.--,0,14:20:40,2020-08-02,5.00,--.--,--.--,--.--,--.--,--.--,--.--,0.00,--.--,--.--,true,true,true,true,true,true,false,false,true,true,false,false,0.01,0.01,0.01,0.00,0.00,0.00,0.41,0.20,43.9451563,-78.8968509,17TPJ 68774 67931,0.0,0.0,18.3,3,10,--.--,--.--,--.--,0.0,0.0,0.0,0,0,0,--.--,--.--,--.--
2020-08-02 14:20:41.808,-0.6,-1.3,98,2.0,-1.1,-2.0,0.1,3.5,2.9,34.3,84.5,0.0,00:00:15,0.1,308,--.--,--.--,47,0002:27:50,11.75,76,0,-1.00,--.--,-11.75,--.--,0,--.--,--.--,--.--,--.--,--.--,--.--,--.--,0,14:20:41,2020-08-02,5.00,--.--,--.--,--.--,--.--,--.--,--.--,0.00,--.--,--.--,true,true,true,true,true,true,false,false,true,true,false,false,0.02,0.01,0.01,0.01,0.00,0.00,0.43,0.21,43.9451564,-78.8968508,17TPJ 68774 67931,0.0,0.0,220.7,3,10,--.--,--.--,--.--,0.0,0.0,0.0,0,0,0,--.--,--.--,--.--
2020-08-02 14:20:42.808,-0.6,-1.4,98,12.0,4.7,-3.2,0.1,2.6,2.9,37.2,87.4,0.0,00:00:16,0.1,308,--.--,--.--,46,0002:27:50,11.72,74,0,-1.00,--.--,-11.72,--.--,0,--.--,--.--,--.--,--.--,--.--,--.--,--.--,0,14:20:42,2020-08-02,5.00,--.--,--.--,--.--,--.--,--.--,--.--,0.00,--.--,--.--,true,true,true,true,true,true,false,false,true,true,false,false,0.02,0.01,0.01,0.01,0.00,0.00,0.43,0.21,43.9451565,-78.8968509,17TPJ 68774 67931,0.0,0.0,211.5,3,10,--.--,--.--,--.--,0.0,0.0,0.0,0,0,0,--.--,--.--,--.--
2020-08-02 14:20:43.807,-0.7,-1.3,98,-8.3,4.5,-2.1,0.1,4.2,2.8,40.1,90.3,0.0,00:00:17,0.1,308,--.--,--.--,47,0002:27:50,11.69,73,0,-1.00,--.--,-11.69,--.--,0,--.--,--.--,--.--,--.--,--.--,--.--,--.--,0,14:20:43,2020-08-02,5.00,--.--,--.--,--.--,--.--,--.--,--.--,0.00,--.--,--.--,true,true,true,true,true,true,false,false,true,true,false,false,0.03,0.01,0.02,0.02,0.00,0.00,0.42,0.21,43.9451565,-78.8968512,17TPJ 68774 67931,0.0,0.0,214.1,3,10,--.--,--.--,--.--,0.0,0.0,0.0,0,0,0,--.--,--.--,--.--
2020-08-02 14:20:44.809,-1.0,-1.7,98,10.8,-2.3,-0.4,0.1,-2.8,2.2,42.7,92.9,0.0,00:00:18,0.1,308,--.--,--.--,44,0002:27:50,11.66,71,0,-1.00,--.--,-11.66,--.--,0,--.--,--.--,--.--,--.--,--.--,--.--,--.--,0,14:20:44,2020-08-02,5.00,--.--,--.--,--.--,--.--,--.--,--.--,0.00,--.--,--.--,true,true,true,true,true,true,false,false,true,true,false,false,0.03,0.01,0.02,0.02,0.00,0.00,0.42,0.21,43.9451563,-78.8968513,17TPJ 68774 67931,0.0,0.0,240.9,3,10,--.--,--.--,--.--,0.0,0.0,0.0,0,0,0,--.--,--.--,--.--
2020-08-02 14:20:45.808,-0.8,-1.5,98,3.1,1.4,-0.2,0.0,0.9,1.6,44.6,94.8,0.0,00:00:19,0.1,308,--.--,--.--,44,0002:27:50,11.64,69,0,-1.00,--.--,-11.64,--.--,0,--.--,--.--,--.--,--.--,--.--,--.--,--.--,0,14:20:45,2020-08-02,5.00,--.--,--.--,--.--,--.--,--.--,--.--,0.00,--.--,--.--,true,true,true,true,true,true,false,false,true,true,false,false,0.02,0.01,0.00,0.02,0.00,0.00,0.42,0.21,43.9451564,-78.8968514,17TPJ 68774 67931,0.0,0.0,204.3,3,10,--.--,--.--,--.--,0.0,0.0,0.0,0,0,0,--.--,--.--,--.--
2020-08-02 14:20:46.810,-0.4,-1.4,98,3.3,1.6,1.7,0.0,2.2,1.2,46.0,96.2,0.0,00:00:20,0.1,308,--.--,--.--,44,0002:27:50,11.61,68,0,-1.00,--.--,-11.61,--.--,0,--.--,--.--,--.--,--.--,--.--,--.--,--.--,0,14:20:46,2020-08-02,5.00,--.--,--.--,--.--,--.--,--.--,--.--,0.00,--.--,--.--,true,true,true,true,true,true,false,false,true,true,false,false,0.02,0.01,0.00,0.02,0.00,0.00,0.42,0.21,43.9451563,-78.8968515,17TPJ 68774 67931,0.0,0.0,321.9,3,10,--.--,--.--,--.--,0.0,0.0,0.0,0,0,0,--.--,--.--,--.--
2020-08-02 14:20:47.810,-0.4,-1.4,98,7.2,-0.5,1.5,0.0,-2.5,0.9,47.0,97.3,0.0,00:00:21,0.1,308,--.--,--.--,44,0002:27:50,11.58,66,0,-1.00,--.--,-11.58,--.--,0,--.--,--.--,--.--,--.--,--.--,--.--,--.--,0,14:20:47,2020-08-02,5.00,--.--,--.--,--.--,--.--,--.--,--.--,0.00,--.--,--.--,true,true,true,true,true,true,false,false,true,true,false,false,0.03,0.01,0.00,0.00,0.00,0.00,0.41,0.20,43.9451563,-78.8968514,17TPJ 68774 67931,0.0,0.0,150.6,3,10,--.--,--.--,--.--,0.0,0.0,0.0,0,0,0,--.--,--.--,--.--
2020-08-02 14:20:48.811,-0.1,-1.1,98,1.9,5.1,-3.8,0.0,-3.8,0.7,47.8,98.1,0.0,00:00:22,0.0,308,--.--,--.--,43,0002:27:50,11.55,64,0,-1.00,--.--,-11.55,--.--,0,--.--,--.--,--.--,--.--,--.--,--.--,--.--,0,14:20:48,2020-08-02,5.00,--.--,--.--,--.--,--.--,--.--,--.--,0.00,--.--,--.--,true,true,true,true,true,true,false,false,true,true,false,false,0.03,0.01,0.00,0.00,0.00,0.00,0.41,0.20,43.9451559,-78.8968515,17TPJ 68774 67931,0.0,0.0,182.0,3,10,--.--,--.--,--.--,0.0,0.0,0.0,0,0,0,--.--,--.--,--.--
2020-08-02 14:20:49.811,-0.8,-1.3,98,-1.1,-3.5,2.0,0.0,3.6,0.5,48.4,98.6,0.0,00:00:23,0.0,308,--.--,--.--,44,0002:27:50,11.53,63,0,-1.00,--.--,-11.53,--.--,0,--.--,--.--,--.--,--.--,--.--,--.--,--.--,0,14:20:49,2020-08-02,5.00,--.--,--.--,--.--,--.--,--.--,--.--,0.00,--.--,--.--,true,true,true,true,true,true,false,false,true,true,false,false,0.01,0.00,0.00,0.00,0.00,0.00,0.41,0.20,43.9451554,-78.8968516,17TPJ 68774 67931,0.0,0.0,178.9,3,10,--.--,--.--,--.--,0.0,0.0,0.0,0,0,0,--.--,--.--,--.--
2020-08-02 14:20:50.811,-0.6,-1.3,98,3.0,0.8,1.2,0.0,2.1,0.4,48.8,99.1,0.0,00:00:24,0.1,308,--.--,--.--,43,0002:27:50,11.50,61,0,-1.00,--.--,-11.50,--.--,0,--.--,--.--,--.--,--.--,--.--,--.--,--.--,0,14:20:50,2020-08-02,5.00,--.--,--.--,--.--,--.--,--.--,--.--,0.00,--.--,--.--,true,true,true,true,true,true,false,false,true,true,false,false,0.01,0.00,0.00,0.00,0.00,0.00,0.41,0.20,43.9451548,-78.8968520,17TPJ 68774 67931,0.0,0.0,222.2,3,10,--.--,--.--,--.--,0.0,0.0,0.0,0,0,0,--.--,--.--,--.--
2020-08-02 14:20:51.811,-0.8,-1.5,98,-1.7,-0.5,-1.9,0.1,0.8,0.2,49.1,99.4,0.0,00:00:25,0.1,308,--.--,--.--,44,0002:27:50,11.47,59,0,-1.00,--.--,-11.47,--.--,0,--.--,--.--,--.--,--.--,--.--,--.--,--.--,0,14:20:51,2020-08-02,5.00,--.--,--.--,--.--,--.--,--.--,--.--,0.00,--.--,--.--,true,true,true,true,true,true,false,false,true,true,false,false,0.02,0.01,0.00,0.01,0.00,0.00,0.43,0.21,43.9451544,-78.8968523,17TPJ 68774 67931,0.0,0.0,201.0,3,10,--.--,--.--,--.--,0.0,0.0,0.0,0,0,0,--.--,--.--,--.--
2020-08-02 14:20:52.812,-11.2,9.6,88,-48.8,50.4,-31.3,0.3,1.1,0.2,49.4,99.6,0.0,00:00:26,0.1,308,--.--,--.--,42,0002:27:50,11.44,58,0,-1.00,--.--,-11.44,--.--,0,--.--,--.--,--.--,--.--,--.--,--.--,--.--,0,14:20:52,2020-08-02,5.00,--.--,--.--,--.--,--.--,--.--,--.--,0.00,--.--,--.--,true,true,true,true,true,true,false,false,true,true,false,false,0.02,0.01,0.00,0.01,0.00,0.00,0.43,0.21,43.9451543,-78.8968524,17TPJ 68774 67931,0.0,0.0,272.3,3,10,--.--,--.--,--.--,0.0,0.0,0.0,0,0,0,--.--,--.--,--.--
2020-08-02 14:20:53.829,-36.3,2.0,45,-24.8,0.1,-59.8,3.5,-0.6,0.1,49.6,99.8,2.0,00:00:27,2.0,308,124,--.--,52,0002:27:50,11.42,56,0,-1.00,--.--,-11.42,--.--,0,--.--,--.--,--.--,--.--,--.--,--.--,--.--,0,14:20:53,2020-08-02,5.00,--.--,--.--,--.--,--.--,--.--,--.--,0.00,--.--,--.--,true,true,true,true,true,true,false,false,true,true,false,false,0.02,0.01,0.00,0.02,0.00,0.00,0.43,0.21,43.9451544,-78.8968530,17TPJ 68774 67931,0.0,0.0,309.4,3,10,--.--,--.--,--.--,0.0,0.0,0.0,0,0,0,--.--,--.--,--.--
2020-08-02 14:20:54.829,-18.7,-28.9,357,0.6,7.1,-48.3,4.7,4.7,0.1,49.6,99.9,6.0,00:00:28,6.4,308,122,--.--,55,0002:27:50,11.39,54,0,-1.00,--.--,-11.39,--.--,0,--.--,--.--,--.--,--.--,--.--,--.--,--.--,0,14:20:54,2020-08-02,5.00,--.--,--.--,--.--,--.--,--.--,--.--,0.00,--.--,--.--,true,true,true,true,true,true,false,false,true,true,false,false,0.02,0.01,0.00,0.02,0.00,0.00,0.43,0.21,43.9451609,-78.8968690,17TPJ 68773 67932,0.0,0.0,298.2,3,10,--.--,--.--,--.--,0.0,0.0,0.0,0,0,0,--.--,--.--,--.--
2020-08-02 14:20:55.830,3.8,-34.0,317,-1.1,-8.5,-18.1,4.4,4.4,0.2,49.6,99.9,10.1,00:00:29,11.3,308,123,--.--,55,0002:27:50,11.36,53,0,-1.00,--.--,-11.36,--.--,0,--.--,--.--,--.--,--.--,--.--,--.--,--.--,0,14:20:55,2020-08-02,5.00,--.--,--.--,--.--,--.--,--.--,--.--,0.00,--.--,--.--,true,true,true,true,true,true,false,false,true,true,false,false,0.28,0.05,0.00,0.02,0.00,0.00,0.42,0.20,43.9451808,-78.8969200,17TPJ 68769 67934,0.0,0.0,300.8,3,10,--.--,--.--,--.--,0.0,0.0,0.0,0,0,0,--.--,--.--,--.--
2020-08-02 14:20:56.813,8.8,-34.5,309,-13.0,11.4,0.7,4.9,5.1,0.2,49.6,99.9,16.3,00:00:30,16.6,308,125,--.--,56,0002:27:50,11.34,51,0,-1.00,--.--,-11.34,--.--,0,--.--,--.--,--.--,--.--,--.--,--.--,--.--,0,14:20:56,2020-08-02,5.00,--.--,--.--,--.--,--.--,--.--,--.--,0.00,--.--,--.--,true,true,true,true,true,true,false,false,true,true,false,false,0.28,0.05,0.00,0.02,0.00,0.00,0.42,0.20,43.9452081,-78.8969744,17TPJ 68764 67937,0.0,0.0,308.9,3,10,--.--,--.--,--.--,0.0,0.0,0.0,0,0,0,--.--,--.--,--.--
2020-08-02 14:20:57.813,7.1,-30.8,308,-15.2,4.1,2.2,4.7,4.9,0.2,49.7,99.9,20.4,00:00:31,22.0,308,127,--.--,53,0002:27:50,11.33,51,0,-1.00,--.--,-11.33,--.--,0,--.--,--.--,--.--,--.--,--.--,--.--,--.--,0,14:20:57,2020-08-02,5.00,--.--,--.--,--.--,--.--,--.--,--.--,0.00,--.--,--.--,true,true,true,true,true,true,false,false,true,true,false,false,0.21,0.10,0.01,0.02,0.00,0.00,0.42,0.20,43.9452403,-78.8970249,17TPJ 68760 67940,0.0,0.0,313.4,3,10,--.--,--.--,--.--,0.0,0.0,0.0,0,0,0,--.--,--.--,--.--
2020-08-02 14:20:58.818,6.1,-30.6,307,7.3,1.1,-1.8,4.5,3.0,0.2,49.7,100.0,26.5,00:00:32,27.0,308,128,--.--,53,0002:27:50,11.33,51,0,-1.00,--.--,-11.33,--.--,0,--.--,--.--,--.--,--.--,--.--,--.--,--.--,0,14:20:58,2020-08-02,5.00,--.--,--.--,--.--,--.--,--.--,--.--,0.00,--.--,--.--,true,true,true,true,true,true,false,false,true,true,false,false,0.21,0.10,0.01,0.02,0.00,0.00,0.42,0.20,43.9452745,-78.8970732,17TPJ 68756 67944,0.0,0.0,314.5,3,10,--.--,--.--,--.--,0.0,0.0,0.0,0,0,0,--.--,--.--,--.--
2020-08-02 14:20:59.813,5.2,-32.8,307,-3.7,-7.9,2.8,4.7,4.0,0.1,49.8,100.0,30.6,00:00:33,31.7,308,128,--.--,52,0002:27:50,11.33,51,0,-1.00,--.--,-11.33,--.--,0,--.--,--.--,--.--,--.--,--.--,--.--,--.--,0,14:20:59,2020-08-02,5.00,--.--,--.--,--.--,--.--,--.--,--.--,0.00,--.--,--.--,true,true,true,true,true,true,false,false,true,true,false,false,0.09,0.02,0.01,0.02,0.00,0.00,0.45,0.21,43.9453055,-78.8971182,17TPJ 68752 67947,0.0,0.0,312.6,3,10,--.--,--.--,--.--,0.0,0.0,0.0,0,0,0,--.--,--.--,--.--
2020-08-02 14:21:00.814,5.0,-33.2,307,-11.4,0.1,5.9,4.8,3.7,0.1,49.8,100.1,34.8,00:00:34,36.5,308,128,--.--,52,0002:27:50,11.32,51,0,-1.00,--.--,-11.32,--.--,0,--.--,--.--,--.--,--.--,--.--,--.--,--.--,0,14:21:00,2020-08-02,5.00,--.--,--.--,--.--,--.--,--.--,--.--,0.00,--.--,--.--,true,true,true,true,true,true,false,false,true,true,false,false,0.09,0.02,0.01,0.02,0.00,0.00,0.45,0.21,43.9453337,-78.8971638,17TPJ 68749 67950,0.0,0.0,309.0,3,10,--.--,--.--,--.--,0.0,0.0,0.0,0,0,0,--.--,--.--,--.--
2020-08-02 14:21:01.815,5.3,-32.8,307,7.9,4.0,3.6,4.9,-2.1,0.1,49.9,100.1,41.0,00:00:35,41.5,308,128,--.--,54,0002:27:50,11.32,51,0,-1.00,--.--,-11.32,--.--,0,--.--,--.--,--.--,--.--,--.--,--.--,--.--,0,14:21:01,2020-08-02,5.00,--.--,--.--,--.--,--.--,--.--,--.--,0.00,--.--,--.--,true,true,true,true,true,true,false,false,true,true,false,false,0.04,0.03,0.01,0.02,0.00,0.00,0.44,0.21,43.9453610,-78.8972121,17TPJ 68745 67953,0.0,0.0,307.5,3,10,--.--,--.--,--.--,0.0,0.0,0.0,0,0,0,--.--,--.--,--.--
2020-08-02 14:21:02.804,5.4,-32.8,307,6.8,6.6,-0.9,4.9,3.5,0.1,49.9,100.2,45.1,00:00:36,46.4,308,128,--.--,53,0002:27:50,11.32,51,0,-1.00,--.--,-11.32,--.--,0,--.--,--.--,--.--,--.--,--.--,--.--,--.--,0,14:21:02,2020-08-02,5.00,--.--,--.--,--.--,--.--,--.--,--.--,0.00,--.--,--.--,true,true,true,true,true,true,false,false,true,true,false,false,0.04,0.03,0.01,0.02,0.00,0.00,0.44,0.21,43.9453886,-78.8972621,17TPJ 68741 67956,0.0,0.0,307.5,3,10,--.--,--.--,--.--,0.0,0.0,0.0,0,0,0,--.--,--.--,--.--
2020-08-02 14:21:03.815,5.3,-32.7,307,9.1,2.7,-0.7,4.9,5.0,0.0,49.9,100.2,51.1,00:00:37,51.5,308,128,--.--,54,0002:27:50,11.32,51,0,-1.00,--.--,-11.32,--.--,0,--.--,--.--,--.--,--.--,--.--,--.--,--.--,0,14:21:03,2020-08-02,5.00,--.--,--.--,--.--,--.--,--.--,--.--,0.00,--.--,--.--,true,true,true,true,true,true,false,false,true,true,false,false,0.02,0.04,0.01,0.04,0.00,0.00,0.43,0.20,43.9454162,-78.8973119,17TPJ 68737 67959,0.0,0.0,307.7,3,10,--.--,--.--,--.--,0.0,0.0,0.0,0,0,0,--.--,--.--,--.--
2020-08-02 14:21:04.818,5.4,-33.7,307,5.8,5.4,-2.9,4.9,2.9,0.1,49.9,100.2,55.2,00:00:38,56.3,308,128,--.--,53,0002:27:50,11.32,51,0,-1.00,--.--,-11.32,--.--,0,--.--,--.--,--.--,--.--,--.--,--.--,--.--,0,14:21:04,2020-08-02,5.00,--.--,--.--,--.--,--.--,--.--,--.--,0.00,--.--,--.--,true,true,true,true,true,true,false,false,true,true,false,false,0.02,0.04,0.01,0.04,0.00,0.00,0.43,0.20,43.9454383,-78.8973521,17TPJ 68733 67961,0.0,0.0,307.2,3,10,--.--,--.--,--.--,0.0,0.0,0.0,0,0,0,--.--,--.--,--.--
2020-08-02 14:21:05.804,5.7,-33.6,308,13.8,5.5,-2.4,5.0,5.1,0.0,50.0,100.2,61.4,00:00:39,61.3,308,128,--.--,54,0002:27:50,11.32,51,0,-1.00,--.--,-11.32,--.--,0,--.--,--.--,--.--,--.--,--.--,--.--,--.--,0,14:21:05,2020-08-02,5.00,--.--,--.--,--.--,--.--,--.--,--.--,0.00,--.--,--.--,true,true,true,true,true,true,false,false,true,true,false,false,0.02,0.00,0.00,0.02,0.00,0.00,0.42,0.20,43.9454656,-78.8974020,17TPJ 68729 67964,0.0,0.0,307.1,3,10,--.--,--.--,--.--,0.0,0.0,0.0,0,0,0,--.--,--.--,--.--
2020-08-02 14:21:06.804,5.8,-33.2,308,-1.6,-3.5,0.0,5.0,2.3,0.0,50.0,100.3,65.4,00:00:40,66.2,308,128,--.--,53,0002:27:50,11.32,51,0,-1.00,--.--,-11.32,--.--,0,--.--,--.--,--.--,--.--,--.--,--.--,--.--,0,14:21:06,2020-08-02,5.00,--.--,--.--,--.--,--.--,--.--,--.--,0.00,--.--,--.--,true,true,true,true,true,true,false,false,true,true,false,false,0.02,0.00,0.00,0.02,0.00,0.00,0.42,0.20,43.9454935,-78.8974535,17TPJ 68725 67967,0.0,0.0,306.9,3,10,--.--,--.--,--.--,0.0,0.0,0.0,0,0,0,--.--,--.--,--.--
2020-08-02 14:21:07.817,5.6,-33.0,308,-2.5,-2.4,-0.3,4.9,3.9,-0.0,50.0,100.3,71.5,00:00:41,71.4,308,128,--.--,54,0002:27:50,11.32,51,0,-1.00,--.--,-11.32,--.--,0,--.--,--.--,--.--,--.--,--.--,--.--,--.--,0,14:21:07,2020-08-02,5.00,--.--,--.--,--.--,--.--,--.--,--.--,0.00,--.--,--.--,true,true,true,true,true,true,false,false,true,true,false,false,0.04,0.03,0.01,0.02,0.00,0.00,0.41,0.20,43.9455214,-78.8975045,17TPJ 68721 67970,0.0,0.0,307.5,3,10,--.--,--.--,--.--,0.0,0.0,0.0,0,0,0,--.--,--.--,--.--
2020-08-02 14:21:08.804,5.7,-33.0,307,0.2,4.2,-5.8,4.9,5.2,-0.0,50.0,100.3,75.5,00:00:42,75.8,308,128,--.--,52,0002:27:50,11.32,51,0,-1.00,--.--,-11.32,--.--,0,--.--,--.--,--.--,--.--,--.--,--.--,--.--,0,14:21:08,2020-08-02,5.00,--.--,--.--,--.--,--.--,--.--,--.--,0.00,--.--,--.--,true,true,true,true,true,true,false,false,true,true,false,false,0.04,0.03,0.01,0.02,0.00,0.00,0.41,0.20,43.9455497,-78.8975551,17TPJ 68717 67973,0.0,0.0,308.1,3,10,--.--,--.--,--.--,0.0,0.0,0.0,0,0,0,--.--,--.--,--.--
2020-08-02 14:21:09.817,5.7,-33.6,307,13.0,0.6,1.9,4.9,4.3,-0.0,50.0,100.3,79.5,00:00:43,80.8,308,128,--.--,53,0002:27:50,11.32,51,0,-1.00,--.--,-11.32,--.--,0,--.--,--.--,--.--,--.--,--.--,--.--,--.--,0,14:21:09,2020-08-02,5.00,--.--,--.--,--.--,--.--,--.--,--.--,0.00,--.--,--.--,true,true,true,true,true,true,false,false,true,true,false,false,0.02,0.05,0.00,0.01,0.00,0.00,0.44,0.20,43.9455776,-78.8976043,17TPJ 68713 67976,0.0,0.0,308.2,3,10,--.--,--.--,--.--,0.0,0.0,0.0,0,0,0,--.--,--.--,--.--
2020-08-02 14:21:10.819,5.5,-34.0,308,-0.4,-7.3,0.6,5.0,4.7,-0.0,50.0,100.3,85.7,00:00:44,85.7,308,128,--.--,54,0002:27:50,11.32,51,0,-1.00,--.--,-11.32,--.--,0,--.--,--.--,--.--,--.--,--.--,--.--,--.--,0,14:21:10,2020-08-02,5.00,--.--,--.--,--.--,--.--,--.--,--.--,0.00,--.--,--.--,true,true,true,true,true,true,false,false,true,true,false,false,0.02,0.05,0.00,0.01,0.00,0.00,0.44,0.20,43.9456055,-78.8976539,17TPJ 68709 67979,0.0,0.0,307.6,3,10,--.--,--.--,--.--,0.0,0.0,0.0,0,0,0,--.--,--.--,--.--
2020-08-02 14:21:11.805,5.7,-33.7,308,5.0,-7.9,-2.5,5.0,1.0,-0.0,50.0,100.3,89.8,00:00:45,90.7,308,128,--.--,54,0002:27:50,11.32,51,0,-1.00,--.--,-11.32,--.--,0,--.--,--.--,--.--,--.--,--.--,--.--,--.--,0,14:21:11,2020-08-02,5.00,--.--,--.--,--.--,--.--,--.--,--.--,0.00,--.--,--.--,true,true,true,true,true,true,false,false,true,true,false,false,0.03,0.01,0.00,0.01,0.00,0.00,0.43,0.20,43.9456335,-78.8977044,17TPJ 68704 67982,0.0,0.0,307.7,3,10,--.--,--.--,--.--,0.0,0.0,0.0,0,0,0,--.--,--.--,--.--
2020-08-02 14:21:12.818,6.0,-33.0,308,10.3,2.4,-2.6,4.9,2.1,-0.0,50.0,100.3,95.9,00:00:46,95.8,308,128,--.--,54,0002:27:50,11.32,51,0,-1.00,--.--,-11.32,--.--,0,--.--,--.--,--.--,--.--,--.--,--.--,--.--,0,14:21:12,2020-08-02,5.00,--.--,--.--,--.--,--.--,--.--,--.--,0.00,--.--,--.--,true,true,true,true,true,true,false,false,true,true,false,false,0.03,0.01,0.00,0.01,0.00,0.00,0.43,0.20,43.9456621,-78.8977558,17TPJ 68700 67985,0.0,0.0,307.6,3,10,--.--,--.--,--.--,0.0,0.0,0.0,0,0,0,--.--,--.--,--.--
2020-08-02 14:21:13.819,5.8,-32.7,308,16.1,1.3,1.8,4.9,5.3,-0.0,50.0,100.3,99.9,00:00:47,100.8,308,128,--.--,54,0002:27:50,11.32,51,0,-1.00,--.--,-11.32,--.--,0,--.--,--.--,--.--,--.--,--.--,--.--,--.--,0,14:21:13,2020-08-02,5.00,--.--,--.--,--.--,--.--,--.--,--.--,0.00,--.--,--.--,true,true,true,true,true,true,false,false,true,true,false,false,0.02,0.04,0.01,0.02,0.00,0.00,0.43,0.20,43.9456905,-78.8978063,17TPJ 68696 67989,0.0,0.0,308.6,3,10,--.--,--.--,--.--,0.0,0.0,0.0,0,0,0,--.--,--.--,--.--
2020-08-02 14:21:14.818,5.6,-33.1,308,5.7,-3.2,-1.6,4.9,4.9,-0.0,50.0,100.3,104.0,00:00:48,105.7,308,128,--.--,54,0002:27:50,11.32,51,0,-1.00,--.--,-11.32,--.--,0,--.--,--.--,--.--,--.--,--.--,--.--,--.--,0,14:21:14,2020-08-02,5.00,--.--,--.--,--.--,--.--,--.--,--.--,0.00,--.--,--.--,true,true,true,true,true,true,false,false,true,true,false,false,0.02,0.04,0.01,0.02,0.00,0.00,0.43,0.20,43.9457132,-78.8978459,17TPJ 68693 67991,0.0,0.0,308.3,3,10,--.--,--.--,--.--,0.0,0.0,0.0,0,0,0,--.--,--.--,--.--
2020-08-02 14:21:15.819,6.2,-33.9,308,4.8,8.9,-1.7,5.0,3.4,-0.0,50.0,100.3,110.1,00:00:49,110.6,308,128,--.--,53,0002:27:50,11.32,51,0,-1.00,--.--,-11.32,--.--,0,--.--,--.--,--.--,--.--,--.--,--.--,--.--,0,14:21:15,2020-08-02,5.00,--.--,--.--,--.--,--.--,--.--,--.--,0.00,--.--,--.--,true,true,true,true,true,true,false,false,true,true,false,false,0.02,0.02,0.00,0.01,0.00,0.00,0.42,0.20,43.9457411,-78.8978948,17TPJ 68689 67994,0.0,0.0,308.2,3,10,--.--,--.--,--.--,0.0,0.0,0.0,0,0,0,--.--,--.--,--.--
2020-08-02 14:21:16.820,5.9,-33.4,308,-5.0,-0.2,-2.6,5.0,2.3,-0.0,50.0,100.3,114.2,00:00:50,115.7,308,128,--.--,53,0002:27:50,11.32,51,0,-1.00,--.--,-11.32,--.--,0,--.--,--.--,--.--,--.--,--.--,--.--,--.--,0,14:21:16,2020-08-02,5.00,--.--,--.--,--.--,--.--,--.--,--.--,0.00,--.--,--.--,true,true,true,true,true,true,false,false,true,true,false,false,0.02,0.02,0.00,0.01,0.00,0.00,0.42,0.20,43.9457694,-78.8979450,17TPJ 68685 67997,0.0,0.0,308.0,3,10,--.--,--.--,--.--,0.0,0.0,0.0,0,0,0,--.--,--.--,--.--
2020-08-02 14:21:17.819,5.8,-33.2,308,-5.4,-4.2,-1.7,5.0,1.6,-0.0,50.0,100.3,120.2,00:00:51,120.8,308,128,--.--,54,0002:27:50,11.32,51,0,-1.00,--.--,-11.32,--.--,0,--.--,--.--,--.--,--.--,--.--,--.--,--.--,0,14:21:17,2020-08-02,5.00,--.--,--.--,--.--,--.--,--.--,--.--,0.00,--.--,--.--,true,true,true,true,true,true,false,false,true,true,false,false,0.02,0.03,0.01,0.00,0.00,0.00,0.41,0.20,43.9457979,-78.8979956,17TPJ 68681 68000,0.0,0.0,308.2,3,10,--.--,--.--,--.--,0.0,0.0,0.0,0,0,0,--.--,--.--,--.--
2020-08-02 14:21:18.804,5.7,-32.9,308,-5.8,-2.1,2.9,4.9,4.2,-0.0,50.0,100.3,124.3,00:00:52,125.7,308,128,--.--,53,0002:27:50,11.32,51,0,-1.00,--.--,-11.32,--.--,0,--.--,--.--,--.--,--.--,--.--,--.--,--.--,0,14:21:18,2020-08-02,5.00,--.--,--.--,--.--,--.--,--.--,--.--,0.00,--.--,--.--,true,true,true,true,true,true,false,false,true,true,false,false,0.02,0.03,0.01,0.00,0.00,0.00,0.41,0.20,43.9458265,-78.8980456,17TPJ 68677 68003,0.0,0.0,308.7,3,10,--.--,--.--,--.--,0.0,0.0,0.0,0,0,0,--.--,--.--,--.--
2020-08-02 14:21:19.804,5.5,-33.1,308,-11.6,-8.6,3.5,4.9,4.9,0.0,50.0,100.3,130.4,00:00:53,130.6,308,128,--.--,54,0002:27:50,11.32,51,0,-1.00,--.--,-11.32,--.--,0,--.--,--.--,--.--,--.--,--.--,--.--,--.--,0,14:21:19,2020-08-02,5.00,--.--,--.--,--.--,--.--,--.--,--.--,0.00,--.--,--.--,true,true,true,true,true,true,false,false,true,true,false,false,0.01,0.04,0.00,0.01,0.00,0.00,0.41,0.20,43.9458549,-78.8980950,17TPJ 68672 68006,0.0,0.0,308.5,3,10,--.--,--.--,--.--,0.0,0.0,0.0,0,0,0,--.--,--.--,--.--
2020-08-02 14:21:20.820,5.7,-34.2,308,-10.5,-5.5,1.7,5.0,4.8,0.0,50.0,100.2,134.5,00:00:54,135.5,308,128,--.--,53,0002:27:50,11.32,51,0,-1.00,--.--,-11.32,--.--,0,--.--,--.--,--.--,--.--,--.--,--.--,--.--,0,14:21:20,2020-08-02,5.00,--.--,--.--,--.--,--.--,--.--,--.--,0.00,--.--,--.--,true,true,true,true,true,true,false,false,true,true,false,false,0.01,0.04,0.00,0.01,0.00,0.00,0.41,0.20,43.9458827,-78.8981438,17TPJ 68668 68009,0.0,0.0,308.3,3,10,--.--,--.--,--.--,0.0,0.0,0.0,0,0,0,--.--,--.--,--.--
2020-08-02 14:21:21.805,5.9,-33.7,308,19.7,2.6,-1.0,5.0,3.5,0.0,50.0,100.2,140.6,00:00:55,140.5,308,128,--.--,55,0002:27:50,11.32,51,0,-1.00,--.--,-11.32,--.--,0,--.--,--.--,--.--,--.--,--.--,--.--,--.--,0,14:21:21,2020-08-02,5.00,--.--,--.--,--.--,--.--,--.--,--.--,0.00,--.--,--.--,true,true,true,true,true,true,false,false,true,true,false,false,0.01,0.00,0.00,0.01,0.00,0.00,0.43,0.20,43.9459111,-78.8981939,17TPJ 68664 68012,0.0,0.0,307.7,3,10,--.--,--.--,--.--,0.0,0.0,0.0,0,0,0,--.--,--.--,--.--
2020-08-02 14:21:22.805,5.8,-33.1,308,15.4,2.6,-0.2,5.0,3.6,0.0,50.0,100.2,144.7,00:00:56,145.6,308,128,--.--,54,0002:27:50,11.32,51,0,-1.00,--.--,-11.32,--.--,0,--.--,--.--,--.--,--.--,--.--,--.--,--.--,0,14:21:22,2020-08-02,5.00,--.--,--.--,--.--,--.--,--.--,--.--,0.00,--.--,--.--,true,true,true,true,true,true,false,false,true,true,false,false,0.01,0.00,0.00,0.01,0.00,0.00,0.43,0.20,43.9459394,-78.8982447,17TPJ 68660 68015,0.0,0.0,308.1,3,10,--.--,--.--,--.--,0.0,0.0,0.0,0,0,0,--.--,--.--,--.--
2020-08-02 14:21:23.821,5.6,-33.0,308,21.6,-2.7,0.1,4.9,4.2,0.0,50.0,100.2,148.7,00:00:57,150.6,308,128,--.--,54,0002:27:50,11.32,51,0,-1.00,--.--,-11.32,--.--,0,--.--,--.--,--.--,--.--,--.--,--.--,--.--,0,14:21:23,2020-08-02,5.00,--.--,--.--,--.--,--.--,--.--,--.--,0.00,--.--,--.--,true,true,true,true,true,true,false,false,true,true,false,false,0.03,0.03,0.01,0.01,0.00,0.00,0.43,0.20,43.9459680,-78.8982956,17TPJ 68656 68018,0.0,0.0,307.9,3,10,--.--,--.--,--.--,0.0,0.0,0.0,0,0,0,--.--,--.--,--.--
2020-08-02 14:21:24.805,5.4,-33.7,308,18.5,-12.6,1.2,4.9,3.9,0.1,50.0,100.2,155.0,00:00:58,155.6,308,128,--.--,53,0002:27:50,11.32,51,0,-1.00,--.--,-11.32,--.--,0,--.--,--.--,--.--,--.--,--.--,--.--,--.--,0,14:21:24,2020-08-02,5.00,--.--,--.--,--.--,--.--,--.--,--.--,0.00,--.--,--.--,true,true,true,true,true,true,false,false,true,true,false,false,0.03,0.03,0.01,0.01,0.00,0.00,0.43,0.20,43.9459959,-78.8983456,17TPJ 68652 68021,0.0,0.0,307.2,3,10,--.--,--.--,--.--,0.0,0.0,0.0,0,0,0,--.--,--.--,--.--
2020-08-02 14:21:25.822,5.7,-33.8,308,-2.5,-1.7,2.2,5.0,4.8,0.0,50.0,100.2,159.0,00:00:59,160.5,308,128,--.--,54,0002:27:50,11.32,51,0,-1.00,--.--,-11.32,--.--,0,--.--,--.--,--.--,--.--,--.--,--.--,--.--,0,14:21:25,2020-08-02,5.00,--.--,--.--,--.--,--.--,--.--,--.--,0.00,--.--,--.--,true,true,true,true,true,true,false,false,true,true,false,false,0.03,0.02,0.00,0.02,0.00,0.00,0.42,0.20,43.9460180,-78.8983859,17TPJ 68649 68024,0.0,0.0,307.1,3,10,--.--,--.--,--.--,0.0,0.0,0.0,0,0,0,--.--,--.--,--.--
2020-08-02 14:21:26.822,5.8,-33.7,308,-9.6,-4.5,-1.4,5.0,3.2,0.0,50.0,100.2,165.1,00:01:00,165.5,308,128,--.--,53,0002:27:50,11.32,51,0,-1.00,--.--,-11.32,--.--,0,--.--,--.--,--.--,--.--,--.--,--.--,--.--,0,14:21:26,2020-08-02,5.00,--.--,--.--,--.--,--.--,--.--,--.--,0.00,--.--,--.--,true,true,true,true,true,true,false,false,true,true,false,false,0.03,0.02,0.00,0.02,0.00,0.00,0.42,0.20,43.9460455,-78.8984366,17TPJ 68645 68027,0.0,0.0,307.1,3,10,--.--,--.--,--.--,0.0,0.0,0.0,0,0,0,--.--,--.--,--.--
2020-08-02 14:21:27.823,5.6,-33.3,308,8.7,-4.4,0.5,5.0,4.4,0.0,50.0,100.2,169.2,00:01:01,170.6,308,128,--.--,54,0002:27:50,11.32,51,0,-1.00,--.--,-11.32,--.--,0,--.--,--.--,--.--,--.--,--.--,--.--,--.--,0,14:21:27,2020-08-02,5.00,--.--,--.--,--.--,--.--,--.--,--.--,0.00,--.--,--.--,true,true,true,true,true,true,false,false,true,true,false,false,0.04,0.03,0.00,0.01,0.00,0.00,0.41,0.20,43.9460736,-78.8984882,17TPJ 68640 68030,0.0,0.0,307.6,3,10,--.--,--.--,--.--,0.0,0.0,0.0,0,0,0,--.--,--.--,--.--
2020-08-02 14:21:28.823,5.9,-33.1,308,14.9,-5.3,2.0,4.9,2.5,0.0,50.0,100.3,175.4,00:01:02,175.7,308,128,--.--,53,0002:27:50,11.32,51,0,-1.00,--.--,-11.32,--.--,0,--.--,--.--,--.--,--.--,--.--,--.--,--.--,0,14:21:28,2020-08-02,5.00,--.--,--.--,--.--,--.--,--.--,--.--,0.00,--.--,--.--,true,true,true,true,true,true,false,false,true,true,false,false,0.04,0.03,0.00,0.01,0.00,0.00,0.41,0.20,43.9461018,-78.8985389,17TPJ 68636 68033,0.0,0.0,307.9,3,10,--.--,--.--,--.--,0.0,0.0,0.0,0,0,0,--.--,--.--,--.--
2020-08-02 14:21:29.823,5.8,-32.9,308,27.1,-2.4,-2.2,4.9,3.6,0.0,50.0,100.3,179.4,00:01:03,180.7,308,128,--.--,54,0002:27:50,11.32,51,0,-1.00,--.--,-11.32,--.--,0,--.--,--.--,--.--,--.--,--.--,--.--,--.--,0,14:21:29,2020-08-02,5.00,--.--,--.--,--.--,--.--,--.--,--.--,0.00,--.--,--.--,true,true,true,true,true,true,false,false,true,true,false,false,0.04,0.05,0.00,0.00,0.00,0.00,0.41,0.20,43.9461301,-78.8985892,17TPJ 68632 68036,0.0,0.0,308.2,3,10,--.--,--.--,--.--,0.0,0.0,0.0,0,0,0,--.--,--.--,--.--
2020-08-02 14:21:30.823,6.1,-34.1,308,9.8,-0.5,-0.4,5.0,2.9,0.0,50.0,100.2,185.5,00:01:04,185.4,308,128,--.--,53,0002:27:50,11.32,51,0,-1.00,--.--,-11.32,--.--,0,--.--,--.--,--.--,--.--,--.--,--.--,--.--,0,14:21:30,2020-08-02,5.00,--.--,--.--,--.--,--.--,--.--,--.--,0.00,--.--,--.--,true,true,true,true,true,true,false,false,true,true,false,false,0.04,0.05,0.00,0.00,0.00,0.00,0.41,0.20,43.9461580,-78.8986384,17TPJ 68628 68039,0.0,0.0,308.1,3,10,--.--,--.--,--.--,0.0,0.0,0.0,0,0,0,--.--,--.--,--.--
2020-08-02 14:21:31.824,5.9,-33.9,308,-13.3,-2.0,1.3,5.0,3.4,0.0,50.0,100.3,189.6,00:01:05,190.4,308,128,--.--,54,0002:27:50,11.32,51,0,-1.00,--.--,-11.32,--.--,0,--.--,--.--,--.--,--.--,--.--,--.--,--.--,0,14:21:31,2020-08-02,5.00,--.--,--.--,--.--,--.--,--.--,--.--,0.00,--.--,--.--,true,true,true,true,true,true,false,false,true,true,false,false,0.03,0.02,0.00,0.00,0.00,0.00,0.43,0.20,43.9461862,-78.8986882,17TPJ 68624 68042,0.0,0.0,308.1,3,10,--.--,--.--,--.--,0.0,0.0,0.0,0,0,0,--.--,--.--,--.--
2020-08-02 14:21:32.808,5.7,-33.4,308,-17.1,-1.1,-1.7,5.0,1.4,0.0,50.0,100.3,193.7,00:01:06,195.5,308,128,--.--,53,0002:27:50,11.32,51,0,-1.00,--.--,-11.32,--.--,0,--.--,--.--,--.--,--.--,--.--,--.--,--.--,0,14:21:32,2020-08-02,5.00,--.--,--.--,--.--,--.--,--.--,--.--,0.00,--.--,--.--,true,true,true,true,true,true,false,false,true,true,false,false,0.03,0.02,0.00,0.00,0.00,0.00,0.43,0.20,43.9462150,-78.8987393,17TPJ 68620 68045,0.0,0.0,308.0,3,10,--.--,--.--,--.--,0.0,0.0,0.0,0,0,0,--.--,--.--,--.--
2020-08-02 14:21:33.808,5.3,-33.2,308,-11.5,0.5,6.5,4.9,4.5,0.0,50.0,100.2,199.8,00:01:07,200.6,308,128,--.--,53,0002:27:50,11.32,51,0,-1.00,--.--,-11.32,--.--,0,--.--,--.--,--.--,--.--,--.--,--.--,--.--,0,14:21:33,2020-08-02,5.00,--.--,--.--,--.--,--.--,--.--,--.--,0.00,--.--,--.--,true,true,true,true,true,true,false,false,true,true,false,false,0.03,0.04,0.00,0.02,0.00,0.00,0.43,0.20,43.9462437,-78.8987897,17TPJ 68616 68048,0.0,0.0,308.6,3,10,--.--,--.--,--.--,0.0,0.0,0.0,0,0,0,--.--,--.--,--.--
2020-08-02 14:21:34.808,5.8,-33.2,308,15.2,0.0,2.5,4.9,2.9,0.0,50.0,100.2,203.8,00:01:08,205.6,308,128,--.--,53,0002:27:50,11.32,51,0,-1.00,--.--,-11.32,--.--,0,--.--,--.--,--.--,--.--,--.--,--.--,--.--,0,14:21:34,2020-08-02,5.00,--.--,--.--,--.--,--.--,--.--,--.--,0.00,--.--,--.--,true,true,true,true,true,true,false,false,true,true,false,false,0.03,0.04,0.00,0.02,0.00,0.00,0.43,0.20,43.9462721,-78.8988397,17TPJ 68612 68051,0.0,0.0,308.4,3,10,--.--,--.--,--.--,0.0,0.0,0.0,0,0,0,--.--,--.--,--.--
2020-08-02 14:21:35.810,5.8,-34.0,307,11.3,-3.4,-3.8,4.9,4.9,0.0,50.0,100.2,210.0,00:01:09,210.4,308,128,--.--,54,0002:27:50,11.32,51,0,-1.00,--.--,-11.32,--.--,0,--.--,--.--,--.--,--.--,--.--,--.--,--.--,0,14:21:35,2020-08-02,5.00,--.--,--.--,--.--,--.--,--.--,--.--,0.00,--.--,--.--,true,true,true,true,true,true,false,false,true,true,false,false,0.03,0.04,0.00,0.00,0.00,0.00,0.42,0.20,43.9462945,-78.8988792,17TPJ 68608 68053,0.0,0.0,308.2,3,10,--.--,--.--,--.--,0.0,0.0,0.0,0,0,0,--.--,--.--,--.--
2020-08-02 14:21:36.826,5.9,-33.9,308,-6.9,8.9,-0.7,5.0,5.2,0.0,50.0,100.2,214.1,00:01:10,215.4,308,128,--.--,54,0002:27:50,11.32,51,0,-1.00,--.--,-11.32,--.--,0,--.--,--.--,--.--,--.--,--.--,--.--,--.--,0,14:21:36,2020-08-02,5.00,--.--,--.--,--.--,--.--,--.--,--.--,0.00,--.--,--.--,true,true,true,true,true,true,false,false,true,true,false,false,0.03,0.04,0.00,0.00,0.00,0.00,0.42,0.20,43.9463222,-78.8989287,17TPJ 68604 68056,0.0,0.0,307.3,3,10,--.--,--.--,--.--,0.0,0.0,0.0,0,0,0,--.--,--.--,--.--
2020-08-02 14:21:37.809,6.1,-33.5,308,-4.9,3.0,-0.3,5.0,3.4,0.0,50.0,100.2,220.2,00:01:11,220.5,308,128,--.--,53,0002:27:50,11.32,51,0,-1.00,--.--,-11.32,--.--,0,--.--,--.--,--.--,--.--,--.--,--.--,--.--,0,14:21:37,2020-08-02,5.00,--.--,--.--,--.--,--.--,--.--,--.--,0.00,--.--,--.--,true,true,true,true,true,true,false,false,true,true,false,false,0.04,0.03,0.03,0.01,0.00,0.00,0.41,0.20,43.9463506,-78.8989797,17TPJ 68600 68059,0.0,0.0,307.6,3,10,--.--,--.--,--.--,0.0,0.0,0.0,0,0,0,--.--,--.--,--.--
2020-08-02 14:21:38.810,5.6,-33.2,308,-8.2,2.7,1.5,4.9,4.2,0.0,50.0,100.2,224.3,00:01:12,225.6,308,128,--.--,54,0002:27:50,11.32,51,0,-1.00,--.--,-11.32,--.--,0,--.--,--.--,--.--,--.--,--.--,--.--,--.--,0,14:21:38,2020-08-02,5.00,--.--,--.--,--.--,--.--,--.--,--.--,0.00,--.--,--.--,true,true,true,true,true,true,false,false,true,true,false,false,0.04,0.03,0.03,0.01,0.00,0.00,0.41,0.20,43.9463794,-78.8990308,17TPJ 68596 68063,0.0,0.0,308.4,3,10,--.--,--.--,--.--,0.0,0.0,0.0,0,0,0,--.--,--.--,--.--
2020-08-02 14:21:39.826,5.7,-33.2,307,-5.4,4.2,-1.3,4.9,3.7,0.0,50.0,100.2,230.3,00:01:13,230.6,308,128,--.--,52,0002:27:50,11.32,51,0,-1.00,--.--,-11.32,--.--,0,--.--,--.--,--.--,--.--,--.--,--.--,--.--,0,14:21:39,2020-08-02,5.00,--.--,--.--,--.--,--.--,--.--,--.--,0.00,--.--,--.--,true,true,true,true,true,true,false,false,true,true,false,false,0.03,0.04,0.00,0.02,0.00,0.00,0.41,0.20,43.9464076,-78.8990806,17TPJ 68592 68066,0.0,0.0,308.4,3,10,--.--,--.--,--.--,0.0,0.0,0.0,0,0,0,--.--,--.--,--.--
2020-08-02 14:21:40.828,5.7,-33.8,308,10.4,-2.9,2.9,4.9,4.8,0.0,50.0,100.3,234.4,00:01:14,235.5,308,128,--.--,54,0002:27:50,11.32,51,0,-1.00,--.--,-11.32,--.--,0,--.--,--.--,--.--,--.--,--.--,--.--,--.--,0,14:21:40,2020-08-02,5.00,--.--,--.--,--.--,--.--,--.--,--.--,0.00,--.--,--.--,true,true,true,true,true,true,false,false,true,true,false,false,0.03,0.04,0.00,0.02,0.00,0.00,0.41,0.20,43.9464358,-78.8991302,17TPJ 68588 68069,0.0,0.0,308.2,3,10,--.--,--.--,--.--,0.0,0.0,0.0,0,0,0,--.--,--.--,--.--
2020-08-02 14:21:41.811,5.6,-34.1,308,-0.4,-0.6,-3.2,5.0,4.4,-0.0,50.0,100.3,238.5,00:01:15,240.4,308,128,--.--,54,0002:27:50,11.32,51,0,-1.00,--.--,-11.32,--.--,0,--.--,--.--,--.--,--.--,--.--,--.--,--.--,0,14:21:41,2020-08-02,5.00,--.--,--.--,--.--,--.--,--.--,--.--,0.00,--.--,--.--,true,true,true,true,true,true,false,false,true,true,false,false,0.03,0.02,0.01,0.01,0.00,0.00,0.43,0.20,43.9464637,-78.8991795,17TPJ 68584 68072,0.0,0.0,308.1,3,10,--.--,--.--,--.--,0.0,0.0,0.0,0,0,0,--.--,--.--,--.--
2020-08-02 14:21:42.828,5.8,-33.4,308,3.5,3.0,0.2,5.0,3.7,-0.0,50.0,100.3,244.7,00:01:16,245.5,308,128,--.--,54,0002:27:50,11.32,51,0,-1.00,--.--,-11.32,--.--,0,--.--,--.--,--.--,--.--,--.--,--.--,--.--,0,14:21:42,2020-08-02,5.00,--.--,--.--,--.--,--.--,--.--,--.--,0.00,--.--,--.--,true,true,true,true,true,true,false,false,true,true,false,false,0.03,0.02,0.01,0.01,0.00,0.00,0.43,0.20,43.9464922,-78.8992300,17TPJ 68580 68075,0.0,0.0,308.1,3,10,--.--,--.--,--.--,0.0,0.0,0.0,0,0,0,--.--,--.--,--.--
2020-08-02 14:21:43.830,5.7,-33.3,308,9.9,-2.4,0.8,5.0,3.7,-0.0,50.0,100.3,248.7,00:01:17,250.5,308,128,--.--,54,0002:27:50,11.32,51,0,-1.00,--.--,-11.32,--.--,0,--.--,--.--,--.--,--.--,--.--,--.--,--.--,0,14:21:43,2020-08-02,5.00,--.--,--.--,--.--,--.--,--.--,--.--,0.00,--.--,--.--,true,true,true,true,true,true,false,false,true,true,false,false,0.01,0.03,0.01,0.01,0.00,0.00,0.43,0.20,43.9465207,-78.8992803,17TPJ 68575 68078,0.0,0.0,308.6,3,10,--.--,--.--,--.--,0.0,0.0,0.0,0,0,0,--.--,--.--,--.--
2020-08-02 14:21:44.813,5.4,-33.1,307,2.1,-2.7,-3.4,4.9,3.6,-0.0,50.0,100.3,254.8,00:01:18,255.5,308,128,--.--,53,0002:27:50,11.32,51,0,-1.00,--.--,-11.32,--.--,0,--.--,--.--,--.--,--.--,--.--,--.--,--.--,0,14:21:44,2020-08-02,5.00,--.--,--.--,--.--,--.--,--.--,--.--,0.00,--.--,--.--,true,true,true,true,true,true,false,false,true,true,false,false,0.01,0.03,0.01,0.01,0.00,0.00,0.43,0.20,43.9465492,-78.8993302,17TPJ 68571 68081,0.0,0.0,308.3,3,10,--.--,--.--,--.--,0.0,0.0,0.0,0,0,0,--.--,--.--,--.--
2020-08-02 14:21:45.813,5.2,-34.1,308,-1.5,7.7,0.0,5.0,4.6,-0.0,50.0,100.3,258.9,00:01:19,260.3,308,128,--.--,54,0002:27:50,11.32,51,0,-1.00,--.--,-11.32,--.--,0,--.--,--.--,--.--,--.--,--.--,--.--,--.--,0,14:21:45,2020-08-02,5.00,--.--,--.--,--.--,--.--,--.--,--.--,0.00,--.--,--.--,true,true,true,true,true,true,false,false,true,true,false,false,0.02,0.04,0.01,0.00,0.00,0.00,0.42,0.20,43.9465715,-78.8993694,17TPJ 68568 68083,0.0,0.0,308.1,3,10,--.--,--.--,--.--,0.0,0.0,0.0,0,0,0,--.--,--.--,--.--
2020-08-02 14:21:46.813,5.3,-34.0,308,-1.1,4.9,-1.3,5.1,5.1,-0.0,50.0,100.3,265.0,00:01:20,265.3,308,128,--.--,54,0002:27:50,11.32,51,0,-1.00,--.--,-11.32,--.--,0,--.--,--.--,--.--,--.--,--.--,--.--,--.--,0,14:21:46,2020-08-02,5.00,--.--,--.--,--.--,--.--,--.--,--.--,0.00,--.--,--.--,true,true,true,true,true,true,false,false,true,true,false,false,0.02,0.04,0.01,0.00,0.00,0.00,0.42,0.20,43.9465996,-78.8994190,17TPJ 68564 68086,0.0,0.0,307.9,3,10,--.--,--.--,--.--,0.0,0.0,0.0,0,0,0,--.--,--.--,--.--
2020-08-02 14:21:47.829,5.4,-33.4,308,-2.5,8.2,-4.4,5.0,3.3,-0.0,50.0,100.3,269.0,00:01:21,270.3,308,128,--.--,54,0002:27:50,11.32,51,0,-1.00,--.--,-11.32,--.--,0,--.--,--.--,--.--,--.--,--.--,--.--,--.--,0,14:21:47,2020-08-02,5.00,--.--,--.--,--.--,--.--,--.--,--.--,0.00,--.--,--.--,true,true,true,true,true,true,false,false,true,true,false,false,0.03,0.01,0.00,0.01,0.00,0.00,0.41,0.20,43.9466279,-78.8994694,17TPJ 68560 68089,0.0,0.0,308.0,3,10,--.--,--.--,--.--,0.0,0.0,0.0,0,0,0,--.--,--.--,--.--
2020-08-02 14:21:48.814,5.3,-33.2,308,1.5,14.4,-1.1,5.0,3.4,-0.0,50.0,100.3,275.2,00:01:22,275.4,308,128,--.--,54,0002:27:50,11.32,51,0,-1.00,--.--,-11.32,--.--,0,--.--,--.--,--.--,--.--,--.--,--.--,--.--,0,14:21:48,2020-08-02,5.00,--.--,--.--,--.--,--.--,--.--,--.--,0.00,--.--,--.--,true,true,true,true,true,true,false,false,true,true,false,false,0.03,0.01,0.00,0.01,0.00,0.00,0.41,0.20,43.9466566,-78.8995203,17TPJ 68556 68092,0.0,0.0,308.4,3,10,--.--,--.--,--.--,0.0,0.0,0.0,0,0,0,--.--,--.--,--.--
2020-08-02 14:21:49.831,5.3,-33.2,307,1.9,6.4,-1.9,5.0,4.9,-0.0,50.0,100.3,279.2,00:01:23,280.4,308,128,--.--,54,0002:27:50,11.32,51,0,-1.00,--.--,-11.32,--.--,0,--.--,--.--,--.--,--.--,--.--,--.--,--.--,0,14:21:49,2020-08-02,5.00,--.--,--.--,--.--,--.--,--.--,--.--,0.00,--.--,--.--,true,true,true,true,true,true,false,false,true,true,false,false,0.01,0.03,0.00,0.01,0.00,0.00,0.41,0.20,43.9466850,-78.8995700,17TPJ 68552 68095,0.0,0.0,308.4,3,10,--.--,--.--,--.--,0.0,0.0,0.0,0,0,0,--.--,--.--,--.--
2020-08-02 14:21:50.831,4.9,-34.0,307,-7.5,11.2,-1.9,5.0,4.6,-0.0,50.0,100.3,285.3,00:01:24,285.3,308,128,--.--,55,0002:27:50,11.32,51,0,-1.00,--.--,-11.32,--.--,0,--.--,--.--,--.--,--.--,--.--,--.--,--.--,0,14:21:50,2020-08-02,5.00,--.--,--.--,--.--,--.--,--.--,--.--,0.00,--.--,--.--,true,true,true,true,true,true,false,false,true,true,false,false,0.01,0.03,0.00,0.01,0.00,0.00,0.41,0.20,43.9467132,-78.8996192,17TPJ 68548 68098,0.0,0.0,308.6,3,10,--.--,--.--,--.--,0.0,0.0,0.0,0,0,0,--.--,--.--,--.--
2020-08-02 14:21:51.831,5.1,-34.2,307,-0.4,-1.3,-1.5,5.1,4.0,-0.0,50.0,100.3,289.5,00:01:25,289.8,308,128,--.--,54,0002:27:50,11.32,51,0,-1.00,--.--,-11.32,--.--,0,--.--,--.--,--.--,--.--,--.--,--.--,--.--,0,14:21:51,2020-08-02,5.00,--.--,--.--,--.--,--.--,--.--,--.--,0.00,--.--,--.--,true,true,true,true,true,true,false,false,true,true,false,false,0.03,0.02,0.00,0.01,0.00,0.00,0.43,0.20,43.9467414,-78.8996687,17TPJ 68544 68101,0.0,0.0,307.9,3,10,--.--,--.--,--.--,0.0,0.0,0.0,0,0,0,--.--,--.--,--.--
2020-08-02 14:21:52.817,5.0,-33.7,308,-7.0,5.9,0.2,5.1,3.6,0.0,50.0,100.3,293.5,00:01:26,294.7,308,128,--.--,53,0002:27:50,11.32,51,0,-1.00,--.--,-11.32,--.--,0,--.--,--.--,--.--,--.--,--.--,--.--,--.--,0,14:21:52,2020-08-02,5.00,--.--,--.--,--.--,--.--,--.--,--.--,0.00,--.--,--.--,true,true,true,true,true,true,false,false,true,true,false,false,0.03,0.02,0.00,0.01,0.00,0.00,0.43,0.20,43.9467698,-78.8997193,17TPJ 68540 68104,0.0,0.0,307.8,3,10,--.--,--.--,--.--,0.0,0.0,0.0,0,0,0,--.--,--.--,--.--
2020-08-02 14:21:53.815,5.1,-33.3,308,2.4,5.6,1.4,5.0,4.7,0.0,50.0,100.2,299.6,00:01:27,299.8,308,128,--.--,54,0002:27:50,11.32,51,0,-1.00,--.--,-11.32,--.--,0,--.--,--.--,--.--,--.--,--.--,--.--,--.--,0,14:21:53,2020-08-02,5.00,--.--,--.--,--.--,--.--,--.--,--.--,0.00,--.--,--.--,true,true,true,true,true,true,false,false,true,true,false,false,0.01,0.01,0.01,0.01,0.00,0.00,0.42,0.20,43.9467984,-78.8997702,17TPJ 68535 68108,0.0,0.0,307.8,3,10,--.--,--.--,--.--,0.0,0.0,0.0,0,0,0,--.--,--.--,--.--
2020-08-02 14:21:54.804,5.1,-33.1,307,3.7,-2.8,1.1,5.0,4.3,0.0,50.0,100.2,303.6,00:01:28,304.2,308,128,--.--,54,0002:27:50,11.32,51,0,-1.00,--.--,-11.32,--.--,0,--.--,--.--,--.--,--.--,--.--,--.--,--.--,0,14:21:54,2020-08-02,5.00,--.--,--.--,--.--,--.--,--.--,--.--,0.00,--.--,--.--,true,true,true,true,true,true,false,false,true,true,false,false,0.01,0.01,0.01,0.01,0.00,0.00,0.42,0.20,43.9468266,-78.8998201,17TPJ 68531 68111,0.0,0.0,308.1,3,10,--.--,--.--,--.--,0.0,0.0,0.0,0,0,0,--.--,--.--,--.--
2020-08-02 14:21:55.804,5.0,-17.3,308,6.3,18.9,-1.2,4.4,4.1,0.0,50.0,100.2,307.7,00:01:29,309.0,308,128,--.--,49,0002:27:50,11.32,51,0,-1.00,--.--,-11.32,--.--,0,--.--,--.--,--.--,--.--,--.--,--.--,--.--,0,14:21:55,2020-08-02,5.00,--.--,--.--,--.--,--.--,--.--,--.--,0.00,--.--,--.--,true,true,true,true,true,true,false,false,true,true,false,false,0.04,0.02,0.01,0.02,0.00,0.00,0.42,0.20,43.9468547,-78.8998698,17TPJ 68527 68114,0.0,0.0,308.2,3,10,--.--,--.--,--.--,0.0,0.0,0.0,0,0,0,--.--,--.--,--.--
2020-08-02 14:21:56.817,2.9,-5.1,306,-21.5,10.3,-4.8,2.2,2.5,0.0,50.0,100.2,311.7,00:01:30,312.1,308,128,--.--,45,0002:27:50,11.32,51,0,-1.00,--.--,-11.32,--.--,0,--.--,--.--,--.--,--.--,--.--,--.--,--.--,0,14:21:56,2020-08-02,5.00,--.--,--.--,--.--,--.--,--.--,--.--,0.00,--.--,--.--,true,true,true,true,true,true,false,false,true,true,false,false,0.04,0.02,0.01,0.02,0.00,0.00,0.42,0.20,43.9468787,-78.8999096,17TPJ 68524 68116,0.0,0.0,312.6,3,10,--.--,--.--,--.--,0.0,0.0,0.0,0,0,0,--.--,--.--,--.--
2020-08-02 14:21:57.818,-1.2,-1.3,301,-33.2,-3.3,-20.2,1.0,-2.8,0.1,50.0,100.3,311.7,00:01:31,313.5,191,128,--.--,39,0002:27:50,11.32,51,0,-1.00,--.--,-11.32,--.--,0,--.--,--.--,--.--,--.--,--.--,--.--,--.--,0,14:21:57,2020-08-02,5.00,--.--,--.--,--.--,--.--,--.--,--.--,0.00,--.--,--.--,true,true,true,true,true,true,false,false,true,true,false,false,0.09,0.03,0.00,0.05,0.00,0.00,0.42,0.20,43.9468901,-78.8999253,17TPJ 68523 68117,0.0,0.0,317.5,3,10,--.--,--.--,--.--,0.0,0.0,0.0,0,0,0,--.--,--.--,--.--
2020-08-02 14:21:58.820,-22.6,-3.4,267,9.9,-10.1,-46.8,1.5,1.8,-0.0,50.1,100.3,313.7,00:01:32,313.6,191,128,--.--,44,0002:27:50,11.32,51,0,-1.00,--.--,-11.32,--.--,0,--.--,--.--,--.--,--.--,--.--,--.--,--.--,0,14:21:58,2020-08-02,5.00,--.--,--.--,--.--,--.--,--.--,--.--,0.00,--.--,--.--,true,true,true,true,true,true,false,false,true,true,false,false,0.09,0.03,0.00,0.05,0.00,0.00,0.42,0.20,43.9468966,-78.8999332,17TPJ 68522 68118,0.0,0.0,298.0,3,10,--.--,--.--,--.--,0.0,0.0,0.0,0,0,0,--.--,--.--,--.--
2020-08-02 14:21:59.818,-18.6,-26.1,220,-2.8,-17.5,-47.3,3.4,2.0,-0.0,50.0,100.3,315.8,00:01:33,312.2,191,128,--.--,52,0002:27:50,11.32,51,0,-1.00,--.--,-11.32,--.--,0,--.--,--.--,--.--,--.--,--.--,--.--,--.--,0,14:21:59,2020-08-02,5.00,--.--,--.--,--.--,--.--,--.--,--.--,0.00,--.--,--.--,true,true,true,true,true,true,false,false,true,true,false,false,0.15,0.04,0.00,0.06,0.00,0.00,0.43,0.20,43.9468862,-78.8999357,17TPJ 68522 68117,0.0,0.0,181.4,3,10,--.--,--.--,--.--,0.0,0.0,0.0,0,0,0,--.--,--.--,--.--
2020-08-02 14:22:00.818,-3.6,-30.7,195,8.8,4.3,9.8,5.0,5.3,-0.0,50.0,100.3,319.8,00:01:34,309.5,191,127,--.--,54,0002:27:50,11.32,51,0,-1.00,--.--,-11.32,--.--,0,--.--,--.--,--.--,--.--,--.--,--.--,--.--,0,14:22:00,2020-08-02,5.00,--.--,--.--,--.--,--.--,--.--,--.--,0.00,--.--,--.--,true,true,true,true,true,true,false,false,true,true,false,false,0.15,0.04,0.00,0.06,0.00,0.00,0.43,0.20,43.9468547,-78.8999345,17TPJ 68522 68113,0.0,0.0,177.2,3,10,--.--,--.--,--.--,0.0,0.0,0.0,0,0,0,--.--,--.--,--.--
2020-08-02 14:22:01.819,0.7,-31.1,188,4.7,7.9,-20.2,5.0,5.3,0.0,50.0,100.2,326.0,00:01:35,306.4,180,126,--.--,53,0002:27:50,11.32,51,0,-1.00,--.--,-11.32,--.--,0,--.--,--.--,--.--,--.--,--.--,--.--,--.--,0,14:22:01,2020-08-02,5.00,--.--,--.--,--.--,--.--,--.--,--.--,0.00,--.--,--.--,true,true,true,true,true,true,false,false,true,true,false,false,0.18,0.08,0.01,0.03,0.00,0.00,0.43,0.20,43.9468073,-78.8999331,17TPJ 68522 68108,0.0,0.0,180.8,3,10,--.--,--.--,--.--,0.0,0.0,0.0,0,0,0,--.--,--.--,--.--
2020-08-02 14:22:02.804,6.1,-29.4,180,7.3,2.4,-0.4,4.9,4.0,0.0,49.9,100.2,330.1,00:01:36,303.5,180,125,--.--,53,0002:27:50,11.32,51,0,-1.00,--.--,-11.32,--.--,0,--.--,--.--,--.--,--.--,--.--,--.--,--.--,0,14:22:02,2020-08-02,5.00,--.--,--.--,--.--,--.--,--.--,--.--,0.00,--.--,--.--,true,true,true,true,true,true,false,false,true,true,false,false,0.18,0.08,0.01,0.03,0.00,0.00,0.43,0.20,43.9467592,-78.8999351,17TPJ 68522 68103,0.0,0.0,182.7,3,10,--.--,--.--,--.--,0.0,0.0,0.0,0,0,0,--.--,--.--,--.--
2020-08-02 14:22:03.804,5.5,-28.7,180,2.5,9.6,2.4,4.8,4.0,0.0,49.9,100.2,336.2,00:01:37,300.8,180,125,--.--,53,0002:27:50,11.32,51,0,-1.00,--.--,-11.32,--.--,0,--.--,--.--,--.--,--.--,--.--,--.--,--.--,0,14:22:03,2020-08-02,5.00,--.--,--.--,--.--,--.--,--.--,--.--,0.00,--.--,--.--,true,true,true,true,true,true,false,false,true,true,false,false,0.05,0.05,0.00,0.03,0.00,0.00,0.43,0.20,43.9467128,-78.8999392,17TPJ 68522 68098,0.0,0.0,184.5,3,10,--.--,--.--,--.--,0.0,0.0,0.0,0,0,0,--.--,--.--,--.--
2020-08-02 14:22:04.804,4.1,-30.1,179,-2.3,-2.1,4.2,4.8,5.0,0.0,49.9,100.2,340.3,00:01:38,298.3,180,124,--.--,52,0002:27:50,11.32,51,0,-1.00,--.--,-11.32,--.--,0,--.--,--.--,--.--,--.--,--.--,--.--,--.--,0,14:22:04,2020-08-02,5.00,--.--,--.--,--.--,--.--,--.--,--.--,0.00,--.--,--.--,true,true,true,true,true,true,false,false,true,true,false,false,0.05,0.05,0.00,0.03,0.00,0.00,0.43,0.20,43.9466677,-78.8999444,17TPJ 68522 68093,0.0,0.0,184.2,3,10,--.--,--.--,--.--,0.0,0.0,0.0,0,0,0,--.--,--.--,--.--
2020-08-02 14:22:05.819,3.4,-29.7,179,-10.1,-2.1,-0.4,4.9,3.8,0.0,49.9,100.2,344.4,00:01:39,295.7,180,123,--.--,53,0002:27:50,11.32,51,0,-1.00,--.--,-11.32,--.--,0,--.--,--.--,--.--,--.--,--.--,--.--,--.--,0,14:22:05,2020-08-02,5.00,--.--,--.--,--.--,--.--,--.--,--.--,0.00,--.--,--.--,true,true,true,true,true,true,false,false,true,true,false,false,0.03,0.02,0.00,0.02,0.00,0.00,0.43,0.20,43.9466229,-78.8999480,17TPJ 68522 68088,0.0,0.0,182.3,3,10,--.--,--.--,--.--,0.0,0.0,0.0,0,0,0,--.--,--.--,--.--
2020-08-02 14:22:06.820,3.1,-29.7,180,-4.3,1.6,1.1,4.9,3.9,0.0,50.0,100.2,350.4,00:01:40,293.1,180,122,--.--,54,0002:27:50,11.32,51,0,-1.00,--.--,-11.32,--.--,0,--.--,--.--,--.--,--.--,--.--,--.--,--.--,0,14:22:06,2020-08-02,5.00,--.--,--.--,--.--,--.--,--.--,--.--,0.00,--.--,--.--,true,true,true,true,true,true,false,false,true,true,false,false,0.03,0.02,0.00,0.02,0.00,0.00,0.43,0.20,43.9465772,-78.8999498,17TPJ 68522 68083,0.0,0.0,180.9,3,10,--.--,--.--,--.--,0.0,0.0,0.0,0,0,0,--.--,--.--,--.--
2020-08-02 14:22:07.820,3.0,-29.6,179,-4.3,-2.6,0.5,4.9,3.9,-0.0,50.0,100.3,354.5,00:01:41,290.5,180,121,--.--,53,0002:27:50,11.32,51,0,-1.00,--.--,-11.32,--.--,0,--.--,--.--,--.--,--.--,--.--,--.--,--.--,0,14:22:07,2020-08-02,5.00,--.--,--.--,--.--,--.--,--.--,--.--,0.00,--.--,--.--,true,true,true,true,true,true,false,false,true,true,false,false,0.03,0.04,0.00,0.00,0.00,0.00,0.42,0.20,43.9465312,-78.8999508,17TPJ 68522 68078,0.0,0.0,180.8,3,10,--.--,--.--,--.--,0.0,0.0,0.0,0,0,0,--.--,--.--,--.--
2020-08-02 14:22:08.821,2.9,-29.6,180,2.0,-4.0,-4.2,4.9,3.8,-0.0,50.0,100.3,360.5,00:01:42,287.9,180,120,--.--,53,0002:27:50,11.32,51,0,-1.00,--.--,-11.32,--.--,0,--.--,--.--,--.--,--.--,--.--,--.--,--.--,0,14:22:08,2020-08-02,5.00,--.--,--.--,--.--,--.--,--.--,--.--,0.00,--.--,--.--,true,true,true,true,true,true,false,false,true,true,false,false,0.03,0.04,0.00,0.00,0.00,0.00,0.42,0.20,43.9464857,-78.8999513,17TPJ 68522 68072,0.0,0.0,180.2,3,10,--.--,--.--,--.--,0.0,0.0,0.0,0,0,0,--.--,--.--,--.--
2020-08-02 14:22:09.821,2.9,-30.6,179,-0.9,-2.2,0.9,4.9,2.3,-0.0,50.0,100.3,364.6,00:01:43,285.5,180,120,--.--,53,0002:27:50,11.32,51,0,-1.00,--.--,-11.32,--.--,0,--.--,--.--,--.--,--.--,--.--,--.--,--.--,0,14:22:09,2020-08-02,5.00,--.--,--.--,--.--,--.--,--.--,--.--,0.00,--.--,--.--,true,true,true,true,true,true,false,false,true,true,false,false,0.03,0.04,0.01,0.01,0.00,0.00,0.44,0.21,43.9464495,-78.8999515,17TPJ 68522 68068,0.0,0.0,179.8,3,10,--.--,--.--,--.--,0.0,0.0,0.0,0,0,0,--.--,--.--,--.--
2020-08-02 14:22:10.821,2.8,-30.4,179,-0.3,-5.2,6.0,5.0,3.5,-0.0,50.0,100.3,370.8,00:01:44,283.1,180,119,--.--,53,0002:27:50,11.32,51,0,-1.00,--.--,-11.32,--.--,0,--.--,--.--,--.--,--.--,--.--,--.--,--.--,0,14:22:10,2020-08-02,5.00,--.--,--.--,--.--,--.--,--.--,--.--,0.00,--.--,--.--,true,true,true,true,true,true,false,false,true,true,false,false,0.03,0.04,0.01,0.01,0.00,0.00,0.44,0.21,43.9464039,-78.8999516,17TPJ 68522 68063,0.0,0.0,179.9,3,10,--.--,--.--,--.--,0.0,0.0,0.0,0,0,0,--.--,--.--,--.--
2020-08-02 14:22:11.822,2.6,-30.0,180,2.0,0.6,1.8,4.9,4.4,-0.0,50.0,100.3,374.8,00:01:45,280.7,180,118,--.--,53,0002:27:50,11.32,51,0,-1.00,--.--,-11.32,--.--,0,--.--,--.--,--.--,--.--,--.--,--.--,--.--,0,14:22:11,2020-08-02,5.00,--.--,--.--,--.--,--.--,--.--,--.--,0.00,--.--,--.--,true,true,true,true,true,true,false,false,true,true,false,false,0.04,0.02,0.01,0.00,0.00,0.00,0.43,0.20,43.9463575,-78.8999514,17TPJ 68522 68058,0.0,0.0,179.9,3,10,--.--,--.--,--.--,0.0,0.0,0.0,0,0,0,--.--,--.--,--.--
2020-08-02 14:22:12.806,2.8,-29.9,180,-2.2,1.4,2.8,4.9,5.5,-0.0,50.0,100.3,380.9,00:01:46,278.3,180,117,--.--,52,0002:27:50,11.32,51,0,-1.00,--.--,-11.32,--.--,0,--.--,--.--,--.--,--.--,--.--,--.--,--.--,0,14:22:12,2020-08-02,5.00,--.--,--.--,--.--,--.--,--.--,--.--,0.00,--.--,--.--,true,true,true,true,true,true,false,false,true,true,false,false,0.04,0.02,0.01,0.00,0.00,0.00,0.43,0.20,43.9463111,-78.8999509,17TPJ 68522 68053,0.0,0.0,179.8,3,10,--.--,--.--,--.--,0.0,0.0,0.0,0,0,0,--.--,--.--,--.--
2020-08-02 14:22:13.808,2.7,-29.5,180,3.2,2.3,1.7,4.9,2.9,0.0,50.0,100.3,384.9,00:01:47,276.1,180,116,--.--,53,0002:27:50,11.32,51,0,-1.00,--.--,-11.32,--.--,0,--.--,--.--,--.--,--.--,--.--,--.--,--.--,0,14:22:13,2020-08-02,5.00,--.--,--.--,--.--,--.--,--.--,--.--,0.00,--.--,--.--,true,true,true,true,true,true,false,false,true,true,false,false,0.02,0.05,0.00,0.01,0.00,0.00,0.43,0.20,43.9462653,-78.8999506,17TPJ 68522 68048,0.0,0.0,179.8,3,10,--.--,--.--,--.--,0.0,0.0,0.0,0,0,0,--.--,--.--,--.--
2020-08-02 14:22:14.806,2.5,-30.1,180,-0.4,-9.3,2.9,4.9,2.1,0.0,50.0,100.3,391.0,00:01:48,273.9,180,115,--.--,53,0002:27:50,11.32,51,0,-1.00,--.--,-11.32,--.--,0,--.--,--.--,--.--,--.--,--.--,--.--,--.--,0,14:22:14,2020-08-02,5.00,--.--,--.--,--.--,--.--,--.--,--.--,0.00,--.--,--.--,true,true,true,true,true,true,false,false,true,true,false,false,0.02,0.05,0.00,0.01,0.00,0.00,0.43,0.20,43.9462202,-78.8999502,17TPJ 68523 68043,0.0,0.0,179.9,3,10,--.--,--.--,--.--,0.0,0.0,0.0,0,0,0,--.--,--.--,--.--
2020-08-02 14:22:15.823,2.7,-30.5,180,-6.6,-0.5,-0.3,4.9,4.2,0.0,50.0,100.2,395.0,00:01:49,272.1,180,114,--.--,53,0002:27:50,11.32,51,0,-1.00,--.--,-11.32,--.--,0,--.--,--.--,--.--,--.--,--.--,--.--,--.--,0,14:22:15,2020-08-02,5.00,--.--,--.--,--.--,--.--,--.--,--.--,0.00,--.--,--.--,true,true,true,true,true,true,false,false,true,true,false,false,0.04,0.01,0.00,0.00,0.00,0.00,0.42,0.20,43.9461755,-78.8999496,17TPJ 68523 68038,0.0,0.0,179.2,3,10,--.--,--.--,--.--,0.0,0.0,0.0,0,0,0,--.--,--.--,--.--
2020-08-02 14:22:16.823,2.7,-30.2,180,-1.1,-3.4,3.6,5.0,3.3,0.0,50.0,100.2,399.1,00:01:50,270.1,180,113,--.--,53,0002:27:50,11.32,51,0,-1.00,--.--,-11.32,--.--,0,--.--,--.--,--.--,--.--,--.--,--.--,--.--,0,14:22:16,2020-08-02,5.00,--.--,--.--,--.--,--.--,--.--,--.--,0.00,--.--,--.--,true,true,true,true,true,true,false,false,true,true,false,false,0.04,0.01,0.00,0.00,0.00,0.00,0.42,0.20,43.9461295,-78.8999491,17TPJ 68523 68033,0.0,0.0,179.6,3,10,--.--,--.--,--.--,0.0,0.0,0.0,0,0,0,--.--,--.--,--.--
2020-08-02 14:22:17.824,2.9,-30.0,180,-4.1,-1.3,0.2,5.0,3.1,0.1,49.9,100.2,405.2,00:01:51,268.1,180,112,--.--,53,0002:27:50,11.32,51,0,-1.00,--.--,-11.32,--.--,0,--.--,--.--,--.--,--.--,--.--,--.--,--.--,0,14:22:17,2020-08-02,5.00,--.--,--.--,--.--,--.--,--.--,--.--,0.00,--.--,--.--,true,true,true,true,true,true,false,false,true,true,false,false,0.06,0.03,0.01,0.01,0.00,0.00,0.42,0.20,43.9460830,-78.8999488,17TPJ 68523 68028,0.0,0.0,180.0,3,10,--.--,--.--,--.--,0.0,0.0,0.0,0,0,0,--.--,--.--,--.--
2020-08-02 14:22:18.824,3.1,-29.7,180,-1.5,-7.5,-0.0,5.0,4.0,0.1,49.9,100.2,409.2,00:01:52,266.3,180,111,--.--,53,0002:27:50,11.32,51,0,-1.00,--.--,-11.32,--.--,0,--.--,--.--,--.--,--.--,--.--,--.--,--.--,0,14:22:18,2020-08-02,5.00,--.--,--.--,--.--,--.--,--.--,--.--,0.00,--.--,--.--,true,true,true,true,true,true,false,false,true,true,false,false,0.06,0.03,0.01,0.01,0.00,0.00,0.42,0.20,43.9460374,-78.8999487,17TPJ 68523 68023,0.0,0.0,180.0,3,10,--.--,--.--,--.--,0.0,0.0,0.0,0,0,0,--.--,--.--,--.--
2020-08-02 14:22:19.808,3.0,-29.8,180,1.0,-8.6,4.3,4.9,5.1,0.1,49.9,100.2,415.3,00:01:53,264.5,180,110,--.--,53,0002:27:50,11.32,51,0,-1.00,--.--,-11.32,--.--,0,--.--,--.--,--.--,--.--,--.--,--.--,--.--,0,14:22:19,2020-08-02,5.00,--.--,--.--,--.--,--.--,--.--,--.--,0.00,--.--,--.--,true,true,true,true,true,true,false,false,true,true,false,false,0.02,0.04,0.01,0.00,0.00,0.00,0.42,0.20,43.9460009,-78.8999491,17TPJ 68523 68019,0.0,0.0,180.6,3,10,--.--,--.--,--.--,0.0,0.0,0.0,0,0,0,--.--,--.--,--.--
2020-08-02 14:22:20.828,2.9,-30.8,180,1.9,-2.2,-6.6,5.0,3.3,0.1,49.9,100.2,419.3,00:01:54,262.9,180,109,--.--,53,0002:27:50,11.32,51,0,-1.00,--.--,-11.32,--.--,0,--.--,--.--,--.--,--.--,--.--,--.--,--.--,0,14:22:20,2020-08-02,5.00,--.--,--.--,--.--,--.--,--.--,--.--,0.00,--.--,--.--,true,true,true,true,true,true,false,false,true,true,false,false,0.02,0.04,0.01,0.00,0.00,0.00,0.42,0.20,43.9459560,-78.8999496,17TPJ 68523 68014,0.0,0.0,180.3,3,10,--.--,--.--,--.--,0.0,0.0,0.0,0,0,0,--.--,--.--,--.--
2020-08-02 14:22:21.825,3.0,-30.3,180,3.4,-1.1,-1.8,5.1,4.0,0.0,50.0,100.2,423.5,00:01:55,261.3,180,108,--.--,53,0002:27:50,11.32,51,0,-1.00,--.--,-11.32,--.--,0,--.--,--.--,--.--,--.--,--.--,--.--,--.--,0,14:22:21,2020-08-02,5.00,--.--,--.--,--.--,--.--,--.--,--.--,0.00,--.--,--.--,true,true,true,true,true,true,false,false,true,true,false,false,0.04,0.01,0.01,0.00,0.00,0.00,0.43,0.20,43.9459103,-78.8999498,17TPJ 68523 68009,0.0,0.0,180.1,3,10,--.--,--.--,--.--,0.0,0.0,0.0,0,0,0,--.--,--.--,--.--
