Timestamp,roll,pitch,heading,rollRate,pitchRate,yawRate,groundSpeed,airSpeed,climbRate,altitudeRelative,altitudeAMSL,flightDistance,flightTime,distanceToHome,headingToNextWP,headingToHome,distanceToGCS,throttlePct,hobbs,battery.voltage,battery.percentRemaining,battery.mahConsumed,battery.current,battery.temperature,battery.instantPower,battery.timeRemaining,battery.chargeState,battery2.voltage,battery2.percentRemaining,battery2.mahConsumed,battery2.current,battery2.temperature,battery2.instantPower,battery2.timeRemaining,battery2.chargeState,clock.currentTime,clock.currentDate,distanceSensor.rotationNone,distanceSensor.rotationYaw45,distanceSensor.rotationYaw90,distanceSensor.rotationYaw135,distanceSensor.rotationYaw180,distanceSensor.rotationYaw225,distanceSensor.rotationYaw270,distanceSensor.rotationYaw315,distanceSensor.rotationPitch90,distanceSensor.rotationPitch270,estimatorStatus.goodAttitudeEsimate,estimatorStatus.goodHorizVelEstimate,estimatorStatus.goodVertVelEstimate,estimatorStatus.goodHorizPosRelEstimate,estimatorStatus.goodHorizPosAbsEstimate,estimatorStatus.goodVertPosAbsEstimate,estimatorStatus.goodVertPosAGLEstimate,estimatorStatus.goodConstPosModeEstimate,estimatorStatus.goodPredHorizPosRelEstimate,estimatorStatus.goodPredHorizPosAbsEstimate,estimatorStatus.gpsGlitch,estimatorStatus.accelError,estimatorStatus.velRatio,estimatorStatus.horizPosRatio,estimatorStatus.vertPosRatio,estimatorStatus.magRatio,estimatorStatus.haglRatio,estimatorStatus.tasRatio,estimatorStatus.horizPosAccuracy,estimatorStatus.vertPosAccuracy,gps.lat,gps.lon,gps.mgrs,gps.hdop,gps.vdop,gps.courseOverGround,gps.lock,gps.count,temperature.temperature1,temperature.temperature2,temperature.temperature3,vibration.xAxis,vibration.yAxis,vibration.zAxis,vibration.clipCount1,vibration.clipCount2,vibration.clipCount3,wind.direction,wind.speed,wind.verticalSpeed
2020-08-02 16:23:17.305,-1.0,-1.0,29,-0.3,-0.7,0.4,0.0,3.3,-0.0,0.0,50.1,0.0,00:00:00,0.0,308,--.--,--.--,0,0001:22:27,--.--,--.--,--.--,--.--,--.--,--.--,--.--,0,--.--,--.--,--.--,--.--,--.--,--.--,--.--,0,16:23:17,2020-08-02,--.--,--.--,--.--,--.--,--.--,--.--,--.--,0.00,--.--,--.--,true,true,true,true,true,true,false,false,true,true,false,false,0.03,0.00,0.00,0.01,0.00,0.00,0.44,0.20,43.9451638,-78.8968383,17TPJ 68775 67932,0.0,0.0,80.2,3,10,--.--,--.--,--.--,0.0,0.0,0.0,0,0,0,--.--,--.--,--.--
2020-08-02 16:23:18.304,-1.0,-1.1,29,-0.3,-0.1,-0.4,0.0,3.2,-0.0,-0.0,50.0,0.0,00:00:01,0.0,308,--.--,--.--,27,0001:22:27,--.--,--.--,--.--,--.--,--.--,--.--,--.--,0,--.--,--.--,--.--,--.--,--.--,--.--,--.--,0,16:23:18,2020-08-02,--.--,--.--,--.--,--.--,--.--,--.--,--.--,0.00,--.--,--.--,true,true,true,true,true,true,false,false,true,true,false,false,0.01,0.00,0.01,0.01,0.00,0.00,0.44,0.20,43.9451638,-78.8968383,17TPJ 68775 67932,0.0,0.0,300.1,3,10,--.--,--.--,--.--,0.0,0.0,0.0,0,0,0,--.--,--.--,--.--
2020-08-02 16:23:19.304,0.9,0.5,29,-0.7,4.6,-0.4,0.1,1.4,0.2,0.0,50.1,0.0,00:00:02,0.0,308,--.--,--.--,62,0001:22:27,--.--,--.--,--.--,--.--,--.--,--.--,--.--,0,--.--,--.--,--.--,--.--,--.--,--.--,--.--,0,16:23:19,2020-08-02,--.--,--.--,--.--,--.--,--.--,--.--,--.--,0.00,--.--,--.--,true,true,true,true,true,true,false,false,true,true,false,false,0.04,0.00,0.01,0.00,0.00,0.00,0.44,0.20,43.9451638,-78.8968383,17TPJ 68775 67932,0.0,0.0,90.5,3,10,--.--,--.--,--.--,0.0,0.0,0.0,0,0,0,--.--,--.--,--.--
2020-08-02 16:23:20.304,-1.0,-0.6,29,-1.4,-0.9,-0.2,0.1,-2.0,2.3,1.3,51.3,0.0,00:00:03,0.1,308,--.--,--.--,66,0001:22:27,--.--,--.--,--.--,--.--,--.--,--.--,--.--,0,--.--,--.--,--.--,--.--,--.--,--.--,--.--,0,16:23:20,2020-08-02,--.--,--.--,--.--,--.--,--.--,--.--,--.--,0.00,--.--,--.--,true,true,true,true,true,true,false,false,true,true,false,false,0.02,0.00,0.01,0.00,0.00,0.00,0.44,0.20,43.9451629,-78.8968377,17TPJ 68775 67932,0.0,0.0,167.9,3,10,--.--,--.--,--.--,0.0,0.0,0.0,0,0,0,--.--,--.--,--.--
2020-08-02 16:23:21.304,-1.4,-1.3,29,-1.1,0.1,-0.2,0.0,3.5,2.7,4.0,54.0,0.0,00:00:04,0.2,308,--.--,--.--,58,0001:22:27,--.--,--.--,--.--,--.--,--.--,--.--,--.--,0,--.--,--.--,--.--,--.--,--.--,--.--,--.--,0,16:23:21,2020-08-02,--.--,--.--,--.--,--.--,--.--,--.--,--.--,0.00,--.--,--.--,true,true,true,true,true,true,false,false,true,true,false,false,0.01,0.00,0.01,0.02,0.00,0.00,0.44,0.20,43.9451622,-78.8968376,17TPJ 68775 67932,0.0,0.0,123.5,3,10,--.--,--.--,--.--,0.0,0.0,0.0,0,0,0,--.--,--.--,--.--
2020-08-02 16:23:22.304,-1.5,-1.5,29,0.6,-0.2,0.3,0.0,-2.2,1.9,6.3,56.4,0.0,00:00:05,0.2,308,--.--,--.--,57,0001:22:27,--.--,--.--,--.--,--.--,--.--,--.--,--.--,0,--.--,--.--,--.--,--.--,--.--,--.--,--.--,0,16:23:22,2020-08-02,--.--,--.--,--.--,--.--,--.--,--.--,--.--,0.00,--.--,--.--,true,true,true,true,true,true,false,false,true,true,false,false,0.03,0.00,0.02,0.01,0.00,0.00,0.43,0.20,43.9451623,-78.8968379,17TPJ 68775 67932,0.0,0.0,335.2,3,10,--.--,--.--,--.--,0.0,0.0,0.0,0,0,0,--.--,--.--,--.--
2020-08-02 16:23:23.304,-1.4,-1.5,29,0.8,1.7,0.6,0.0,-0.9,1.6,8.1,58.2,0.0,00:00:06,0.1,308,--.--,--.--,57,0001:22:27,--.--,--.--,--.--,--.--,--.--,--.--,--.--,0,--.--,--.--,--.--,--.--,--.--,--.--,--.--,0,16:23:23,2020-08-02,--.--,--.--,--.--,--.--,--.--,--.--,--.--,0.00,--.--,--.--,true,true,true,true,true,true,false,false,true,true,false,false,0.03,0.00,0.01,0.01,0.00,0.00,0.46,0.21,43.9451628,-78.8968383,17TPJ 68775 67932,0.0,0.0,348.9,3,10,--.--,--.--,--.--,0.0,0.0,0.0,0,0,0,--.--,--.--,--.--
2020-08-02 16:23:24.305,-1.1,-1.4,29,0.8,-0.7,0.5,0.0,-3.0,1.5,9.7,59.8,0.0,00:00:07,0.1,308,--.--,--.--,58,0001:22:27,--.--,--.--,--.--,--.--,--.--,--.--,--.--,0,--.--,--.--,--.--,--.--,--.--,--.--,--.--,0,16:23:24,2020-08-02,--.--,--.--,--.--,--.--,--.--,--.--,--.--,0.00,--.--,--.--,true,true,true,true,true,true,false,false,true,true,false,false,0.03,0.00,0.00,0.01,0.00,0.00,0.46,0.21,43.9451633,-78.8968384,17TPJ 68775 67932,0.0,0.0,12.7,3,10,--.--,--.--,--.--,0.0,0.0,0.0,0,0,0,--.--,--.--,--.--
2020-08-02 16:23:25.305,-0.7,-0.9,29,-0.3,0.0,0.3,0.0,1.8,2.8,11.6,61.6,0.0,00:00:08,0.0,308,--.--,--.--,64,0001:22:27,--.--,--.--,--.--,--.--,--.--,--.--,--.--,0,--.--,--.--,--.--,--.--,--.--,--.--,--.--,0,16:23:25,2020-08-02,--.--,--.--,--.--,--.--,--.--,--.--,--.--,0.00,--.--,--.--,true,true,true,true,true,true,false,false,true,true,false,false,0.02,0.00,0.01,0.01,0.00,0.00,0.45,0.21,43.9451636,-78.8968383,17TPJ 68775 67932,0.0,0.0,46.9,3,10,--.--,--.--,--.--,0.0,0.0,0.0,0,0,0,--.--,--.--,--.--
2020-08-02 16:23:26.304,-0.9,-1.2,29,0.2,-0.1,0.0,0.0,-2.9,2.9,14.5,64.6,0.0,00:00:09,0.0,308,--.--,--.--,60,0001:22:27,--.--,--.--,--.--,--.--,--.--,--.--,--.--,0,--.--,--.--,--.--,--.--,--.--,--.--,--.--,0,16:23:26,2020-08-02,--.--,--.--,--.--,--.--,--.--,--.--,--.--,0.00,--.--,--.--,true,true,true,true,true,true,false,false,true,true,false,false,0.01,0.00,0.01,0.02,0.00,0.00,0.45,0.21,43.9451636,-78.8968380,17TPJ 68775 67932,0.0,0.0,112.8,3,10,--.--,--.--,--.--,0.0,0.0,0.0,0,0,0,--.--,--.--,--.--
2020-08-02 16:23:27.304,-1.1,-1.3,29,-0.1,0.0,0.1,0.0,-0.9,2.9,17.6,67.6,0.0,00:00:10,0.1,308,--.--,--.--,60,0001:22:27,--.--,--.--,--.--,--.--,--.--,--.--,--.--,0,--.--,--.--,--.--,--.--,--.--,--.--,--.--,0,16:23:27,2020-08-02,--.--,--.--,--.--,--.--,--.--,--.--,--.--,0.00,--.--,--.--,true,true,true,true,true,true,false,false,true,true,false,false,0.01,0.00,0.00,0.01,0.00,0.00,0.44,0.21,43.9451636,-78.8968377,17TPJ 68775 67932,0.0,0.0,100.4,3,10,--.--,--.--,--.--,0.0,0.0,0.0,0,0,0,--.--,--.--,--.--
2020-08-02 16:23:28.305,-1.2,-1.3,29,-0.8,-0.3,0.1,0.0,2.1,3.0,20.5,70.6,0.0,00:00:11,0.1,308,--.--,--.--,60,0001:22:27,--.--,--.--,--.--,--.--,--.--,--.--,--.--,0,--.--,--.--,--.--,--.--,--.--,--.--,--.--,0,16:23:28,2020-08-02,--.--,--.--,--.--,--.--,--.--,--.--,--.--,0.00,--.--,--.--,true,true,true,true,true,true,false,false,true,true,false,false,0.03,0.00,0.01,0.02,0.00,0.00,0.43,0.20,43.9451636,-78.8968375,17TPJ 68775 67932,0.0,0.0,45.9,3,10,--.--,--.--,--.--,0.0,0.0,0.0,0,0,0,--.--,--.--,--.--
2020-08-02 16:23:29.305,-1.2,-1.4,29,-1.0,-0.1,-0.0,0.0,-1.9,3.0,23.5,73.6,0.0,00:00:12,0.1,308,--.--,--.--,60,0001:22:27,--.--,--.--,--.--,--.--,--.--,--.--,--.--,0,--.--,--.--,--.--,--.--,--.--,--.--,--.--,0,16:23:29,2020-08-02,--.--,--.--,--.--,--.--,--.--,--.--,--.--,0.00,--.--,--.--,true,true,true,true,true,true,false,false,true,true,false,false,0.03,0.00,0.01,0.00,0.00,0.00,0.43,0.20,43.9451638,-78.8968375,17TPJ 68775 67932,0.0,0.0,78.0,3,10,--.--,--.--,--.--,0.0,0.0,0.0,0,0,0,--.--,--.--,--.--
2020-08-02 16:23:30.305,-1.3,-1.3,29,-0.1,0.5,-0.9,0.0,0.9,3.0,26.5,76.5,0.0,00:00:13,0.0,308,--.--,--.--,60,0001:22:27,--.--,--.--,--.--,--.--,--.--,--.--,--.--,0,--.--,--.--,--.--,--.--,--.--,--.--,--.--,0,16:23:30,2020-08-02,--.--,--.--,--.--,--.--,--.--,--.--,--.--,0.00,--.--,--.--,true,true,true,true,true,true,false,false,true,true,false,false,0.02,0.01,0.00,0.00,0.00,0.00,0.42,0.21,43.9451641,-78.8968375,17TPJ 68775 67932,0.0,0.0,335.8,3,10,--.--,--.--,--.--,0.0,0.0,0.0,0,0,0,--.--,--.--,--.--
2020-08-02 16:23:31.304,-1.2,-1.2,29,0.3,0.3,-0.4,0.0,-1.9,3.0,29.5,79.5,0.0,00:00:14,0.0,308,--.--,--.--,60,0001:22:27,--.--,--.--,--.--,--.--,--.--,--.--,--.--,0,--.--,--.--,--.--,--.--,--.--,--.--,--.--,0,16:23:31,2020-08-02,--.--,--.--,--.--,--.--,--.--,--.--,--.--,0.00,--.--,--.--,true,true,true,true,true,true,false,false,true,true,false,false,0.02,0.01,0.00,0.00,0.00,0.00,0.42,0.20,43.9451644,-78.8968376,17TPJ 68775 67932,0.0,0.0,326.8,3,10,--.--,--.--,--.--,0.0,0.0,0.0,0,0,0,--.--,--.--,--.--
2020-08-02 16:23:32.305,-1.1,-1.1,29,0.3,0.9,0.2,0.0,2.7,3.0,32.5,82.5,0.0,00:00:15,0.0,308,--.--,--.--,60,0001:22:27,--.--,--.--,--.--,--.--,--.--,--.--,--.--,0,--.--,--.--,--.--,--.--,--.--,--.--,--.--,0,16:23:32,2020-08-02,--.--,--.--,--.--,--.--,--.--,--.--,--.--,0.00,--.--,--.--,true,true,true,true,true,true,false,false,true,true,false,false,0.02,0.01,0.01,0.02,0.00,0.00,0.42,0.20,43.9451646,-78.8968377,17TPJ 68775 67932,0.0,0.0,299.0,3,10,--.--,--.--,--.--,0.0,0.0,0.0,0,0,0,--.--,--.--,--.--
2020-08-02 16:23:33.304,-1.1,-1.1,29,-0.3,-1.1,-0.8,0.0,-2.3,3.0,35.5,85.5,0.0,00:00:16,0.1,308,--.--,--.--,60,0001:22:27,--.--,--.--,--.--,--.--,--.--,--.--,--.--,0,--.--,--.--,--.--,--.--,--.--,--.--,--.--,0,16:23:33,2020-08-02,--.--,--.--,--.--,--.--,--.--,--.--,--.--,0.00,--.--,--.--,true,true,true,true,true,true,false,false,true,true,false,false,0.01,0.01,0.00,0.02,0.00,0.00,0.44,0.21,43.9451646,-78.8968378,17TPJ 68775 67932,0.0,0.0,5.8,3,10,--.--,--.--,--.--,0.0,0.0,0.0,0,0,0,--.--,--.--,--.--
2020-08-02 16:23:34.304,-1.1,-1.1,29,-0.3,-0.4,0.6,0.0,-1.7,2.9,38.5,88.6,0.0,00:00:17,0.1,308,--.--,--.--,60,0001:22:27,--.--,--.--,--.--,--.--,--.--,--.--,--.--,0,--.--,--.--,--.--,--.--,--.--,--.--,--.--,0,16:23:34,2020-08-02,--.--,--.--,--.--,--.--,--.--,--.--,--.--,0.00,--.--,--.--,true,true,true,true,true,true,false,false,true,true,false,false,0.04,0.00,0.01,0.00,0.00,0.00,0.44,0.21,43.9451646,-78.8968379,17TPJ 68775 67932,0.0,0.0,198.3,3,10,--.--,--.--,--.--,0.0,0.0,0.0,0,0,0,--.--,--.--,--.--
2020-08-02 16:23:35.305,-1.3,-1.2,29,-1.3,-0.6,-0.0,0.0,3.4,2.7,41.5,91.5,0.0,00:00:18,0.0,308,--.--,--.--,56,0001:22:27,--.--,--.--,--.--,--.--,--.--,--.--,--.--,0,--.--,--.--,--.--,--.--,--.--,--.--,--.--,0,16:23:35,2020-08-02,--.--,--.--,--.--,--.--,--.--,--.--,--.--,0.00,--.--,--.--,true,true,true,true,true,true,false,false,true,true,false,false,0.02,0.01,0.01,0.02,0.00,0.00,0.44,0.21,43.9451645,-78.8968380,17TPJ 68775 67932,0.0,0.0,240.5,3,10,--.--,--.--,--.--,0.0,0.0,0.0,0,0,0,--.--,--.--,--.--
2020-08-02 16:23:36.305,-1.2,-1.2,29,0.6,0.4,0.2,0.0,-3.4,1.8,43.8,93.8,0.0,00:00:19,0.0,308,--.--,--.--,56,0001:22:27,--.--,--.--,--.--,--.--,--.--,--.--,--.--,0,--.--,--.--,--.--,--.--,--.--,--.--,--.--,0,16:23:36,2020-08-02,--.--,--.--,--.--,--.--,--.--,--.--,--.--,0.00,--.--,--.--,true,true,true,true,true,true,false,false,true,true,false,false,0.03,0.00,0.01,0.01,0.00,0.00,0.43,0.21,43.9451644,-78.8968384,17TPJ 68775 67932,0.0,0.0,283.4,3,10,--.--,--.--,--.--,0.0,0.0,0.0,0,0,0,--.--,--.--,--.--
2020-08-02 16:23:37.306,-1.2,-1.3,29,0.7,-1.0,-0.7,0.0,3.7,1.3,45.4,95.4,0.0,00:00:20,0.0,308,--.--,--.--,56,0001:22:27,--.--,--.--,--.--,--.--,--.--,--.--,--.--,0,--.--,--.--,--.--,--.--,--.--,--.--,--.--,0,16:23:37,2020-08-02,--.--,--.--,--.--,--.--,--.--,--.--,--.--,0.00,--.--,--.--,true,true,true,true,true,true,false,false,true,true,false,false,0.05,0.01,0.01,0.00,0.00,0.00,0.43,0.21,43.9451644,-78.8968389,17TPJ 68775 67932,0.0,0.0,266.0,3,10,--.--,--.--,--.--,0.0,0.0,0.0,0,0,0,--.--,--.--,--.--
2020-08-02 16:23:38.305,-1.1,-1.3,29,0.2,0.4,-0.4,0.0,2.3,1.0,46.6,96.6,0.0,00:00:21,0.1,308,--.--,--.--,56,0001:22:27,--.--,--.--,--.--,--.--,--.--,--.--,--.--,0,--.--,--.--,--.--,--.--,--.--,--.--,--.--,0,16:23:38,2020-08-02,--.--,--.--,--.--,--.--,--.--,--.--,--.--,0.00,--.--,--.--,true,true,true,true,true,true,false,false,true,true,false,false,0.03,0.01,0.01,0.00,0.00,0.00,0.42,0.20,43.9451644,-78.8968393,17TPJ 68775 67932,0.0,0.0,281.1,3,10,--.--,--.--,--.--,0.0,0.0,0.0,0,0,0,--.--,--.--,--.--
2020-08-02 16:23:39.304,-0.8,-1.3,29,0.6,-0.3,0.0,0.0,1.3,0.7,47.5,97.5,0.0,00:00:22,0.1,308,--.--,--.--,56,0001:22:27,--.--,--.--,--.--,--.--,--.--,--.--,--.--,0,--.--,--.--,--.--,--.--,--.--,--.--,--.--,0,16:23:39,2020-08-02,--.--,--.--,--.--,--.--,--.--,--.--,--.--,0.00,--.--,--.--,true,true,true,true,true,true,false,false,true,true,false,false,0.03,0.01,0.01,0.01,0.00,0.00,0.42,0.20,43.9451644,-78.8968396,17TPJ 68775 67932,0.0,0.0,271.8,3,10,--.--,--.--,--.--,0.0,0.0,0.0,0,0,0,--.--,--.--,--.--
2020-08-02 16:23:40.307,-0.9,-1.3,29,-1.4,-1.3,-0.1,0.0,1.1,0.5,48.1,98.2,0.0,00:00:23,0.1,308,--.--,--.--,56,0001:22:27,--.--,--.--,--.--,--.--,--.--,--.--,--.--,0,--.--,--.--,--.--,--.--,--.--,--.--,--.--,0,16:23:40,2020-08-02,--.--,--.--,--.--,--.--,--.--,--.--,--.--,0.00,--.--,--.--,true,true,true,true,true,true,false,false,true,true,false,false,0.03,0.01,0.01,0.02,0.00,0.00,0.42,0.20,43.9451642,-78.8968396,17TPJ 68775 67932,0.0,0.0,156.7,3,10,--.--,--.--,--.--,0.0,0.0,0.0,0,0,0,--.--,--.--,--.--
2020-08-02 16:23:41.304,-0.8,-1.4,29,0.3,-0.4,-0.0,0.0,2.1,0.4,48.6,98.7,0.0,00:00:24,0.1,308,--.--,--.--,56,0001:22:27,--.--,--.--,--.--,--.--,--.--,--.--,--.--,0,--.--,--.--,--.--,--.--,--.--,--.--,--.--,0,16:23:41,2020-08-02,--.--,--.--,--.--,--.--,--.--,--.--,--.--,0.00,--.--,--.--,true,true,true,true,true,true,false,false,true,true,false,false,0.03,0.00,0.01,0.00,0.00,0.00,0.42,0.20,43.9451640,-78.8968394,17TPJ 68775 67932,0.0,0.0,186.1,3,10,--.--,--.--,--.--,0.0,0.0,0.0,0,0,0,--.--,--.--,--.--
2020-08-02 16:23:42.304,-0.8,-1.4,29,-1.0,-0.4,-0.6,0.0,-3.2,0.3,49.0,99.0,0.0,00:00:25,0.1,308,--.--,--.--,56,0001:22:27,--.--,--.--,--.--,--.--,--.--,--.--,--.--,0,--.--,--.--,--.--,--.--,--.--,--.--,--.--,0,16:23:42,2020-08-02,--.--,--.--,--.--,--.--,--.--,--.--,--.--,0.00,--.--,--.--,true,true,true,true,true,true,false,false,true,true,false,false,0.03,0.00,0.01,0.01,0.00,0.00,0.44,0.21,43.9451639,-78.8968392,17TPJ 68775 67932,0.0,0.0,162.2,3,10,--.--,--.--,--.--,0.0,0.0,0.0,0,0,0,--.--,--.--,--.--
2020-08-02 16:23:43.305,-0.9,-1.4,29,-0.2,-0.1,-4.4,0.0,0.8,0.2,49.3,99.3,0.0,00:00:26,0.0,308,--.--,--.--,56,0001:22:27,--.--,--.--,--.--,--.--,--.--,--.--,--.--,0,--.--,--.--,--.--,--.--,--.--,--.--,--.--,0,16:23:43,2020-08-02,--.--,--.--,--.--,--.--,--.--,--.--,--.--,0.00,--.--,--.--,true,true,true,true,true,true,false,false,true,true,false,false,0.04,0.00,0.00,0.00,0.00,0.00,0.44,0.21,43.9451638,-78.8968392,17TPJ 68775 67932,0.0,0.0,139.7,3,10,--.--,--.--,--.--,0.0,0.0,0.0,0,0,0,--.--,--.--,--.--
2020-08-02 16:23:44.309,-16.2,-16.0,356,-10.8,-9.6,-47.0,1.1,-3.3,0.2,49.5,99.5,0.0,00:00:27,0.4,308,--.--,--.--,59,0001:22:27,--.--,--.--,--.--,--.--,--.--,--.--,--.--,0,--.--,--.--,--.--,--.--,--.--,--.--,--.--,0,16:23:44,2020-08-02,--.--,--.--,--.--,--.--,--.--,--.--,--.--,0.00,--.--,--.--,true,true,true,true,true,true,false,false,true,true,false,false,0.03,0.01,0.00,0.02,0.00,0.00,0.43,0.21,43.9451645,-78.8968406,17TPJ 68775 67932,0.0,0.0,304.7,3,10,--.--,--.--,--.--,0.0,0.0,0.0,0,0,0,--.--,--.--,--.--
2020-08-02 16:23:45.304,-2.5,-30.3,313,0.7,-5.1,-21.4,2.8,-1.6,0.0,49.6,99.6,2.2,00:00:28,2.5,308,125,--.--,65,0001:22:27,--.--,--.--,--.--,--.--,--.--,--.--,--.--,0,--.--,--.--,--.--,--.--,--.--,--.--,--.--,0,16:23:45,2020-08-02,--.--,--.--,--.--,--.--,--.--,--.--,--.--,0.00,--.--,--.--,true,true,true,true,true,true,false,false,true,true,false,false,0.11,0.02,0.00,0.02,0.00,0.00,0.43,0.21,43.9451725,-78.8968594,17TPJ 68774 67933,0.0,0.0,298.9,3,10,--.--,--.--,--.--,0.0,0.0,0.0,0,0,0,--.--,--.--,--.--
2020-08-02 16:23:46.304,3.0,-29.1,306,2.4,0.5,-0.2,3.5,4.3,0.0,49.6,99.6,4.4,00:00:29,5.9,308,123,--.--,66,0001:22:27,--.--,--.--,--.--,--.--,--.--,--.--,--.--,0,--.--,--.--,--.--,--.--,--.--,--.--,--.--,0,16:23:46,2020-08-02,--.--,--.--,--.--,--.--,--.--,--.--,--.--,0.00,--.--,--.--,true,true,true,true,true,true,false,false,true,true,false,false,0.17,0.03,0.02,0.01,0.00,0.00,0.43,0.21,43.9451869,-78.8968955,17TPJ 68771 67934,0.0,0.0,300.2,3,10,--.--,--.--,--.--,0.0,0.0,0.0,0,0,0,--.--,--.--,--.--
2020-08-02 16:23:47.304,4.7,-28.4,307,2.3,2.1,-0.1,3.6,-0.8,0.1,49.6,99.6,8.8,00:00:30,9.5,308,123,--.--,66,0001:22:27,--.--,--.--,--.--,--.--,--.--,--.--,--.--,0,--.--,--.--,--.--,--.--,--.--,--.--,--.--,0,16:23:47,2020-08-02,--.--,--.--,--.--,--.--,--.--,--.--,--.--,0.00,--.--,--.--,true,true,true,true,true,true,false,false,true,true,false,false,0.12,0.04,0.00,0.01,0.00,0.00,0.43,0.21,43.9452051,-78.8969349,17TPJ 68767 67936,0.0,0.0,305.3,3,10,--.--,--.--,--.--,0.0,0.0,0.0,0,0,0,--.--,--.--,--.--
2020-08-02 16:23:48.305,5.3,-29.6,307,-0.5,-1.5,0.1,3.7,3.9,0.1,49.7,99.7,13.3,00:00:31,13.3,308,124,--.--,67,0001:22:27,--.--,--.--,--.--,--.--,--.--,--.--,--.--,0,--.--,--.--,--.--,--.--,--.--,--.--,--.--,0,16:23:48,2020-08-02,--.--,--.--,--.--,--.--,--.--,--.--,--.--,0.00,--.--,--.--,true,true,true,true,true,true,false,false,true,true,false,false,0.08,0.04,0.00,0.04,0.00,0.00,0.43,0.21,43.9452259,-78.8969722,17TPJ 68764 67939,0.0,0.0,309.9,3,10,--.--,--.--,--.--,0.0,0.0,0.0,0,0,0,--.--,--.--,--.--
2020-08-02 16:23:49.304,5.0,-30.4,307,-0.0,-0.7,0.1,3.9,2.3,0.1,49.7,99.8,15.6,00:00:32,17.1,308,125,--.--,67,0001:22:27,--.--,--.--,--.--,--.--,--.--,--.--,--.--,0,--.--,--.--,--.--,--.--,--.--,--.--,--.--,0,16:23:49,2020-08-02,--.--,--.--,--.--,--.--,--.--,--.--,--.--,0.00,--.--,--.--,true,true,true,true,true,true,false,false,true,true,false,false,0.05,0.04,0.01,0.01,0.00,0.00,0.43,0.21,43.9452493,-78.8970095,17TPJ 68761 67941,0.0,0.0,311.7,3,10,--.--,--.--,--.--,0.0,0.0,0.0,0,0,0,--.--,--.--,--.--
2020-08-02 16:23:50.305,4.6,-31.1,307,0.3,-0.8,-0.3,4.0,3.1,0.1,49.8,99.8,20.0,00:00:33,21.2,308,126,--.--,68,0001:22:27,--.--,--.--,--.--,--.--,--.--,--.--,--.--,0,--.--,--.--,--.--,--.--,--.--,--.--,--.--,0,16:23:50,2020-08-02,--.--,--.--,--.--,--.--,--.--,--.--,--.--,0.00,--.--,--.--,true,true,true,true,true,true,false,false,true,true,false,false,0.03,0.03,0.00,0.01,0.00,0.00,0.43,0.20,43.9452739,-78.8970477,17TPJ 68758 67944,0.0,0.0,311.2,3,10,--.--,--.--,--.--,0.0,0.0,0.0,0,0,0,--.--,--.--,--.--
2020-08-02 16:23:51.311,4.2,-31.6,307,0.1,-1.6,0.3,4.2,4.8,0.0,49.9,99.9,24.1,00:00:34,25.3,308,127,--.--,68,0001:22:27,--.--,--.--,--.--,--.--,--.--,--.--,--.--,0,--.--,--.--,--.--,--.--,--.--,--.--,--.--,0,16:23:51,2020-08-02,--.--,--.--,--.--,--.--,--.--,--.--,--.--,0.00,--.--,--.--,true,true,true,true,true,true,false,false,true,true,false,false,0.01,0.02,0.00,0.01,0.00,0.00,0.42,0.20,43.9452988,-78.8970877,17TPJ 68755 67946,0.0,0.0,310.5,3,10,--.--,--.--,--.--,0.0,0.0,0.0,0,0,0,--.--,--.--,--.--
2020-08-02 16:23:52.304,4.1,-32.9,307,0.1,0.3,-0.1,4.3,4.5,0.0,49.9,99.9,28.4,00:00:35,29.6,308,127,--.--,69,0001:22:27,--.--,--.--,--.--,--.--,--.--,--.--,--.--,0,--.--,--.--,--.--,--.--,--.--,--.--,--.--,0,16:23:52,2020-08-02,--.--,--.--,--.--,--.--,--.--,--.--,--.--,0.00,--.--,--.--,true,true,true,true,true,true,false,false,true,true,false,false,0.01,0.02,0.01,0.00,0.00,0.00,0.44,0.21,43.9453189,-78.8971210,17TPJ 68752 67949,0.0,0.0,309.3,3,10,--.--,--.--,--.--,0.0,0.0,0.0,0,0,0,--.--,--.--,--.--
2020-08-02 16:23:53.305,4.1,-33.4,307,-0.4,-0.2,0.5,4.5,3.4,0.0,49.9,100.0,32.8,00:00:36,34.1,308,128,--.--,69,0001:22:27,--.--,--.--,--.--,--.--,--.--,--.--,--.--,0,--.--,--.--,--.--,--.--,--.--,--.--,--.--,0,16:23:53,2020-08-02,--.--,--.--,--.--,--.--,--.--,--.--,--.--,0.00,--.--,--.--,true,true,true,true,true,true,false,false,true,true,false,false,0.02,0.01,0.00,0.00,0.00,0.00,0.44,0.21,43.9453443,-78.8971645,17TPJ 68749 67951,0.0,0.0,309.2,3,10,--.--,--.--,--.--,0.0,0.0,0.0,0,0,0,--.--,--.--,--.--
2020-08-02 16:23:54.304,4.0,-33.8,307,-0.3,0.1,0.5,4.6,3.6,0.0,49.9,100.0,37.3,00:00:37,38.6,308,128,--.--,70,0001:22:27,--.--,--.--,--.--,--.--,--.--,--.--,--.--,0,--.--,--.--,--.--,--.--,--.--,--.--,--.--,0,16:23:54,2020-08-02,--.--,--.--,--.--,--.--,--.--,--.--,--.--,0.00,--.--,--.--,true,true,true,true,true,true,false,false,true,true,false,false,0.02,0.01,0.00,0.01,0.00,0.00,0.43,0.21,43.9453702,-78.8972091,17TPJ 68745 67954,0.0,0.0,308.6,3,10,--.--,--.--,--.--,0.0,0.0,0.0,0,0,0,--.--,--.--,--.--
2020-08-02 16:23:55.305,4.1,-34.2,307,0.1,-0.9,0.2,4.6,3.6,0.0,50.0,100.0,41.9,00:00:38,43.2,308,128,--.--,70,0001:22:27,--.--,--.--,--.--,--.--,--.--,--.--,--.--,0,--.--,--.--,--.--,--.--,--.--,--.--,--.--,0,16:23:55,2020-08-02,--.--,--.--,--.--,--.--,--.--,--.--,--.--,0.00,--.--,--.--,true,true,true,true,true,true,false,false,true,true,false,false,0.03,0.01,0.00,0.02,0.00,0.00,0.43,0.20,43.9453966,-78.8972551,17TPJ 68741 67957,0.0,0.0,308.3,3,10,--.--,--.--,--.--,0.0,0.0,0.0,0,0,0,--.--,--.--,--.--
2020-08-02 16:23:56.304,4.0,-34.5,307,-0.3,-0.5,-0.1,4.7,4.4,0.0,50.0,100.0,46.5,00:00:39,47.9,308,128,--.--,70,0001:22:27,--.--,--.--,--.--,--.--,--.--,--.--,--.--,0,--.--,--.--,--.--,--.--,--.--,--.--,--.--,0,16:23:56,2020-08-02,--.--,--.--,--.--,--.--,--.--,--.--,--.--,0.00,--.--,--.--,true,true,true,true,true,true,false,false,true,true,false,false,0.03,0.02,0.01,0.01,0.00,0.00,0.43,0.20,43.9454233,-78.8973020,17TPJ 68737 67960,0.0,0.0,308.4,3,10,--.--,--.--,--.--,0.0,0.0,0.0,0,0,0,--.--,--.--,--.--
2020-08-02 16:23:57.304,4.0,-34.7,307,-0.1,-0.8,0.5,4.7,3.7,-0.0,50.0,100.0,51.3,00:00:40,52.7,308,128,--.--,71,0001:22:27,--.--,--.--,--.--,--.--,--.--,--.--,--.--,0,--.--,--.--,--.--,--.--,--.--,--.--,--.--,0,16:23:57,2020-08-02,--.--,--.--,--.--,--.--,--.--,--.--,--.--,0.00,--.--,--.--,true,true,true,true,true,true,false,false,true,true,false,false,0.04,0.02,0.00,0.01,0.00,0.00,0.42,0.20,43.9454502,-78.8973495,17TPJ 68733 67963,0.0,0.0,308.1,3,10,--.--,--.--,--.--,0.0,0.0,0.0,0,0,0,--.--,--.--,--.--
2020-08-02 16:23:58.305,4.0,-34.8,307,1.1,0.8,-1.0,4.8,3.2,-0.0,50.0,100.0,56.1,00:00:41,57.4,308,128,--.--,71,0001:22:27,--.--,--.--,--.--,--.--,--.--,--.--,--.--,0,--.--,--.--,--.--,--.--,--.--,--.--,--.--,0,16:23:58,2020-08-02,--.--,--.--,--.--,--.--,--.--,--.--,--.--,0.00,--.--,--.--,true,true,true,true,true,true,false,false,true,true,false,false,0.04,0.02,0.00,0.01,0.00,0.00,0.42,0.20,43.9454775,-78.8973978,17TPJ 68730 67966,0.0,0.0,307.9,3,10,--.--,--.--,--.--,0.0,0.0,0.0,0,0,0,--.--,--.--,--.--
2020-08-02 16:23:59.305,3.9,-35.1,307,-0.7,-0.5,0.5,4.8,4.3,0.0,50.0,100.0,60.9,00:00:42,62.3,308,128,--.--,71,0001:22:27,--.--,--.--,--.--,--.--,--.--,--.--,--.--,0,--.--,--.--,--.--,--.--,--.--,--.--,--.--,0,16:23:59,2020-08-02,--.--,--.--,--.--,--.--,--.--,--.--,--.--,0.00,--.--,--.--,true,true,true,true,true,true,false,false,true,true,false,false,0.04,0.02,0.01,0.01,0.00,0.00,0.42,0.20,43.9455045,-78.8974462,17TPJ 68726 67969,0.0,0.0,307.9,3,10,--.--,--.--,--.--,0.0,0.0,0.0,0,0,0,--.--,--.--,--.--
2020-08-02 16:24:00.304,3.8,-35.2,307,1.0,0.5,0.0,4.8,3.6,-0.0,50.0,100.0,65.7,00:00:43,67.1,308,128,--.--,71,0001:22:27,--.--,--.--,--.--,--.--,--.--,--.--,--.--,0,--.--,--.--,--.--,--.--,--.--,--.--,--.--,0,16:24:00,2020-08-02,--.--,--.--,--.--,--.--,--.--,--.--,--.--,0.00,--.--,--.--,true,true,true,true,true,true,false,false,true,true,false,false,0.02,0.02,0.00,0.02,0.00,0.00,0.42,0.20,43.9455317,-78.8974953,17TPJ 68722 67972,0.0,0.0,307.5,3,10,--.--,--.--,--.--,0.0,0.0,0.0,0,0,0,--.--,--.--,--.--
2020-08-02 16:24:01.309,4.0,-35.2,307,0.9,0.4,0.2,4.9,1.2,-0.0,50.0,100.0,70.6,00:00:44,72.0,308,128,--.--,71,0001:22:27,--.--,--.--,--.--,--.--,--.--,--.--,--.--,0,--.--,--.--,--.--,--.--,--.--,--.--,--.--,0,16:24:01,2020-08-02,--.--,--.--,--.--,--.--,--.--,--.--,--.--,0.00,--.--,--.--,true,true,true,true,true,true,false,false,true,true,false,false,0.02,0.02,0.00,0.01,0.00,0.00,0.44,0.20,43.9455587,-78.8975445,17TPJ 68718 67974,0.0,0.0,307.5,3,10,--.--,--.--,--.--,0.0,0.0,0.0,0,0,0,--.--,--.--,--.--
2020-08-02 16:24:02.304,4.0,-35.2,307,0.0,0.3,-0.0,4.9,2.5,0.0,50.0,100.0,75.5,00:00:45,76.9,308,128,--.--,71,0001:22:27,--.--,--.--,--.--,--.--,--.--,--.--,--.--,0,--.--,--.--,--.--,--.--,--.--,--.--,--.--,0,16:24:02,2020-08-02,--.--,--.--,--.--,--.--,--.--,--.--,--.--,0.00,--.--,--.--,true,true,true,true,true,true,false,false,true,true,false,false,0.02,0.01,0.00,0.01,0.00,0.00,0.44,0.20,43.9455806,-78.8975845,17TPJ 68714 67977,0.0,0.0,307.2,3,10,--.--,--.--,--.--,0.0,0.0,0.0,0,0,0,--.--,--.--,--.--
2020-08-02 16:24:03.304,4.1,-35.4,307,-1.1,-0.4,0.6,4.9,2.9,0.0,50.0,100.0,80.4,00:00:46,81.8,308,128,--.--,71,0001:22:27,--.--,--.--,--.--,--.--,--.--,--.--,--.--,0,--.--,--.--,--.--,--.--,--.--,--.--,--.--,0,16:24:03,2020-08-02,--.--,--.--,--.--,--.--,--.--,--.--,--.--,0.00,--.--,--.--,true,true,true,true,true,true,false,false,true,true,false,false,0.02,0.01,0.01,0.03,0.00,0.00,0.43,0.20,43.9456078,-78.8976342,17TPJ 68710 67980,0.0,0.0,307.3,3,10,--.--,--.--,--.--,0.0,0.0,0.0,0,0,0,--.--,--.--,--.--
2020-08-02 16:24:04.305,4.2,-35.6,307,1.1,0.7,-0.3,5.0,5.6,0.0,50.0,100.0,85.3,00:00:47,86.8,308,128,--.--,72,0001:22:27,--.--,--.--,--.--,--.--,--.--,--.--,--.--,0,--.--,--.--,--.--,--.--,--.--,--.--,--.--,0,16:24:04,2020-08-02,--.--,--.--,--.--,--.--,--.--,--.--,--.--,0.00,--.--,--.--,true,true,true,true,true,true,false,false,true,true,false,false,0.01,0.01,0.01,0.01,0.00,0.00,0.43,0.20,43.9456354,-78.8976846,17TPJ 68706 67983,0.0,0.0,307.2,3,10,--.--,--.--,--.--,0.0,0.0,0.0,0,0,0,--.--,--.--,--.--
2020-08-02 16:24:05.305,4.3,-35.6,307,-0.4,-0.3,0.1,5.0,4.8,0.0,50.0,100.0,90.3,00:00:48,91.8,308,128,--.--,72,0001:22:27,--.--,--.--,--.--,--.--,--.--,--.--,--.--,0,--.--,--.--,--.--,--.--,--.--,--.--,--.--,0,16:24:05,2020-08-02,--.--,--.--,--.--,--.--,--.--,--.--,--.--,0.00,--.--,--.--,true,true,true,true,true,true,false,false,true,true,false,false,0.01,0.00,0.00,0.01,0.00,0.00,0.43,0.20,43.9456630,-78.8977348,17TPJ 68702 67986,0.0,0.0,307.2,3,10,--.--,--.--,--.--,0.0,0.0,0.0,0,0,0,--.--,--.--,--.--
2020-08-02 16:24:06.305,4.5,-35.7,307,-0.1,0.4,-0.1,5.0,4.7,0.0,50.0,100.0,95.3,00:00:49,96.8,308,128,--.--,72,0001:22:27,--.--,--.--,--.--,--.--,--.--,--.--,--.--,0,--.--,--.--,--.--,--.--,--.--,--.--,--.--,0,16:24:06,2020-08-02,--.--,--.--,--.--,--.--,--.--,--.--,--.--,0.00,--.--,--.--,true,true,true,true,true,true,false,false,true,true,false,false,0.01,0.01,0.00,0.02,0.00,0.00,0.42,0.20,43.9456909,-78.8977857,17TPJ 68698 67989,0.0,0.0,307.6,3,10,--.--,--.--,--.--,0.0,0.0,0.0,0,0,0,--.--,--.--,--.--
2020-08-02 16:24:07.304,4.6,-35.9,307,0.5,0.2,-0.1,5.0,5.7,0.0,50.0,100.0,101.8,00:00:50,101.8,308,128,--.--,72,0001:22:27,--.--,--.--,--.--,--.--,--.--,--.--,--.--,0,--.--,--.--,--.--,--.--,--.--,--.--,--.--,0,16:24:07,2020-08-02,--.--,--.--,--.--,--.--,--.--,--.--,--.--,0.00,--.--,--.--,true,true,true,true,true,true,false,false,true,true,false,false,0.02,0.01,0.00,0.02,0.00,0.00,0.42,0.20,43.9457190,-78.8978364,17TPJ 68694 67992,0.0,0.0,307.6,3,10,--.--,--.--,--.--,0.0,0.0,0.0,0,0,0,--.--,--.--,--.--
2020-08-02 16:24:08.304,4.6,-35.8,307,0.4,0.3,-0.6,5.0,3.9,0.0,50.0,100.0,105.8,00:00:51,106.8,308,128,--.--,72,0001:22:27,--.--,--.--,--.--,--.--,--.--,--.--,--.--,0,--.--,--.--,--.--,--.--,--.--,--.--,--.--,0,16:24:08,2020-08-02,--.--,--.--,--.--,--.--,--.--,--.--,--.--,0.00,--.--,--.--,true,true,true,true,true,true,false,false,true,true,false,false,0.01,0.01,0.01,0.01,0.00,0.00,0.42,0.20,43.9457471,-78.8978868,17TPJ 68690 67995,0.0,0.0,307.6,3,10,--.--,--.--,--.--,0.0,0.0,0.0,0,0,0,--.--,--.--,--.--
2020-08-02 16:24:09.304,4.6,-35.8,307,0.2,0.2,-0.4,5.0,5.1,0.0,50.0,100.0,109.9,00:00:52,111.8,308,128,--.--,72,0001:22:27,--.--,--.--,--.--,--.--,--.--,--.--,--.--,0,--.--,--.--,--.--,--.--,--.--,--.--,--.--,0,16:24:09,2020-08-02,--.--,--.--,--.--,--.--,--.--,--.--,--.--,0.00,--.--,--.--,true,true,true,true,true,true,false,false,true,true,false,false,0.01,0.00,0.00,0.01,0.00,0.00,0.42,0.20,43.9457755,-78.8979377,17TPJ 68685 67998,0.0,0.0,307.9,3,10,--.--,--.--,--.--,0.0,0.0,0.0,0,0,0,--.--,--.--,--.--
2020-08-02 16:24:10.305,4.6,-35.9,307,0.2,0.9,0.5,5.0,4.6,0.0,50.0,100.0,116.9,00:00:53,116.8,308,128,--.--,72,0001:22:27,--.--,--.--,--.--,--.--,--.--,--.--,--.--,0,--.--,--.--,--.--,--.--,--.--,--.--,--.--,0,16:24:10,2020-08-02,--.--,--.--,--.--,--.--,--.--,--.--,--.--,0.00,--.--,--.--,true,true,true,true,true,true,false,false,true,true,false,false,0.02,0.01,0.00,0.01,0.00,0.00,0.41,0.20,43.9458036,-78.8979883,17TPJ 68681 68001,0.0,0.0,307.7,3,10,--.--,--.--,--.--,0.0,0.0,0.0,0,0,0,--.--,--.--,--.--
2020-08-02 16:24:11.305,4.6,-35.6,307,0.2,0.4,-0.4,5.0,4.6,0.0,50.0,100.0,121.4,00:00:54,121.8,308,128,--.--,72,0001:22:27,--.--,--.--,--.--,--.--,--.--,--.--,--.--,0,--.--,--.--,--.--,--.--,--.--,--.--,--.--,0,16:24:11,2020-08-02,--.--,--.--,--.--,--.--,--.--,--.--,--.--,0.00,--.--,--.--,true,true,true,true,true,true,false,false,true,true,false,false,0.02,0.01,0.01,0.01,0.00,0.00,0.44,0.20,43.9458318,-78.8980394,17TPJ 68677 68004,0.0,0.0,307.3,3,10,--.--,--.--,--.--,0.0,0.0,0.0,0,0,0,--.--,--.--,--.--
2020-08-02 16:24:12.305,4.7,-35.6,307,0.8,-0.4,-0.1,5.0,3.4,0.0,50.0,100.0,125.4,00:00:55,126.9,308,128,--.--,72,0001:22:27,--.--,--.--,--.--,--.--,--.--,--.--,--.--,0,--.--,--.--,--.--,--.--,--.--,--.--,--.--,0,16:24:12,2020-08-02,--.--,--.--,--.--,--.--,--.--,--.--,--.--,0.00,--.--,--.--,true,true,true,true,true,true,false,false,true,true,false,false,0.02,0.01,0.00,0.01,0.00,0.00,0.43,0.20,43.9458539,-78.8980798,17TPJ 68674 68006,0.0,0.0,307.4,3,10,--.--,--.--,--.--,0.0,0.0,0.0,0,0,0,--.--,--.--,--.--
2020-08-02 16:24:13.304,4.7,-35.7,307,0.0,0.1,-0.2,5.0,0.7,0.0,50.0,100.1,131.4,00:00:56,131.9,308,128,--.--,72,0001:22:27,--.--,--.--,--.--,--.--,--.--,--.--,--.--,0,--.--,--.--,--.--,--.--,--.--,--.--,--.--,0,16:24:13,2020-08-02,--.--,--.--,--.--,--.--,--.--,--.--,--.--,0.00,--.--,--.--,true,true,true,true,true,true,false,false,true,true,false,false,0.02,0.01,0.00,0.01,0.00,0.00,0.43,0.20,43.9458821,-78.8981306,17TPJ 68670 68009,0.0,0.0,307.4,3,10,--.--,--.--,--.--,0.0,0.0,0.0,0,0,0,--.--,--.--,--.--
2020-08-02 16:24:14.304,4.9,-35.7,307,0.4,-0.5,-0.1,5.0,3.6,-0.0,50.0,100.1,135.4,00:00:57,136.9,308,128,--.--,72,0001:22:27,--.--,--.--,--.--,--.--,--.--,--.--,--.--,0,--.--,--.--,--.--,--.--,--.--,--.--,--.--,0,16:24:14,2020-08-02,--.--,--.--,--.--,--.--,--.--,--.--,--.--,0.00,--.--,--.--,true,true,true,true,true,true,false,false,true,true,false,false,0.01,0.02,0.00,0.00,0.00,0.00,0.43,0.20,43.9459100,-78.8981809,17TPJ 68665 68012,0.0,0.0,307.8,3,10,--.--,--.--,--.--,0.0,0.0,0.0,0,0,0,--.--,--.--,--.--
2020-08-02 16:24:15.305,4.9,-35.9,307,-0.4,0.6,-0.4,5.0,5.2,-0.0,50.0,100.1,140.0,00:00:58,141.9,308,128,--.--,72,0001:22:27,--.--,--.--,--.--,--.--,--.--,--.--,--.--,0,--.--,--.--,--.--,--.--,--.--,--.--,--.--,0,16:24:15,2020-08-02,--.--,--.--,--.--,--.--,--.--,--.--,--.--,0.00,--.--,--.--,true,true,true,true,true,true,false,false,true,true,false,false,0.01,0.01,0.01,0.00,0.00,0.00,0.42,0.20,43.9459383,-78.8982314,17TPJ 68661 68015,0.0,0.0,307.6,3,10,--.--,--.--,--.--,0.0,0.0,0.0,0,0,0,--.--,--.--,--.--
2020-08-02 16:24:16.305,5.0,-35.7,307,2.5,-0.2,-0.9,5.0,1.5,-0.0,50.0,100.1,146.9,00:00:59,146.9,308,128,--.--,72,0001:22:27,--.--,--.--,--.--,--.--,--.--,--.--,--.--,0,--.--,--.--,--.--,--.--,--.--,--.--,--.--,0,16:24:16,2020-08-02,--.--,--.--,--.--,--.--,--.--,--.--,--.--,0.00,--.--,--.--,true,true,true,true,true,true,false,false,true,true,false,false,0.01,0.01,0.00,0.01,0.00,0.00,0.42,0.20,43.9459664,-78.8982813,17TPJ 68657 68018,0.0,0.0,307.9,3,10,--.--,--.--,--.--,0.0,0.0,0.0,0,0,0,--.--,--.--,--.--
2020-08-02 16:24:17.305,4.8,-35.8,307,0.5,0.7,0.2,5.0,4.9,-0.0,50.0,100.1,151.4,00:01:00,151.9,308,128,--.--,72,0001:22:27,--.--,--.--,--.--,--.--,--.--,--.--,--.--,0,--.--,--.--,--.--,--.--,--.--,--.--,--.--,0,16:24:17,2020-08-02,--.--,--.--,--.--,--.--,--.--,--.--,--.--,0.00,--.--,--.--,true,true,true,true,true,true,false,false,true,true,false,false,0.02,0.01,0.00,0.00,0.00,0.00,0.42,0.20,43.9459946,-78.8983318,17TPJ 68653 68021,0.0,0.0,307.7,3,10,--.--,--.--,--.--,0.0,0.0,0.0,0,0,0,--.--,--.--,--.--
2020-08-02 16:24:18.307,4.8,-35.9,307,0.5,0.6,-0.2,5.0,3.1,-0.0,50.0,100.1,155.9,00:01:01,156.9,308,128,--.--,72,0001:22:27,--.--,--.--,--.--,--.--,--.--,--.--,--.--,0,--.--,--.--,--.--,--.--,--.--,--.--,--.--,0,16:24:18,2020-08-02,--.--,--.--,--.--,--.--,--.--,--.--,--.--,0.00,--.--,--.--,true,true,true,true,true,true,false,false,true,true,false,false,0.00,0.01,0.00,0.00,0.00,0.00,0.42,0.20,43.9460226,-78.8983820,17TPJ 68649 68024,0.0,0.0,307.4,3,10,--.--,--.--,--.--,0.0,0.0,0.0,0,0,0,--.--,--.--,--.--
2020-08-02 16:24:19.304,5.0,-35.8,307,0.2,-0.9,0.3,5.0,3.2,0.0,50.0,100.0,160.4,00:01:02,161.8,308,128,--.--,72,0001:22:27,--.--,--.--,--.--,--.--,--.--,--.--,--.--,0,--.--,--.--,--.--,--.--,--.--,--.--,--.--,0,16:24:19,2020-08-02,--.--,--.--,--.--,--.--,--.--,--.--,--.--,0.00,--.--,--.--,true,true,true,true,true,true,false,false,true,true,false,false,0.01,0.01,0.01,0.00,0.00,0.00,0.41,0.20,43.9460509,-78.8984327,17TPJ 68645 68027,0.0,0.0,307.9,3,10,--.--,--.--,--.--,0.0,0.0,0.0,0,0,0,--.--,--.--,--.--
2020-08-02 16:24:20.304,4.9,-35.8,307,0.6,-0.2,-0.2,5.0,5.2,-0.0,50.0,100.0,166.4,00:01:03,166.8,308,128,--.--,72,0001:22:27,--.--,--.--,--.--,--.--,--.--,--.--,--.--,0,--.--,--.--,--.--,--.--,--.--,--.--,--.--,0,16:24:20,2020-08-02,--.--,--.--,--.--,--.--,--.--,--.--,--.--,0.00,--.--,--.--,true,true,true,true,true,true,false,false,true,true,false,false,0.01,0.00,0.01,0.00,0.00,0.00,0.41,0.19,43.9460789,-78.8984829,17TPJ 68641 68030,0.0,0.0,307.9,3,10,--.--,--.--,--.--,0.0,0.0,0.0,0,0,0,--.--,--.--,--.--
2020-08-02 16:24:21.304,5.0,-35.8,307,1.3,0.5,-0.2,5.0,3.1,-0.0,50.0,100.1,170.4,00:01:04,171.9,308,128,--.--,72,0001:22:27,--.--,--.--,--.--,--.--,--.--,--.--,--.--,0,--.--,--.--,--.--,--.--,--.--,--.--,--.--,0,16:24:21,2020-08-02,--.--,--.--,--.--,--.--,--.--,--.--,--.--,0.00,--.--,--.--,true,true,true,true,true,true,false,false,true,true,false,false,0.01,0.00,0.00,0.03,0.00,0.00,0.43,0.20,43.9461017,-78.8985234,17TPJ 68637 68033,0.0,0.0,307.9,3,10,--.--,--.--,--.--,0.0,0.0,0.0,0,0,0,--.--,--.--,--.--
2020-08-02 16:24:22.304,4.9,-35.7,307,0.7,-0.3,0.3,5.0,4.1,-0.0,50.0,100.1,176.9,00:01:05,176.9,308,128,--.--,72,0001:22:27,--.--,--.--,--.--,--.--,--.--,--.--,--.--,0,--.--,--.--,--.--,--.--,--.--,--.--,--.--,0,16:24:22,2020-08-02,--.--,--.--,--.--,--.--,--.--,--.--,--.--,0.00,--.--,--.--,true,true,true,true,true,true,false,false,true,true,false,false,0.00,0.01,0.00,0.01,0.00,0.00,0.43,0.20,43.9461298,-78.8985736,17TPJ 68633 68036,0.0,0.0,307.7,3,10,--.--,--.--,--.--,0.0,0.0,0.0,0,0,0,--.--,--.--,--.--
2020-08-02 16:24:23.304,5.1,-35.8,307,0.2,0.4,0.5,5.0,2.9,-0.0,50.0,100.1,181.9,00:01:06,181.9,308,128,--.--,72,0001:22:27,--.--,--.--,--.--,--.--,--.--,--.--,--.--,0,--.--,--.--,--.--,--.--,--.--,--.--,--.--,0,16:24:23,2020-08-02,--.--,--.--,--.--,--.--,--.--,--.--,--.--,0.00,--.--,--.--,true,true,true,true,true,true,false,false,true,true,false,false,0.02,0.01,0.01,0.01,0.00,0.00,0.43,0.20,43.9461581,-78.8986241,17TPJ 68629 68039,0.0,0.0,307.6,3,10,--.--,--.--,--.--,0.0,0.0,0.0,0,0,0,--.--,--.--,--.--
2020-08-02 16:24:24.305,4.9,-35.9,307,-0.5,-0.0,-0.0,5.0,2.4,-0.0,50.0,100.1,186.4,00:01:07,186.9,308,128,--.--,72,0001:22:27,--.--,--.--,--.--,--.--,--.--,--.--,--.--,0,--.--,--.--,--.--,--.--,--.--,--.--,--.--,0,16:24:24,2020-08-02,--.--,--.--,--.--,--.--,--.--,--.--,--.--,0.00,--.--,--.--,true,true,true,true,true,true,false,false,true,true,false,false,0.03,0.00,0.01,0.00,0.00,0.00,0.43,0.20,43.9461862,-78.8986742,17TPJ 68625 68042,0.0,0.0,307.9,3,10,--.--,--.--,--.--,0.0,0.0,0.0,0,0,0,--.--,--.--,--.--
2020-08-02 16:24:25.305,5.0,-35.8,307,-0.7,0.3,-0.1,5.0,4.3,-0.0,50.0,100.1,190.5,00:01:08,191.9,308,128,--.--,72,0001:22:27,--.--,--.--,--.--,--.--,--.--,--.--,--.--,0,--.--,--.--,--.--,--.--,--.--,--.--,--.--,0,16:24:25,2020-08-02,--.--,--.--,--.--,--.--,--.--,--.--,--.--,0.00,--.--,--.--,true,true,true,true,true,true,false,false,true,true,false,false,0.02,0.01,0.00,0.01,0.00,0.00,0.42,0.20,43.9462145,-78.8987246,17TPJ 68621 68045,0.0,0.0,308.1,3,10,--.--,--.--,--.--,0.0,0.0,0.0,0,0,0,--.--,--.--,--.--
2020-08-02 16:24:26.305,5.0,-35.7,307,0.8,0.7,-0.6,5.0,3.6,-0.0,50.0,100.0,194.9,00:01:09,196.9,308,128,--.--,72,0001:22:27,--.--,--.--,--.--,--.--,--.--,--.--,--.--,0,--.--,--.--,--.--,--.--,--.--,--.--,--.--,0,16:24:26,2020-08-02,--.--,--.--,--.--,--.--,--.--,--.--,--.--,0.00,--.--,--.--,true,true,true,true,true,true,false,false,true,true,false,false,0.01,0.01,0.01,0.01,0.00,0.00,0.42,0.20,43.9462428,-78.8987746,17TPJ 68617 68048,0.0,0.0,308.0,3,10,--.--,--.--,--.--,0.0,0.0,0.0,0,0,0,--.--,--.--,--.--
2020-08-02 16:24:27.307,5.0,-35.8,307,1.7,0.4,0.6,5.0,3.9,0.0,50.0,100.0,201.9,00:01:10,201.8,308,128,--.--,72,0001:22:27,--.--,--.--,--.--,--.--,--.--,--.--,--.--,0,--.--,--.--,--.--,--.--,--.--,--.--,--.--,0,16:24:27,2020-08-02,--.--,--.--,--.--,--.--,--.--,--.--,--.--,0.00,--.--,--.--,true,true,true,true,true,true,false,false,true,true,false,false,0.03,0.01,0.00,0.00,0.00,0.00,0.42,0.20,43.9462709,-78.8988248,17TPJ 68613 68051,0.0,0.0,307.7,3,10,--.--,--.--,--.--,0.0,0.0,0.0,0,0,0,--.--,--.--,--.--
2020-08-02 16:24:28.304,4.9,-35.8,307,-1.3,0.5,0.2,5.0,3.9,0.0,50.0,100.0,206.4,00:01:11,206.8,308,128,--.--,72,0001:22:27,--.--,--.--,--.--,--.--,--.--,--.--,--.--,0,--.--,--.--,--.--,--.--,--.--,--.--,--.--,0,16:24:28,2020-08-02,--.--,--.--,--.--,--.--,--.--,--.--,--.--,0.00,--.--,--.--,true,true,true,true,true,true,false,false,true,true,false,false,0.02,0.01,0.00,0.00,0.00,0.00,0.41,0.20,43.9462991,-78.8988753,17TPJ 68609 68054,0.0,0.0,307.7,3,10,--.--,--.--,--.--,0.0,0.0,0.0,0,0,0,--.--,--.--,--.--
2020-08-02 16:24:29.304,4.8,-35.9,307,-0.9,0.6,-0.1,5.0,3.5,0.0,50.0,100.0,210.4,00:01:12,211.8,308,128,--.--,72,0001:22:27,--.--,--.--,--.--,--.--,--.--,--.--,--.--,0,--.--,--.--,--.--,--.--,--.--,--.--,--.--,0,16:24:29,2020-08-02,--.--,--.--,--.--,--.--,--.--,--.--,--.--,0.00,--.--,--.--,true,true,true,true,true,true,false,false,true,true,false,false,0.01,0.01,0.00,0.00,0.00,0.00,0.41,0.20,43.9463271,-78.8989257,17TPJ 68604 68057,0.0,0.0,307.5,3,10,--.--,--.--,--.--,0.0,0.0,0.0,0,0,0,--.--,--.--,--.--
2020-08-02 16:24:30.304,4.9,-35.8,307,-1.1,-0.1,-0.4,5.0,3.4,0.0,50.0,100.0,216.9,00:01:13,216.9,308,128,--.--,72,0001:22:27,--.--,--.--,--.--,--.--,--.--,--.--,--.--,0,--.--,--.--,--.--,--.--,--.--,--.--,--.--,0,16:24:30,2020-08-02,--.--,--.--,--.--,--.--,--.--,--.--,--.--,0.00,--.--,--.--,true,true,true,true,true,true,false,false,true,true,false,false,0.01,0.01,0.00,0.02,0.00,0.00,0.44,0.20,43.9463551,-78.8989766,17TPJ 68600 68060,0.0,0.0,307.1,3,10,--.--,--.--,--.--,0.0,0.0,0.0,0,0,0,--.--,--.--,--.--
2020-08-02 16:24:31.305,4.7,-35.8,307,-0.9,-1.2,0.0,5.0,5.1,0.0,50.0,100.0,221.9,00:01:14,221.8,308,128,--.--,72,0001:22:27,--.--,--.--,--.--,--.--,--.--,--.--,--.--,0,--.--,--.--,--.--,--.--,--.--,--.--,--.--,0,16:24:31,2020-08-02,--.--,--.--,--.--,--.--,--.--,--.--,--.--,0.00,--.--,--.--,true,true,true,true,true,true,false,false,true,true,false,false,0.01,0.01,0.00,0.00,0.00,0.00,0.43,0.20,43.9463772,-78.8990172,17TPJ 68597 68062,0.0,0.0,307.1,3,10,--.--,--.--,--.--,0.0,0.0,0.0,0,0,0,--.--,--.--,--.--
2020-08-02 16:24:32.305,4.9,-35.9,307,-0.6,1.0,-0.4,5.0,3.6,0.0,50.0,100.0,225.9,00:01:15,226.9,308,128,--.--,72,0001:22:27,--.--,--.--,--.--,--.--,--.--,--.--,--.--,0,--.--,--.--,--.--,--.--,--.--,--.--,--.--,0,16:24:32,2020-08-02,--.--,--.--,--.--,--.--,--.--,--.--,--.--,0.00,--.--,--.--,true,true,true,true,true,true,false,false,true,true,false,false,0.02,0.00,0.01,0.02,0.00,0.00,0.43,0.20,43.9464049,-78.8990686,17TPJ 68593 68065,0.0,0.0,306.8,3,10,--.--,--.--,--.--,0.0,0.0,0.0,0,0,0,--.--,--.--,--.--
2020-08-02 16:24:33.304,4.9,-35.9,307,-0.5,0.3,-0.5,5.0,3.0,0.0,50.0,100.0,230.4,00:01:16,231.9,308,128,--.--,72,0001:22:27,--.--,--.--,--.--,--.--,--.--,--.--,--.--,0,--.--,--.--,--.--,--.--,--.--,--.--,--.--,0,16:24:33,2020-08-02,--.--,--.--,--.--,--.--,--.--,--.--,--.--,0.00,--.--,--.--,true,true,true,true,true,true,false,false,true,true,false,false,0.03,0.01,0.01,0.02,0.00,0.00,0.43,0.20,43.9464324,-78.8991194,17TPJ 68589 68068,0.0,0.0,307.2,3,10,--.--,--.--,--.--,0.0,0.0,0.0,0,0,0,--.--,--.--,--.--
2020-08-02 16:24:34.304,5.0,-35.9,307,-0.9,-0.1,-0.5,5.0,5.2,0.0,50.0,100.0,236.4,00:01:17,236.9,308,128,--.--,72,0001:22:27,--.--,--.--,--.--,--.--,--.--,--.--,--.--,0,--.--,--.--,--.--,--.--,--.--,--.--,--.--,0,16:24:34,2020-08-02,--.--,--.--,--.--,--.--,--.--,--.--,--.--,0.00,--.--,--.--,true,true,true,true,true,true,false,false,true,true,false,false,0.03,0.01,0.01,0.00,0.00,0.00,0.42,0.20,43.9464603,-78.8991706,17TPJ 68584 68071,0.0,0.0,307.3,3,10,--.--,--.--,--.--,0.0,0.0,0.0,0,0,0,--.--,--.--,--.--
2020-08-02 16:24:35.304,5.1,-35.9,307,-0.7,0.3,0.1,5.0,5.2,0.0,50.0,100.0,240.4,00:01:18,241.9,308,128,--.--,72,0001:22:27,--.--,--.--,--.--,--.--,--.--,--.--,--.--,0,--.--,--.--,--.--,--.--,--.--,--.--,--.--,0,16:24:35,2020-08-02,--.--,--.--,--.--,--.--,--.--,--.--,--.--,0.00,--.--,--.--,true,true,true,true,true,true,false,false,true,true,false,false,0.03,0.02,0.00,0.01,0.00,0.00,0.42,0.20,43.9464880,-78.8992213,17TPJ 68580 68074,0.0,0.0,307.3,3,10,--.--,--.--,--.--,0.0,0.0,0.0,0,0,0,--.--,--.--,--.--
2020-08-02 16:24:36.304,5.1,-35.8,307,0.1,0.5,0.2,5.0,3.3,0.0,50.0,100.0,246.5,00:01:19,246.9,308,128,--.--,72,0001:22:27,--.--,--.--,--.--,--.--,--.--,--.--,--.--,0,--.--,--.--,--.--,--.--,--.--,--.--,--.--,0,16:24:36,2020-08-02,--.--,--.--,--.--,--.--,--.--,--.--,--.--,0.00,--.--,--.--,true,true,true,true,true,true,false,false,true,true,false,false,0.04,0.02,0.00,0.00,0.00,0.00,0.42,0.20,43.9465162,-78.8992722,17TPJ 68576 68077,0.0,0.0,307.6,3,10,--.--,--.--,--.--,0.0,0.0,0.0,0,0,0,--.--,--.--,--.--
2020-08-02 16:24:37.305,5.2,-35.9,307,0.3,-0.5,0.2,5.0,3.9,0.0,50.0,100.0,250.5,00:01:20,251.9,308,128,--.--,72,0001:22:27,--.--,--.--,--.--,--.--,--.--,--.--,--.--,0,--.--,--.--,--.--,--.--,--.--,--.--,--.--,0,16:24:37,2020-08-02,--.--,--.--,--.--,--.--,--.--,--.--,--.--,0.00,--.--,--.--,true,true,true,true,true,true,false,false,true,true,false,false,0.03,0.02,0.00,0.00,0.00,0.00,0.42,0.20,43.9465441,-78.8993226,17TPJ 68572 68080,0.0,0.0,307.8,3,10,--.--,--.--,--.--,0.0,0.0,0.0,0,0,0,--.--,--.--,--.--
2020-08-02 16:24:38.311,5.2,-35.9,307,-0.2,0.1,-0.4,5.0,5.6,0.0,50.0,100.0,257.0,00:01:21,256.9,308,128,--.--,72,0001:22:27,--.--,--.--,--.--,--.--,--.--,--.--,--.--,0,--.--,--.--,--.--,--.--,--.--,--.--,--.--,0,16:24:38,2020-08-02,--.--,--.--,--.--,--.--,--.--,--.--,--.--,0.00,--.--,--.--,true,true,true,true,true,true,false,false,true,true,false,false,0.03,0.02,0.02,0.02,0.00,0.00,0.41,0.20,43.9465724,-78.8993735,17TPJ 68568 68083,0.0,0.0,307.7,3,10,--.--,--.--,--.--,0.0,0.0,0.0,0,0,0,--.--,--.--,--.--
2020-08-02 16:24:39.311,5.1,-35.8,307,-0.3,1.0,-0.3,5.0,5.1,0.0,50.0,100.0,261.0,00:01:22,261.9,308,128,--.--,72,0001:22:27,--.--,--.--,--.--,--.--,--.--,--.--,--.--,0,--.--,--.--,--.--,--.--,--.--,--.--,--.--,0,16:24:39,2020-08-02,--.--,--.--,--.--,--.--,--.--,--.--,--.--,0.00,--.--,--.--,true,true,true,true,true,true,false,false,true,true,false,false,0.04,0.02,0.00,0.02,0.00,0.00,0.41,0.20,43.9466007,-78.8994239,17TPJ 68564 68086,0.0,0.0,307.7,3,10,--.--,--.--,--.--,0.0,0.0,0.0,0,0,0,--.--,--.--,--.--
2020-08-02 16:24:40.304,5.1,-35.8,307,1.1,1.3,0.1,5.0,3.1,0.0,50.0,100.0,266.0,00:01:23,266.9,308,128,--.--,72,0001:22:27,--.--,--.--,--.--,--.--,--.--,--.--,--.--,0,--.--,--.--,--.--,--.--,--.--,--.--,--.--,0,16:24:40,2020-08-02,--.--,--.--,--.--,--.--,--.--,--.--,--.--,0.00,--.--,--.--,true,true,true,true,true,true,false,false,true,true,false,false,0.03,0.02,0.01,0.00,0.00,0.00,0.43,0.20,43.9466233,-78.8994643,17TPJ 68560 68089,0.0,0.0,307.9,3,10,--.--,--.--,--.--,0.0,0.0,0.0,0,0,0,--.--,--.--,--.--
2020-08-02 16:24:41.304,5.2,-35.7,307,-0.0,0.7,-0.1,5.0,4.5,0.0,50.0,100.0,271.0,00:01:24,271.9,308,128,--.--,72,0001:22:27,--.--,--.--,--.--,--.--,--.--,--.--,--.--,0,--.--,--.--,--.--,--.--,--.--,--.--,--.--,0,16:24:41,2020-08-02,--.--,--.--,--.--,--.--,--.--,--.--,--.--,0.00,--.--,--.--,true,true,true,true,true,true,false,false,true,true,false,false,0.03,0.03,0.00,0.00,0.00,0.00,0.43,0.20,43.9466514,-78.8995144,17TPJ 68556 68092,0.0,0.0,307.6,3,10,--.--,--.--,--.--,0.0,0.0,0.0,0,0,0,--.--,--.--,--.--
2020-08-02 16:24:42.311,5.2,-35.9,307,-0.1,2.1,0.8,5.0,4.0,0.0,50.0,100.0,275.0,00:01:25,276.9,308,128,--.--,72,0001:22:27,--.--,--.--,--.--,--.--,--.--,--.--,--.--,0,--.--,--.--,--.--,--.--,--.--,--.--,--.--,0,16:24:42,2020-08-02,--.--,--.--,--.--,--.--,--.--,--.--,--.--,0.00,--.--,--.--,true,true,true,true,true,true,false,false,true,true,false,false,0.02,0.02,0.00,0.01,0.00,0.00,0.43,0.20,43.9466795,-78.8995651,17TPJ 68552 68095,0.0,0.0,307.8,3,10,--.--,--.--,--.--,0.0,0.0,0.0,0,0,0,--.--,--.--,--.--
2020-08-02 16:24:43.308,5.2,-35.9,307,-0.2,-0.8,-0.0,5.0,3.7,0.0,50.0,100.0,281.5,00:01:26,281.9,308,128,--.--,72,0001:22:27,--.--,--.--,--.--,--.--,--.--,--.--,--.--,0,--.--,--.--,--.--,--.--,--.--,--.--,--.--,0,16:24:43,2020-08-02,--.--,--.--,--.--,--.--,--.--,--.--,--.--,0.00,--.--,--.--,true,true,true,true,true,true,false,false,true,true,false,false,0.03,0.02,0.01,0.01,0.00,0.00,0.43,0.20,43.9467074,-78.8996153,17TPJ 68548 68098,0.0,0.0,307.6,3,10,--.--,--.--,--.--,0.0,0.0,0.0,0,0,0,--.--,--.--,--.--
2020-08-02 16:24:44.312,5.1,-35.9,307,-0.2,0.5,0.1,5.0,1.6,0.0,50.0,100.0,286.0,00:01:27,286.9,308,128,--.--,72,0001:22:27,--.--,--.--,--.--,--.--,--.--,--.--,--.--,0,--.--,--.--,--.--,--.--,--.--,--.--,--.--,0,16:24:44,2020-08-02,--.--,--.--,--.--,--.--,--.--,--.--,--.--,0.00,--.--,--.--,true,true,true,true,true,true,false,false,true,true,false,false,0.04,0.02,0.02,0.01,0.00,0.00,0.42,0.20,43.9467357,-78.8996661,17TPJ 68544 68101,0.0,0.0,307.8,3,10,--.--,--.--,--.--,0.0,0.0,0.0,0,0,0,--.--,--.--,--.--
2020-08-02 16:24:45.304,5.0,-35.9,307,0.7,-0.7,-0.1,5.0,1.8,0.0,50.0,100.0,291.0,00:01:28,291.9,308,128,--.--,72,0001:22:27,--.--,--.--,--.--,--.--,--.--,--.--,--.--,0,--.--,--.--,--.--,--.--,--.--,--.--,--.--,0,16:24:45,2020-08-02,--.--,--.--,--.--,--.--,--.--,--.--,--.--,0.00,--.--,--.--,true,true,true,true,true,true,false,false,true,true,false,false,0.03,0.01,0.02,0.02,0.00,0.00,0.42,0.20,43.9467638,-78.8997164,17TPJ 68540 68104,0.0,0.0,308.0,3,10,--.--,--.--,--.--,0.0,0.0,0.0,0,0,0,--.--,--.--,--.--
2020-08-02 16:24:46.304,5.0,-35.8,307,-0.6,0.7,0.1,5.0,2.5,0.0,50.0,100.0,295.5,00:01:29,296.9,308,128,--.--,72,0001:22:27,--.--,--.--,--.--,--.--,--.--,--.--,--.--,0,--.--,--.--,--.--,--.--,--.--,--.--,--.--,0,16:24:46,2020-08-02,--.--,--.--,--.--,--.--,--.--,--.--,--.--,0.00,--.--,--.--,true,true,true,true,true,true,false,false,true,true,false,false,0.02,0.02,0.02,0.02,0.00,0.00,0.42,0.20,43.9467919,-78.8997665,17TPJ 68536 68107,0.0,0.0,307.8,3,10,--.--,--.--,--.--,0.0,0.0,0.0,0,0,0,--.--,--.--,--.--
2020-08-02 16:24:47.305,4.9,-35.8,308,0.3,0.8,-0.1,5.0,4.4,0.0,50.0,100.0,302.0,00:01:30,301.9,308,128,--.--,72,0001:22:27,--.--,--.--,--.--,--.--,--.--,--.--,--.--,0,--.--,--.--,--.--,--.--,--.--,--.--,--.--,0,16:24:47,2020-08-02,--.--,--.--,--.--,--.--,--.--,--.--,--.--,0.00,--.--,--.--,true,true,true,true,true,true,false,false,true,true,false,false,0.03,0.02,0.00,0.03,0.00,0.00,0.42,0.20,43.9468202,-78.8998169,17TPJ 68532 68110,0.0,0.0,308.1,3,10,--.--,--.--,--.--,0.0,0.0,0.0,0,0,0,--.--,--.--,--.--
2020-08-02 16:24:48.304,4.9,-35.4,308,1.2,6.0,0.1,5.0,2.8,-0.0,50.0,100.1,306.5,00:01:31,306.9,308,128,--.--,71,0001:22:27,--.--,--.--,--.--,--.--,--.--,--.--,--.--,0,--.--,--.--,--.--,--.--,--.--,--.--,--.--,0,16:24:48,2020-08-02,--.--,--.--,--.--,--.--,--.--,--.--,--.--,0.00,--.--,--.--,true,true,true,true,true,true,false,false,true,true,false,false,0.02,0.02,0.00,0.03,0.00,0.00,0.41,0.20,43.9468483,-78.8998669,17TPJ 68527 68113,0.0,0.0,308.1,3,10,--.--,--.--,--.--,0.0,0.0,0.0,0,0,0,--.--,--.--,--.--
2020-08-02 16:24:49.304,4.6,-22.2,308,-0.7,11.0,-1.7,3.8,4.0,-0.0,50.0,100.0,311.1,00:01:32,311.4,308,128,--.--,64,0001:22:27,--.--,--.--,--.--,--.--,--.--,--.--,--.--,0,--.--,--.--,--.--,--.--,--.--,--.--,--.--,0,16:24:49,2020-08-02,--.--,--.--,--.--,--.--,--.--,--.--,--.--,0.00,--.--,--.--,true,true,true,true,true,true,false,false,true,true,false,false,0.02,0.01,0.00,0.02,0.00,0.00,0.41,0.19,43.9468752,-78.8999132,17TPJ 68524 68116,0.0,0.0,310.4,3,10,--.--,--.--,--.--,0.0,0.0,0.0,0,0,0,--.--,--.--,--.--
2020-08-02 16:24:50.304,3.1,-11.0,302,-15.8,18.3,-25.0,2.4,2.9,0.0,50.0,100.0,313.2,00:01:33,314.5,191,128,--.--,60,0001:22:27,--.--,--.--,--.--,--.--,--.--,--.--,--.--,0,--.--,--.--,--.--,--.--,--.--,--.--,--.--,0,16:24:50,2020-08-02,--.--,--.--,--.--,--.--,--.--,--.--,--.--,0.00,--.--,--.--,true,true,true,true,true,true,false,false,true,true,false,false,0.04,0.01,0.03,0.04,0.00,0.00,0.43,0.20,43.9468916,-78.8999387,17TPJ 68522 68118,0.0,0.0,313.4,3,10,--.--,--.--,--.--,0.0,0.0,0.0,0,0,0,--.--,--.--,--.--
2020-08-02 16:24:51.304,-6.6,-2.8,262,-2.0,6.2,-44.5,1.0,-2.4,0.0,50.1,100.1,315.3,00:01:34,316.1,191,128,--.--,56,0001:22:27,--.--,--.--,--.--,--.--,--.--,--.--,--.--,0,--.--,--.--,--.--,--.--,--.--,--.--,--.--,0,16:24:51,2020-08-02,--.--,--.--,--.--,--.--,--.--,--.--,--.--,0.00,--.--,--.--,true,true,true,true,true,true,false,false,true,true,false,false,0.07,0.01,0.01,0.01,0.00,0.00,0.43,0.20,43.9469035,-78.8999577,17TPJ 68520 68119,0.0,0.0,289.0,3,10,--.--,--.--,--.--,0.0,0.0,0.0,0,0,0,--.--,--.--,--.--
2020-08-02 16:24:52.304,-5.7,-5.3,217,-3.6,-2.7,-45.1,0.8,1.5,-0.0,50.1,100.2,315.3,00:01:35,316.2,191,128,--.--,57,0001:22:27,--.--,--.--,--.--,--.--,--.--,--.--,--.--,0,--.--,--.--,--.--,--.--,--.--,--.--,--.--,0,16:24:52,2020-08-02,--.--,--.--,--.--,--.--,--.--,--.--,--.--,0.00,--.--,--.--,true,true,true,true,true,true,false,false,true,true,false,false,0.09,0.02,0.01,0.02,0.00,0.00,0.43,0.20,43.9469013,-78.8999645,17TPJ 68520 68119,0.0,0.0,197.4,3,10,--.--,--.--,--.--,0.0,0.0,0.0,0,0,0,--.--,--.--,--.--
2020-08-02 16:24:53.304,-1.5,-8.3,177,0.4,-1.3,-16.1,0.9,-3.0,-0.1,50.1,100.1,315.3,00:01:36,315.6,191,128,--.--,57,0001:22:27,--.--,--.--,--.--,--.--,--.--,--.--,--.--,0,--.--,--.--,--.--,--.--,--.--,--.--,--.--,0,16:24:53,2020-08-02,--.--,--.--,--.--,--.--,--.--,--.--,--.--,0.00,--.--,--.--,true,true,true,true,true,true,false,false,true,true,false,false,0.08,0.03,0.01,0.01,0.00,0.00,0.42,0.20,43.9468942,-78.8999641,17TPJ 68520 68118,0.0,0.0,167.0,3,10,--.--,--.--,--.--,0.0,0.0,0.0,0,0,0,--.--,--.--,--.--
2020-08-02 16:24:54.304,0.1,-10.2,173,2.9,-4.6,1.2,1.0,-1.7,-0.1,50.1,100.1,315.3,00:01:37,314.8,191,127,--.--,58,0001:22:27,--.--,--.--,--.--,--.--,--.--,--.--,--.--,0,--.--,--.--,--.--,--.--,--.--,--.--,--.--,0,16:24:54,2020-08-02,--.--,--.--,--.--,--.--,--.--,--.--,--.--,0.00,--.--,--.--,true,true,true,true,true,true,false,false,true,true,false,false,0.06,0.03,0.00,0.02,0.00,0.00,0.42,0.20,43.9468854,-78.8999608,17TPJ 68520 68117,0.0,0.0,164.3,3,10,--.--,--.--,--.--,0.0,0.0,0.0,0,0,0,--.--,--.--,--.--
2020-08-02 16:24:55.304,1.3,-14.6,176,2.0,-5.7,2.1,1.3,3.1,-0.1,50.1,100.1,317.3,00:01:38,313.9,191,127,--.--,59,0001:22:27,--.--,--.--,--.--,--.--,--.--,--.--,--.--,0,--.--,--.--,--.--,--.--,--.--,--.--,--.--,0,16:24:55,2020-08-02,--.--,--.--,--.--,--.--,--.--,--.--,--.--,0.00,--.--,--.--,true,true,true,true,true,true,false,false,true,true,false,false,0.04,0.03,0.00,0.02,0.00,0.00,0.42,0.20,43.9468744,-78.8999577,17TPJ 68520 68116,0.0,0.0,171.7,3,10,--.--,--.--,--.--,0.0,0.0,0.0,0,0,0,--.--,--.--,--.--
2020-08-02 16:24:56.304,1.8,-21.3,177,0.7,-6.1,2.1,2.1,-2.3,-0.0,50.1,100.1,319.4,00:01:39,312.7,191,127,--.--,61,0001:22:27,--.--,--.--,--.--,--.--,--.--,--.--,--.--,0,--.--,--.--,--.--,--.--,--.--,--.--,--.--,0,16:24:56,2020-08-02,--.--,--.--,--.--,--.--,--.--,--.--,--.--,0.00,--.--,--.--,true,true,true,true,true,true,false,false,true,true,false,false,0.05,0.03,0.01,0.01,0.00,0.00,0.42,0.20,43.9468587,-78.8999554,17TPJ 68520 68114,0.0,0.0,175.9,3,10,--.--,--.--,--.--,0.0,0.0,0.0,0,0,0,--.--,--.--,--.--
2020-08-02 16:24:57.304,1.9,-24.4,179,2.5,0.4,1.5,2.9,4.2,-0.1,50.0,100.1,321.5,00:01:40,311.0,191,127,--.--,64,0001:22:27,--.--,--.--,--.--,--.--,--.--,--.--,--.--,0,--.--,--.--,--.--,--.--,--.--,--.--,--.--,0,16:24:57,2020-08-02,--.--,--.--,--.--,--.--,--.--,--.--,--.--,0.00,--.--,--.--,true,true,true,true,true,true,false,false,true,true,false,false,0.04,0.03,0.00,0.02,0.00,0.00,0.42,0.20,43.9468350,-78.8999537,17TPJ 68521 68111,0.0,0.0,177.8,3,10,--.--,--.--,--.--,0.0,0.0,0.0,0,0,0,--.--,--.--,--.--
2020-08-02 16:24:58.304,0.6,-25.8,179,3.2,-2.4,-0.2,3.4,3.4,-0.0,50.0,100.0,325.5,00:01:41,308.9,180,126,--.--,65,0001:22:27,--.--,--.--,--.--,--.--,--.--,--.--,--.--,0,--.--,--.--,--.--,--.--,--.--,--.--,--.--,0,16:24:58,2020-08-02,--.--,--.--,--.--,--.--,--.--,--.--,--.--,0.00,--.--,--.--,true,true,true,true,true,true,false,false,true,true,false,false,0.05,0.02,0.00,0.02,0.00,0.00,0.42,0.20,43.9468051,-78.8999526,17TPJ 68521 68108,0.0,0.0,178.1,3,10,--.--,--.--,--.--,0.0,0.0,0.0,0,0,0,--.--,--.--,--.--
2020-08-02 16:24:59.304,1.8,-27.3,180,0.6,-0.7,0.4,3.7,3.3,0.0,50.0,100.0,329.8,00:01:42,306.7,180,126,--.--,66,0001:22:27,--.--,--.--,--.--,--.--,--.--,--.--,--.--,0,--.--,--.--,--.--,--.--,--.--,--.--,--.--,0,16:24:59,2020-08-02,--.--,--.--,--.--,--.--,--.--,--.--,--.--,0.00,--.--,--.--,true,true,true,true,true,true,false,false,true,true,false,false,0.03,0.02,0.00,0.01,0.00,0.00,0.44,0.20,43.9467789,-78.8999513,17TPJ 68521 68105,0.0,0.0,178.0,3,10,--.--,--.--,--.--,0.0,0.0,0.0,0,0,0,--.--,--.--,--.--
2020-08-02 16:25:00.305,2.2,-27.9,180,1.5,-0.3,-0.1,4.0,4.2,0.0,49.9,100.0,332.2,00:01:43,304.3,180,125,--.--,67,0001:22:27,--.--,--.--,--.--,--.--,--.--,--.--,--.--,0,--.--,--.--,--.--,--.--,--.--,--.--,--.--,0,16:25:00,2020-08-02,--.--,--.--,--.--,--.--,--.--,--.--,--.--,0.00,--.--,--.--,true,true,true,true,true,true,false,false,true,true,false,false,0.04,0.02,0.00,0.01,0.00,0.00,0.44,0.20,43.9467437,-78.8999499,17TPJ 68521 68101,0.0,0.0,179.0,3,10,--.--,--.--,--.--,0.0,0.0,0.0,0,0,0,--.--,--.--,--.--
2020-08-02 16:25:01.305,2.5,-28.6,180,-1.2,-1.2,0.3,4.1,5.9,0.0,49.9,100.0,336.2,00:01:44,301.9,180,124,--.--,67,0001:22:27,--.--,--.--,--.--,--.--,--.--,--.--,--.--,0,--.--,--.--,--.--,--.--,--.--,--.--,--.--,0,16:25:01,2020-08-02,--.--,--.--,--.--,--.--,--.--,--.--,--.--,0.00,--.--,--.--,true,true,true,true,true,true,false,false,true,true,false,false,0.02,0.02,0.01,0.01,0.00,0.00,0.43,0.20,43.9467062,-78.8999492,17TPJ 68521 68097,0.0,0.0,180.0,3,10,--.--,--.--,--.--,0.0,0.0,0.0,0,0,0,--.--,--.--,--.--
2020-08-02 16:25:02.304,2.7,-29.1,180,-0.5,-1.3,-0.2,4.3,3.5,0.0,49.9,100.0,340.4,00:01:45,299.5,180,124,--.--,67,0001:22:27,--.--,--.--,--.--,--.--,--.--,--.--,--.--,0,--.--,--.--,--.--,--.--,--.--,--.--,--.--,0,16:25:02,2020-08-02,--.--,--.--,--.--,--.--,--.--,--.--,--.--,0.00,--.--,--.--,true,true,true,true,true,true,false,false,true,true,false,false,0.02,0.01,0.00,0.01,0.00,0.00,0.43,0.20,43.9466677,-78.8999493,17TPJ 68521 68093,0.0,0.0,180.2,3,10,--.--,--.--,--.--,0.0,0.0,0.0,0,0,0,--.--,--.--,--.--
2020-08-02 16:25:03.304,2.6,-29.5,180,-0.7,0.0,0.3,4.4,1.7,0.0,50.0,100.0,344.8,00:01:46,297.1,180,123,--.--,68,0001:22:27,--.--,--.--,--.--,--.--,--.--,--.--,--.--,0,--.--,--.--,--.--,--.--,--.--,--.--,--.--,0,16:25:03,2020-08-02,--.--,--.--,--.--,--.--,--.--,--.--,--.--,0.00,--.--,--.--,true,true,true,true,true,true,false,false,true,true,false,false,0.02,0.01,0.01,0.01,0.00,0.00,0.43,0.20,43.9466277,-78.8999494,17TPJ 68521 68088,0.0,0.0,180.2,3,10,--.--,--.--,--.--,0.0,0.0,0.0,0,0,0,--.--,--.--,--.--
2020-08-02 16:25:04.304,2.6,-29.8,180,0.4,-0.2,-0.3,4.5,2.3,0.0,50.0,100.0,349.2,00:01:47,294.7,180,122,--.--,68,0001:22:27,--.--,--.--,--.--,--.--,--.--,--.--,--.--,0,--.--,--.--,--.--,--.--,--.--,--.--,--.--,0,16:25:04,2020-08-02,--.--,--.--,--.--,--.--,--.--,--.--,--.--,0.00,--.--,--.--,true,true,true,true,true,true,false,false,true,true,false,false,0.00,0.01,0.00,0.00,0.00,0.00,0.42,0.20,43.9465868,-78.8999495,17TPJ 68522 68084,0.0,0.0,180.4,3,10,--.--,--.--,--.--,0.0,0.0,0.0,0,0,0,--.--,--.--,--.--
2020-08-02 16:25:05.306,2.7,-30.1,180,0.7,0.2,0.1,4.6,4.9,0.0,50.0,100.0,353.8,00:01:48,292.3,180,122,--.--,68,0001:22:27,--.--,--.--,--.--,--.--,--.--,--.--,--.--,0,--.--,--.--,--.--,--.--,--.--,--.--,--.--,0,16:25:05,2020-08-02,--.--,--.--,--.--,--.--,--.--,--.--,--.--,0.00,--.--,--.--,true,true,true,true,true,true,false,false,true,true,false,false,0.03,0.00,0.01,0.01,0.00,0.00,0.42,0.20,43.9465453,-78.8999496,17TPJ 68522 68079,0.0,0.0,179.8,3,10,--.--,--.--,--.--,0.0,0.0,0.0,0,0,0,--.--,--.--,--.--
2020-08-02 16:25:06.307,2.7,-30.5,180,-0.7,0.2,-0.3,4.7,3.9,-0.0,50.0,100.0,358.3,00:01:49,289.9,180,121,--.--,68,0001:22:27,--.--,--.--,--.--,--.--,--.--,--.--,--.--,0,--.--,--.--,--.--,--.--,--.--,--.--,--.--,0,16:25:06,2020-08-02,--.--,--.--,--.--,--.--,--.--,--.--,--.--,0.00,--.--,--.--,true,true,true,true,true,true,false,false,true,true,false,false,0.01,0.00,0.00,0.00,0.00,0.00,0.42,0.20,43.9465030,-78.8999496,17TPJ 68522 68074,0.0,0.0,180.0,3,10,--.--,--.--,--.--,0.0,0.0,0.0,0,0,0,--.--,--.--,--.--
2020-08-02 16:25:07.305,2.8,-30.7,180,-0.1,-0.3,-0.2,4.7,2.9,-0.0,50.0,100.1,363.0,00:01:50,287.5,180,120,--.--,69,0001:22:27,--.--,--.--,--.--,--.--,--.--,--.--,--.--,0,--.--,--.--,--.--,--.--,--.--,--.--,--.--,0,16:25:07,2020-08-02,--.--,--.--,--.--,--.--,--.--,--.--,--.--,0.00,--.--,--.--,true,true,true,true,true,true,false,false,true,true,false,false,0.01,0.01,0.00,0.01,0.00,0.00,0.42,0.20,43.9464596,-78.8999497,17TPJ 68522 68070,0.0,0.0,180.1,3,10,--.--,--.--,--.--,0.0,0.0,0.0,0,0,0,--.--,--.--,--.--
2020-08-02 16:25:08.304,2.9,-30.8,180,0.6,-1.2,0.4,4.8,5.1,-0.0,50.0,100.0,367.7,00:01:51,285.2,180,119,--.--,69,0001:22:27,--.--,--.--,--.--,--.--,--.--,--.--,--.--,0,--.--,--.--,--.--,--.--,--.--,--.--,--.--,0,16:25:08,2020-08-02,--.--,--.--,--.--,--.--,--.--,--.--,--.--,0.00,--.--,--.--,true,true,true,true,true,true,false,false,true,true,false,false,0.01,0.01,0.00,0.01,0.00,0.00,0.44,0.20,43.9464160,-78.8999499,17TPJ 68522 68065,0.0,0.0,180.3,3,10,--.--,--.--,--.--,0.0,0.0,0.0,0,0,0,--.--,--.--,--.--
2020-08-02 16:25:09.304,2.9,-31.0,180,0.8,-0.1,-0.1,4.8,4.4,0.0,50.0,100.0,372.5,00:01:52,282.9,180,118,--.--,69,0001:22:27,--.--,--.--,--.--,--.--,--.--,--.--,--.--,0,--.--,--.--,--.--,--.--,--.--,--.--,--.--,0,16:25:09,2020-08-02,--.--,--.--,--.--,--.--,--.--,--.--,--.--,0.00,--.--,--.--,true,true,true,true,true,true,false,false,true,true,false,false,0.03,0.01,0.00,0.01,0.00,0.00,0.44,0.20,43.9463808,-78.8999502,17TPJ 68522 68061,0.0,0.0,180.2,3,10,--.--,--.--,--.--,0.0,0.0,0.0,0,0,0,--.--,--.--,--.--
2020-08-02 16:25:10.305,2.8,-31.2,180,0.1,-1.9,0.1,4.8,5.3,0.0,50.0,100.0,377.4,00:01:53,280.7,180,117,--.--,69,0001:22:27,--.--,--.--,--.--,--.--,--.--,--.--,--.--,0,--.--,--.--,--.--,--.--,--.--,--.--,--.--,0,16:25:10,2020-08-02,--.--,--.--,--.--,--.--,--.--,--.--,--.--,0.00,--.--,--.--,true,true,true,true,true,true,false,false,true,true,false,false,0.01,0.01,0.01,0.02,0.00,0.00,0.43,0.20,43.9463363,-78.8999505,17TPJ 68522 68056,0.0,0.0,180.3,3,10,--.--,--.--,--.--,0.0,0.0,0.0,0,0,0,--.--,--.--,--.--
