Timestamp,roll,pitch,heading,rollRate,pitchRate,yawRate,groundSpeed,airSpeed,climbRate,altitudeRelative,altitudeAMSL,flightDistance,flightTime,distanceToHome,headingToNextWP,headingToHome,distanceToGCS,throttlePct,hobbs,battery.voltage,battery.percentRemaining,battery.mahConsumed,battery.current,battery.temperature,battery.instantPower,battery.timeRemaining,battery.chargeState,battery2.voltage,battery2.percentRemaining,battery2.mahConsumed,battery2.current,battery2.temperature,battery2.instantPower,battery2.timeRemaining,battery2.chargeState,clock.currentTime,clock.currentDate,distanceSensor.rotationNone,distanceSensor.rotationYaw45,distanceSensor.rotationYaw90,distanceSensor.rotationYaw135,distanceSensor.rotationYaw180,distanceSensor.rotationYaw225,distanceSensor.rotationYaw270,distanceSensor.rotationYaw315,distanceSensor.rotationPitch90,distanceSensor.rotationPitch270,estimatorStatus.goodAttitudeEsimate,estimatorStatus.goodHorizVelEstimate,estimatorStatus.goodVertVelEstimate,estimatorStatus.goodHorizPosRelEstimate,estimatorStatus.goodHorizPosAbsEstimate,estimatorStatus.goodVertPosAbsEstimate,estimatorStatus.goodVertPosAGLEstimate,estimatorStatus.goodConstPosModeEstimate,estimatorStatus.goodPredHorizPosRelEstimate,estimatorStatus.goodPredHorizPosAbsEstimate,estimatorStatus.gpsGlitch,estimatorStatus.accelError,estimatorStatus.velRatio,estimatorStatus.horizPosRatio,estimatorStatus.vertPosRatio,estimatorStatus.magRatio,estimatorStatus.haglRatio,estimatorStatus.tasRatio,estimatorStatus.horizPosAccuracy,estimatorStatus.vertPosAccuracy,gps.lat,gps.lon,gps.mgrs,gps.hdop,gps.vdop,gps.courseOverGround,gps.lock,gps.count,temperature.temperature1,temperature.temperature2,temperature.temperature3,vibration.xAxis,vibration.yAxis,vibration.zAxis,vibration.clipCount1,vibration.clipCount2,vibration.clipCount3,wind.direction,wind.speed,wind.verticalSpeed
2020-08-02 14:48:34.304,-1.1,-1.0,98,-0.1,0.1,-0.2,0.0,2.2,-0.0,0.0,-0.0,0.0,00:00:00,0.0,308,--.--,--.--,27,0000:36:01,12.14,100,0,-1.00,--.--,-12.14,--.--,0,--.--,--.--,--.--,--.--,--.--,--.--,--.--,0,14:48:34,2020-08-02,--.--,--.--,--.--,--.--,--.--,--.--,--.--,0.00,--.--,--.--,true,true,true,true,true,true,true,false,true,true,false,false,0.00,0.01,0.00,0.01,0.00,0.00,0.44,0.21,43.9451549,-78.8968510,17TPJ 68774 67931,0.0,0.0,152.1,3,10,--.--,--.--,--.--,0.0,0.0,0.0,0,0,0,--.--,--.--,--.--
2020-08-02 14:48:35.317,-0.1,-0.7,98,-2.2,-1.2,-0.1,0.1,-1.9,0.5,0.2,0.2,0.0,00:00:01,0.1,308,--.--,--.--,61,0000:36:01,12.13,99,0,-1.00,--.--,-12.13,--.--,0,--.--,--.--,--.--,--.--,--.--,--.--,--.--,0,14:48:35,2020-08-02,--.--,--.--,--.--,--.--,--.--,--.--,--.--,0.00,--.--,--.--,true,true,true,true,true,true,true,false,true,true,false,false,0.01,0.00,0.00,0.01,0.00,0.00,0.43,0.21,43.9451549,-78.8968510,17TPJ 68774 67931,0.0,0.0,358.4,3,10,--.--,--.--,--.--,0.0,0.0,0.0,0,0,0,--.--,--.--,--.--
2020-08-02 14:48:36.305,-2.5,-1.9,97,-1.0,0.5,-1.1,0.1,2.0,1.4,1.2,1.2,0.0,00:00:02,0.2,308,--.--,--.--,59,0000:36:01,12.10,98,0,-1.00,--.--,-12.10,--.--,0,--.--,--.--,--.--,--.--,--.--,--.--,--.--,0,14:48:36,2020-08-02,--.--,--.--,--.--,--.--,--.--,--.--,--.--,0.00,--.--,--.--,true,true,true,true,true,true,true,false,true,true,false,false,0.01,0.00,0.00,0.01,0.00,0.00,0.43,0.21,43.9451542,-78.8968514,17TPJ 68774 67931,0.0,0.0,196.4,3,10,--.--,--.--,--.--,0.0,0.0,0.0,0,0,0,--.--,--.--,--.--
2020-08-02 14:48:37.306,-1.6,-1.5,97,2.1,0.8,-1.1,0.1,2.2,1.0,2.5,2.4,0.0,00:00:03,0.1,308,--.--,--.--,57,0000:36:01,12.08,96,0,-1.00,--.--,-12.08,--.--,0,--.--,--.--,--.--,--.--,--.--,--.--,--.--,0,14:48:37,2020-08-02,--.--,--.--,--.--,--.--,--.--,--.--,--.--,0.00,--.--,--.--,true,true,true,true,true,true,true,false,true,true,false,false,0.04,0.01,0.00,0.01,0.00,0.00,0.43,0.21,43.9451534,-78.8968516,17TPJ 68774 67931,0.0,0.0,40.9,3,10,--.--,--.--,--.--,0.0,0.0,0.0,0,0,0,--.--,--.--,--.--
2020-08-02 14:48:38.304,-0.2,-1.3,96,0.3,-0.1,0.0,0.1,-3.3,1.0,3.4,3.4,0.0,00:00:04,0.0,308,--.--,--.--,58,0000:36:01,12.05,94,0,-1.00,--.--,-12.05,--.--,0,--.--,--.--,--.--,--.--,--.--,--.--,--.--,0,14:48:38,2020-08-02,--.--,--.--,--.--,--.--,--.--,--.--,--.--,0.00,--.--,--.--,true,true,true,true,true,true,true,false,true,true,false,false,0.04,0.01,0.00,0.01,0.00,0.00,0.43,0.21,43.9451545,-78.8968512,17TPJ 68774 67931,0.0,0.0,6.7,3,10,--.--,--.--,--.--,0.0,0.0,0.0,0,0,0,--.--,--.--,--.--
2020-08-02 14:48:39.305,-0.9,-1.4,96,-1.3,0.4,0.2,0.1,3.6,1.0,4.3,4.3,0.0,00:00:05,0.0,308,--.--,--.--,58,0000:36:01,12.02,93,0,-1.00,--.--,-12.02,--.--,0,--.--,--.--,--.--,--.--,--.--,--.--,--.--,0,14:48:39,2020-08-02,--.--,--.--,--.--,--.--,--.--,--.--,--.--,0.00,--.--,--.--,true,true,true,true,true,true,false,false,true,true,false,false,0.01,0.00,0.02,0.01,0.00,0.00,0.42,0.20,43.9451550,-78.8968508,17TPJ 68774 67931,0.0,0.0,126.9,3,10,--.--,--.--,--.--,0.0,0.0,0.0,0,0,0,--.--,--.--,--.--
2020-08-02 14:48:40.306,-1.5,-1.3,96,-0.1,0.0,-0.4,0.0,1.9,0.9,5.0,5.0,0.0,00:00:06,0.1,308,--.--,--.--,58,0000:36:01,12.02,93,0,-1.00,--.--,-12.02,--.--,0,--.--,--.--,--.--,--.--,--.--,--.--,--.--,0,14:48:40,2020-08-02,--.--,--.--,--.--,--.--,--.--,--.--,--.--,0.00,--.--,--.--,true,true,true,true,true,true,false,false,true,true,false,false,0.01,0.00,0.02,0.01,0.00,0.00,0.42,0.20,43.9451550,-78.8968508,17TPJ 68774 67931,0.0,0.0,126.9,3,10,--.--,--.--,--.--,0.0,0.0,0.0,0,0,0,--.--,--.--,--.--
2020-08-02 14:48:41.307,-1.1,-1.2,96,0.9,0.1,-0.2,0.0,-2.9,0.9,5.9,5.9,0.0,00:00:07,0.1,308,--.--,--.--,57,0000:36:01,11.99,91,0,-1.00,--.--,-11.99,--.--,0,--.--,--.--,--.--,--.--,--.--,--.--,--.--,0,14:48:41,2020-08-02,--.--,--.--,--.--,--.--,--.--,--.--,--.--,0.00,--.--,--.--,true,true,true,true,true,true,false,false,true,true,false,false,0.01,0.00,0.02,0.01,0.00,0.00,0.42,0.20,43.9451547,-78.8968504,17TPJ 68774 67931,0.0,0.0,96.6,3,10,--.--,--.--,--.--,0.0,0.0,0.0,0,0,0,--.--,--.--,--.--
2020-08-02 14:48:42.305,-0.8,-1.3,96,0.2,-0.2,-0.3,0.0,-3.5,1.0,6.6,6.6,0.0,00:00:08,0.1,308,--.--,--.--,58,0000:36:01,11.97,89,0,-1.00,--.--,-11.97,--.--,0,--.--,--.--,--.--,--.--,--.--,--.--,--.--,0,14:48:42,2020-08-02,--.--,--.--,--.--,--.--,--.--,--.--,--.--,0.00,--.--,--.--,true,true,true,true,true,true,false,false,true,true,false,false,0.02,0.00,0.01,0.00,0.00,0.00,0.43,0.20,43.9451550,-78.8968501,17TPJ 68774 67931,0.0,0.0,22.0,3,10,--.--,--.--,--.--,0.0,0.0,0.0,0,0,0,--.--,--.--,--.--
2020-08-02 14:48:43.307,-1.0,-1.3,96,-0.6,0.3,0.3,0.0,2.2,1.0,7.6,7.6,0.0,00:00:09,0.1,308,--.--,--.--,58,0000:36:01,11.94,88,0,-1.00,--.--,-11.94,--.--,0,--.--,--.--,--.--,--.--,--.--,--.--,--.--,0,14:48:43,2020-08-02,--.--,--.--,--.--,--.--,--.--,--.--,--.--,0.00,--.--,--.--,true,true,true,true,true,true,false,false,true,true,false,false,0.02,0.00,0.01,0.00,0.00,0.00,0.43,0.20,43.9451550,-78.8968501,17TPJ 68774 67931,0.0,0.0,140.8,3,10,--.--,--.--,--.--,0.0,0.0,0.0,0,0,0,--.--,--.--,--.--
2020-08-02 14:48:44.304,-1.3,-1.3,96,0.1,-0.0,-0.3,0.0,2.1,1.0,8.4,8.4,0.0,00:00:10,0.1,308,--.--,--.--,58,0000:36:01,11.91,86,0,-1.00,--.--,-11.91,--.--,0,--.--,--.--,--.--,--.--,--.--,--.--,--.--,0,14:48:44,2020-08-02,--.--,--.--,--.--,--.--,--.--,--.--,--.--,0.00,--.--,--.--,true,true,true,true,true,true,false,false,true,true,false,false,0.01,0.00,0.01,0.00,0.00,0.00,0.45,0.21,43.9451547,-78.8968499,17TPJ 68774 67931,0.0,0.0,168.4,3,10,--.--,--.--,--.--,0.0,0.0,0.0,0,0,0,--.--,--.--,--.--
2020-08-02 14:48:45.305,-1.1,-1.3,96,0.2,0.2,-0.3,0.0,-2.2,1.0,9.2,9.2,0.0,00:00:11,0.1,308,--.--,--.--,57,0000:36:01,11.88,84,0,-1.00,--.--,-11.88,--.--,0,--.--,--.--,--.--,--.--,--.--,--.--,--.--,0,14:48:45,2020-08-02,--.--,--.--,--.--,--.--,--.--,--.--,--.--,0.00,--.--,--.--,true,true,true,true,true,true,false,false,true,true,false,false,0.01,0.00,0.01,0.00,0.00,0.00,0.45,0.21,43.9451545,-78.8968499,17TPJ 68774 67931,0.0,0.0,137.6,3,10,--.--,--.--,--.--,0.0,0.0,0.0,0,0,0,--.--,--.--,--.--
2020-08-02 14:48:46.304,-1.1,-1.4,96,0.1,0.1,0.0,0.0,-1.9,1.0,10.1,10.1,0.0,00:00:12,0.1,308,--.--,--.--,58,0000:36:01,11.88,84,0,-1.00,--.--,-11.88,--.--,0,--.--,--.--,--.--,--.--,--.--,--.--,--.--,0,14:48:46,2020-08-02,--.--,--.--,--.--,--.--,--.--,--.--,--.--,0.00,--.--,--.--,true,true,true,true,true,true,false,false,true,true,false,false,0.01,0.00,0.01,0.00,0.00,0.00,0.45,0.21,43.9451545,-78.8968499,17TPJ 68774 67931,0.0,0.0,137.6,3,10,--.--,--.--,--.--,0.0,0.0,0.0,0,0,0,--.--,--.--,--.--
2020-08-02 14:48:47.304,-0.9,-1.7,96,-0.1,-0.9,-0.2,0.1,2.7,3.0,12.2,12.2,0.0,00:00:13,0.1,308,--.--,--.--,57,0000:36:01,11.86,83,0,-1.00,--.--,-11.86,--.--,0,--.--,--.--,--.--,--.--,--.--,--.--,--.--,0,14:48:47,2020-08-02,--.--,--.--,--.--,--.--,--.--,--.--,--.--,0.00,--.--,--.--,true,true,true,true,true,true,false,false,true,true,false,false,0.01,0.00,0.01,0.00,0.00,0.00,0.43,0.21,43.9451543,-78.8968498,17TPJ 68774 67931,0.0,0.0,161.7,3,10,--.--,--.--,--.--,0.0,0.0,0.0,0,0,0,--.--,--.--,--.--
2020-08-02 14:48:48.305,-1.3,-2.5,96,-0.4,-0.1,0.1,0.0,4.0,3.0,14.9,14.8,0.0,00:00:14,0.1,308,--.--,--.--,60,0000:36:01,11.83,81,0,-1.00,--.--,-11.83,--.--,0,--.--,--.--,--.--,--.--,--.--,--.--,--.--,0,14:48:48,2020-08-02,--.--,--.--,--.--,--.--,--.--,--.--,--.--,0.00,--.--,--.--,true,true,true,true,true,true,false,false,true,true,false,false,0.01,0.00,0.01,0.00,0.00,0.00,0.43,0.21,43.9451541,-78.8968499,17TPJ 68774 67931,0.0,0.0,230.6,3,10,--.--,--.--,--.--,0.0,0.0,0.0,0,0,0,--.--,--.--,--.--
2020-08-02 14:48:49.304,-1.5,-2.5,96,-0.1,0.2,-0.3,0.0,2.5,2.8,17.3,17.2,0.0,00:00:15,0.2,308,--.--,--.--,60,0000:36:01,11.80,79,0,-1.00,--.--,-11.80,--.--,0,--.--,--.--,--.--,--.--,--.--,--.--,--.--,0,14:48:49,2020-08-02,--.--,--.--,--.--,--.--,--.--,--.--,--.--,0.00,--.--,--.--,true,true,true,true,true,true,false,false,true,true,false,false,0.01,0.01,0.01,0.01,0.00,0.00,0.42,0.21,43.9451535,-78.8968506,17TPJ 68774 67931,0.0,0.0,198.8,3,10,--.--,--.--,--.--,0.0,0.0,0.0,0,0,0,--.--,--.--,--.--
2020-08-02 14:48:50.304,-1.0,-2.4,95,0.7,-0.1,-0.2,0.1,1.4,2.9,20.1,20.1,0.0,00:00:16,0.2,308,--.--,--.--,61,0000:36:01,11.77,78,0,-1.00,--.--,-11.77,--.--,0,--.--,--.--,--.--,--.--,--.--,--.--,--.--,0,14:48:50,2020-08-02,--.--,--.--,--.--,--.--,--.--,--.--,--.--,0.00,--.--,--.--,true,true,true,true,true,true,false,false,true,true,false,false,0.01,0.01,0.01,0.01,0.00,0.00,0.42,0.21,43.9451533,-78.8968503,17TPJ 68774 67931,0.0,0.0,51.8,3,10,--.--,--.--,--.--,0.0,0.0,0.0,0,0,0,--.--,--.--,--.--
2020-08-02 14:48:51.304,-0.9,-2.6,95,-0.2,0.0,0.0,0.0,2.7,3.0,22.8,22.8,0.0,00:00:17,0.2,308,--.--,--.--,61,0000:36:01,11.75,76,0,-1.00,--.--,-11.75,--.--,0,--.--,--.--,--.--,--.--,--.--,--.--,--.--,0,14:48:51,2020-08-02,--.--,--.--,--.--,--.--,--.--,--.--,--.--,0.00,--.--,--.--,true,true,true,true,true,true,false,false,true,true,false,false,0.04,0.01,0.01,0.02,0.00,0.00,0.45,0.21,43.9451536,-78.8968497,17TPJ 68774 67931,0.0,0.0,52.2,3,10,--.--,--.--,--.--,0.0,0.0,0.0,0,0,0,--.--,--.--,--.--
2020-08-02 14:48:52.304,-1.2,-2.6,95,-0.2,0.3,0.1,0.0,-2.8,3.0,25.4,25.3,0.0,00:00:18,0.2,308,--.--,--.--,61,0000:36:01,11.72,74,0,-1.00,--.--,-11.72,--.--,0,--.--,--.--,--.--,--.--,--.--,--.--,--.--,0,14:48:52,2020-08-02,--.--,--.--,--.--,--.--,--.--,--.--,--.--,0.00,--.--,--.--,true,true,true,true,true,true,false,false,true,true,false,false,0.04,0.01,0.01,0.02,0.00,0.00,0.45,0.21,43.9451537,-78.8968493,17TPJ 68774 67931,0.0,0.0,97.9,3,10,--.--,--.--,--.--,0.0,0.0,0.0,0,0,0,--.--,--.--,--.--
2020-08-02 14:48:53.304,-1.2,-2.6,95,0.3,-0.1,-0.1,0.0,3.4,2.9,27.9,27.9,0.0,00:00:19,0.2,308,--.--,--.--,60,0000:36:01,11.69,73,0,-1.00,--.--,-11.69,--.--,0,--.--,--.--,--.--,--.--,--.--,--.--,--.--,0,14:48:53,2020-08-02,--.--,--.--,--.--,--.--,--.--,--.--,--.--,0.00,--.--,--.--,true,true,true,true,true,true,false,false,true,true,false,false,0.03,0.01,0.00,0.01,0.00,0.00,0.44,0.21,43.9451537,-78.8968487,17TPJ 68774 67931,0.0,0.0,71.2,3,10,--.--,--.--,--.--,0.0,0.0,0.0,0,0,0,--.--,--.--,--.--
2020-08-02 14:48:54.305,-1.1,-2.5,95,-0.3,0.0,-0.2,0.0,3.1,2.9,30.9,30.9,0.0,00:00:20,0.2,308,--.--,--.--,60,0000:36:01,11.66,71,0,-1.00,--.--,-11.66,--.--,0,--.--,--.--,--.--,--.--,--.--,--.--,--.--,0,14:48:54,2020-08-02,--.--,--.--,--.--,--.--,--.--,--.--,--.--,0.00,--.--,--.--,true,true,true,true,true,true,false,false,true,true,false,false,0.03,0.01,0.00,0.01,0.00,0.00,0.44,0.21,43.9451540,-78.8968482,17TPJ 68775 67931,0.0,0.0,66.1,3,10,--.--,--.--,--.--,0.0,0.0,0.0,0,0,0,--.--,--.--,--.--
2020-08-02 14:48:55.309,-1.1,-2.5,95,-0.2,-0.2,-0.2,0.0,1.7,2.9,33.3,33.3,0.0,00:00:21,0.2,308,--.--,--.--,60,0000:36:01,11.64,69,0,-1.00,--.--,-11.64,--.--,0,--.--,--.--,--.--,--.--,--.--,--.--,--.--,0,14:48:55,2020-08-02,--.--,--.--,--.--,--.--,--.--,--.--,--.--,0.00,--.--,--.--,true,true,true,true,true,true,false,false,true,true,false,false,0.04,0.01,0.00,0.02,0.00,0.00,0.43,0.21,43.9451544,-78.8968478,17TPJ 68775 67931,0.0,0.0,19.6,3,10,--.--,--.--,--.--,0.0,0.0,0.0,0,0,0,--.--,--.--,--.--
2020-08-02 14:48:56.309,-1.1,-2.4,95,-0.1,0.0,-0.2,0.0,4.1,2.9,35.7,35.7,0.0,00:00:22,0.2,308,--.--,--.--,60,0000:36:01,11.64,69,0,-1.00,--.--,-11.64,--.--,0,--.--,--.--,--.--,--.--,--.--,--.--,--.--,0,14:48:56,2020-08-02,--.--,--.--,--.--,--.--,--.--,--.--,--.--,0.00,--.--,--.--,true,true,true,true,true,true,false,false,true,true,false,false,0.04,0.01,0.00,0.02,0.00,0.00,0.43,0.21,43.9451544,-78.8968478,17TPJ 68775 67931,0.0,0.0,19.6,3,10,--.--,--.--,--.--,0.0,0.0,0.0,0,0,0,--.--,--.--,--.--
2020-08-02 14:48:57.310,-1.1,-2.4,95,0.0,0.4,-0.4,0.0,4.2,2.9,38.4,38.4,0.0,00:00:23,0.2,308,--.--,--.--,61,0000:36:01,11.61,68,0,-1.00,--.--,-11.61,--.--,0,--.--,--.--,--.--,--.--,--.--,--.--,--.--,0,14:48:57,2020-08-02,--.--,--.--,--.--,--.--,--.--,--.--,--.--,0.00,--.--,--.--,true,true,true,true,true,true,false,false,true,true,false,false,0.04,0.01,0.00,0.02,0.00,0.00,0.43,0.21,43.9451546,-78.8968476,17TPJ 68775 67931,0.0,0.0,21.8,3,10,--.--,--.--,--.--,0.0,0.0,0.0,0,0,0,--.--,--.--,--.--
2020-08-02 14:48:58.307,-1.0,-2.5,95,0.3,0.4,0.0,0.0,-2.7,2.9,41.1,41.0,0.0,00:00:24,0.2,308,--.--,--.--,56,0000:36:01,11.58,66,0,-1.00,--.--,-11.58,--.--,0,--.--,--.--,--.--,--.--,--.--,--.--,--.--,0,14:48:58,2020-08-02,--.--,--.--,--.--,--.--,--.--,--.--,--.--,0.00,--.--,--.--,true,true,true,true,true,true,false,false,true,true,false,false,0.02,0.01,0.00,0.02,0.00,0.00,0.43,0.21,43.9451551,-78.8968477,17TPJ 68775 67931,0.0,0.0,345.5,3,10,--.--,--.--,--.--,0.0,0.0,0.0,0,0,0,--.--,--.--,--.--
2020-08-02 14:48:59.305,-0.9,-2.2,95,-0.1,0.3,-0.2,0.0,3.7,2.0,43.3,43.3,0.0,00:00:25,0.2,308,--.--,--.--,57,0000:36:01,11.55,64,0,-1.00,--.--,-11.55,--.--,0,--.--,--.--,--.--,--.--,--.--,--.--,--.--,0,14:48:59,2020-08-02,--.--,--.--,--.--,--.--,--.--,--.--,--.--,0.00,--.--,--.--,true,true,true,true,true,true,false,false,true,true,false,false,0.02,0.01,0.00,0.02,0.00,0.00,0.43,0.21,43.9451555,-78.8968478,17TPJ 68775 67931,0.0,0.0,332.4,3,10,--.--,--.--,--.--,0.0,0.0,0.0,0,0,0,--.--,--.--,--.--
2020-08-02 14:49:00.308,-0.9,-1.8,95,-0.3,0.2,-0.1,0.0,3.4,1.5,44.8,44.7,0.0,00:00:26,0.3,308,--.--,--.--,57,0000:36:01,11.53,63,0,-1.00,--.--,-11.53,--.--,0,--.--,--.--,--.--,--.--,--.--,--.--,--.--,0,14:49:00,2020-08-02,--.--,--.--,--.--,--.--,--.--,--.--,--.--,0.00,--.--,--.--,true,true,true,true,true,true,false,false,true,true,false,false,0.02,0.01,0.01,0.01,0.00,0.00,0.42,0.20,43.9451560,-78.8968476,17TPJ 68775 67931,0.0,0.0,21.6,3,10,--.--,--.--,--.--,0.0,0.0,0.0,0,0,0,--.--,--.--,--.--
2020-08-02 14:49:01.305,-1.0,-1.5,95,0.2,-0.2,-0.1,0.0,-3.6,1.1,46.0,46.0,0.0,00:00:27,0.3,308,--.--,--.--,57,0000:36:01,11.50,61,0,-1.00,--.--,-11.50,--.--,0,--.--,--.--,--.--,--.--,--.--,--.--,--.--,0,14:49:01,2020-08-02,--.--,--.--,--.--,--.--,--.--,--.--,--.--,0.00,--.--,--.--,true,true,true,true,true,true,false,false,true,true,false,false,0.02,0.01,0.01,0.01,0.00,0.00,0.42,0.20,43.9451563,-78.8968472,17TPJ 68775 67931,0.0,0.0,59.8,3,10,--.--,--.--,--.--,0.0,0.0,0.0,0,0,0,--.--,--.--,--.--
2020-08-02 14:49:02.304,-1.0,-1.5,95,0.1,-0.0,-0.1,0.0,-2.8,0.9,46.7,46.7,0.0,00:00:28,0.3,308,--.--,--.--,57,0000:36:01,11.47,59,0,-1.00,--.--,-11.47,--.--,0,--.--,--.--,--.--,--.--,--.--,--.--,--.--,0,14:49:02,2020-08-02,--.--,--.--,--.--,--.--,--.--,--.--,--.--,0.00,--.--,--.--,true,true,true,true,true,true,false,false,true,true,false,false,0.02,0.01,0.00,0.02,0.00,0.00,0.45,0.21,43.9451564,-78.8968471,17TPJ 68775 67931,0.0,0.0,358.4,3,10,--.--,--.--,--.--,0.0,0.0,0.0,0,0,0,--.--,--.--,--.--
2020-08-02 14:49:03.304,-1.0,-1.4,95,0.2,0.2,0.1,0.0,-2.2,0.7,47.3,47.3,0.0,00:00:29,0.3,308,--.--,--.--,57,0000:36:01,11.47,59,0,-1.00,--.--,-11.47,--.--,0,--.--,--.--,--.--,--.--,--.--,--.--,--.--,0,14:49:03,2020-08-02,--.--,--.--,--.--,--.--,--.--,--.--,--.--,0.00,--.--,--.--,true,true,true,true,true,true,false,false,true,true,false,false,0.02,0.01,0.00,0.02,0.00,0.00,0.45,0.21,43.9451564,-78.8968471,17TPJ 68775 67931,0.0,0.0,358.4,3,10,--.--,--.--,--.--,0.0,0.0,0.0,0,0,0,--.--,--.--,--.--
2020-08-02 14:49:04.304,-1.0,-1.3,95,0.0,0.1,0.0,0.0,-0.4,0.6,47.8,47.8,0.0,00:00:30,0.3,308,--.--,--.--,57,0000:36:01,11.44,58,0,-1.00,--.--,-11.44,--.--,0,--.--,--.--,--.--,--.--,--.--,--.--,--.--,0,14:49:04,2020-08-02,--.--,--.--,--.--,--.--,--.--,--.--,--.--,0.00,--.--,--.--,true,true,true,true,true,true,false,false,true,true,false,false,0.02,0.01,0.00,0.02,0.00,0.00,0.45,0.21,43.9451567,-78.8968471,17TPJ 68775 67931,0.0,0.0,308.8,3,10,--.--,--.--,--.--,0.0,0.0,0.0,0,0,0,--.--,--.--,--.--
2020-08-02 14:49:05.304,-0.9,-1.3,95,0.4,-0.3,-0.1,0.0,-2.9,0.4,48.3,48.3,0.0,00:00:31,0.3,308,--.--,--.--,57,0000:36:01,11.42,56,0,-1.00,--.--,-11.42,--.--,0,--.--,--.--,--.--,--.--,--.--,--.--,--.--,0,14:49:05,2020-08-02,--.--,--.--,--.--,--.--,--.--,--.--,--.--,0.00,--.--,--.--,true,true,true,true,true,true,false,false,true,true,false,false,0.05,0.01,0.01,0.02,0.00,0.00,0.44,0.21,43.9451570,-78.8968470,17TPJ 68775 67931,0.0,0.0,307.4,3,10,--.--,--.--,--.--,0.0,0.0,0.0,0,0,0,--.--,--.--,--.--
2020-08-02 14:49:06.312,-0.8,-1.4,95,0.1,-0.3,-0.1,0.0,-1.5,0.4,48.6,48.6,0.0,00:00:32,0.3,308,--.--,--.--,57,0000:36:01,11.39,54,0,-1.00,--.--,-11.39,--.--,0,--.--,--.--,--.--,--.--,--.--,--.--,--.--,0,14:49:06,2020-08-02,--.--,--.--,--.--,--.--,--.--,--.--,--.--,0.00,--.--,--.--,true,true,true,true,true,true,false,false,true,true,false,false,0.05,0.01,0.01,0.02,0.00,0.00,0.44,0.21,43.9451572,-78.8968473,17TPJ 68775 67931,0.0,0.0,309.0,3,10,--.--,--.--,--.--,0.0,0.0,0.0,0,0,0,--.--,--.--,--.--
2020-08-02 14:49:07.313,-0.9,-1.3,95,-0.3,0.3,-0.1,0.1,3.2,0.3,48.9,48.9,0.0,00:00:33,0.3,308,--.--,--.--,57,0000:36:01,11.36,53,0,-1.00,--.--,-11.36,--.--,0,--.--,--.--,--.--,--.--,--.--,--.--,--.--,0,14:49:07,2020-08-02,--.--,--.--,--.--,--.--,--.--,--.--,--.--,0.00,--.--,--.--,true,true,true,true,true,true,false,false,true,true,false,false,0.02,0.01,0.00,0.02,0.00,0.00,0.43,0.21,43.9451573,-78.8968478,17TPJ 68775 67931,0.0,0.0,222.2,3,10,--.--,--.--,--.--,0.0,0.0,0.0,0,0,0,--.--,--.--,--.--
2020-08-02 14:49:08.309,-1.0,-1.3,96,-0.1,-0.2,-0.1,0.0,1.3,0.2,49.1,49.1,0.0,00:00:34,0.3,308,--.--,--.--,56,0000:36:01,11.36,53,0,-1.00,--.--,-11.36,--.--,0,--.--,--.--,--.--,--.--,--.--,--.--,--.--,0,14:49:08,2020-08-02,--.--,--.--,--.--,--.--,--.--,--.--,--.--,0.00,--.--,--.--,true,true,true,true,true,true,false,false,true,true,false,false,0.02,0.01,0.00,0.02,0.00,0.00,0.43,0.21,43.9451573,-78.8968478,17TPJ 68775 67931,0.0,0.0,222.2,3,10,--.--,--.--,--.--,0.0,0.0,0.0,0,0,0,--.--,--.--,--.--
2020-08-02 14:49:09.304,-1.6,-0.6,96,-6.0,8.3,-0.2,0.0,-4.2,0.1,49.3,49.3,0.0,00:00:35,0.3,308,--.--,--.--,56,0000:36:01,11.34,51,0,-1.00,--.--,-11.34,--.--,0,--.--,--.--,--.--,--.--,--.--,--.--,--.--,0,14:49:09,2020-08-02,--.--,--.--,--.--,--.--,--.--,--.--,--.--,0.00,--.--,--.--,true,true,true,true,true,true,false,false,true,true,false,false,0.02,0.01,0.00,0.02,0.00,0.00,0.43,0.21,43.9451572,-78.8968482,17TPJ 68775 67931,0.0,0.0,273.1,3,10,--.--,--.--,--.--,0.0,0.0,0.0,0,0,0,--.--,--.--,--.--
2020-08-02 14:49:10.307,-15.4,18.6,88,-12.6,25.3,-12.8,1.0,-2.4,0.1,49.5,49.5,0.0,00:00:36,0.4,308,--.--,--.--,59,0000:36:01,11.33,51,0,-1.00,--.--,-11.33,--.--,0,--.--,--.--,--.--,--.--,--.--,--.--,--.--,0,14:49:10,2020-08-02,--.--,--.--,--.--,--.--,--.--,--.--,--.--,0.00,--.--,--.--,true,true,true,true,true,true,false,false,true,true,false,false,0.04,0.01,0.00,0.01,0.00,0.00,0.43,0.21,43.9451571,-78.8968489,17TPJ 68774 67931,0.0,0.0,249.2,3,10,--.--,--.--,--.--,0.0,0.0,0.0,0,0,0,--.--,--.--,--.--
2020-08-02 14:49:11.304,-25.5,29.8,71,25.5,-2.9,-10.8,3.8,1.2,0.1,49.6,49.6,2.1,00:00:37,2.2,308,137,--.--,60,0000:36:01,11.33,51,0,-1.00,--.--,-11.33,--.--,0,--.--,--.--,--.--,--.--,--.--,--.--,--.--,0,14:49:11,2020-08-02,--.--,--.--,--.--,--.--,--.--,--.--,--.--,0.00,--.--,--.--,true,true,true,true,true,true,false,false,true,true,false,false,0.04,0.01,0.00,0.01,0.00,0.00,0.43,0.21,43.9451593,-78.8968542,17TPJ 68774 67931,0.0,0.0,300.2,3,10,--.--,--.--,--.--,0.0,0.0,0.0,0,0,0,--.--,--.--,--.--
2020-08-02 14:49:12.304,8.4,23.7,70,67.0,64.5,26.8,5.2,-1.9,-0.2,49.8,49.8,6.1,00:00:38,6.8,308,134,--.--,49,0000:36:01,11.33,51,0,-1.00,--.--,-11.33,--.--,0,--.--,--.--,--.--,--.--,--.--,--.--,--.--,0,14:49:12,2020-08-02,--.--,--.--,--.--,--.--,--.--,--.--,--.--,0.00,--.--,--.--,true,true,true,true,true,true,false,false,true,true,false,false,0.25,0.03,0.01,0.02,0.00,0.00,0.42,0.21,43.9451797,-78.8968900,17TPJ 68771 67934,0.0,0.0,309.5,3,10,--.--,--.--,--.--,0.0,0.0,0.0,0,0,0,--.--,--.--,--.--
2020-08-02 14:49:13.304,-0.3,-3.3,72,-18.2,-8.2,-2.9,3.8,-3.3,-0.1,49.8,49.8,10.3,00:00:39,10.8,308,127,--.--,60,0000:36:01,11.32,51,0,-1.00,--.--,-11.32,--.--,0,--.--,--.--,--.--,--.--,--.--,--.--,--.--,0,14:49:13,2020-08-02,--.--,--.--,--.--,--.--,--.--,--.--,--.--,0.00,--.--,--.--,true,true,true,true,true,true,false,false,true,true,false,false,0.25,0.03,0.01,0.02,0.00,0.00,0.42,0.21,43.9452080,-78.8969456,17TPJ 68767 67937,0.0,0.0,295.1,3,10,--.--,--.--,--.--,0.0,0.0,0.0,0,0,0,--.--,--.--,--.--
2020-08-02 14:49:14.304,1.0,-22.2,66,3.5,-57.5,-10.3,3.1,3.5,-0.2,49.8,49.8,12.4,00:00:40,13.7,308,125,--.--,63,0000:36:01,11.32,51,0,-1.00,--.--,-11.32,--.--,0,--.--,--.--,--.--,--.--,--.--,--.--,--.--,0,14:49:14,2020-08-02,--.--,--.--,--.--,--.--,--.--,--.--,--.--,0.00,--.--,--.--,true,true,true,true,true,true,false,false,true,true,false,false,0.25,0.03,0.01,0.02,0.00,0.00,0.42,0.21,43.9452080,-78.8969456,17TPJ 68767 67937,0.0,0.0,295.1,3,10,--.--,--.--,--.--,0.0,0.0,0.0,0,0,0,--.--,--.--,--.--
2020-08-02 14:49:15.304,12.3,-82.2,55,0.5,-57.1,2.3,3.4,4.3,0.2,49.8,49.7,16.4,00:00:41,15.0,308,134,--.--,32,0000:36:01,11.32,51,0,-1.00,--.--,-11.32,--.--,0,--.--,--.--,--.--,--.--,--.--,--.--,--.--,0,14:49:15,2020-08-02,--.--,--.--,--.--,--.--,--.--,--.--,--.--,0.00,--.--,--.--,true,true,true,true,true,true,false,false,true,true,false,false,0.07,0.08,0.01,0.02,0.00,0.00,0.42,0.21,43.9452227,-78.8969892,17TPJ 68763 67938,0.0,0.0,303.3,3,10,--.--,--.--,--.--,0.0,0.0,0.0,0,0,0,--.--,--.--,--.--
2020-08-02 14:49:16.304,-100.3,-56.6,153,-13.8,23.3,35.7,12.5,12.9,-1.7,48.9,48.9,24.9,00:00:42,16.1,308,166,--.--,70,0000:36:01,11.32,51,0,-1.00,--.--,-11.32,--.--,0,--.--,--.--,--.--,--.--,--.--,--.--,--.--,0,14:49:16,2020-08-02,--.--,--.--,--.--,--.--,--.--,--.--,--.--,0.00,--.--,--.--,true,true,true,true,true,true,false,false,true,true,false,false,0.07,0.08,0.01,0.02,0.00,0.00,0.42,0.21,43.9452475,-78.8969967,17TPJ 68762 67941,0.0,0.0,28.7,3,10,--.--,--.--,--.--,0.0,0.0,0.0,0,0,0,--.--,--.--,--.--
2020-08-02 14:49:17.305,-83.3,-53.4,107,-23.6,19.0,0.3,15.7,15.7,0.7,48.3,48.3,37.9,00:00:43,26.4,308,188,--.--,61,0000:36:01,11.32,51,0,-1.00,--.--,-11.32,--.--,0,--.--,--.--,--.--,--.--,--.--,--.--,--.--,0,14:49:17,2020-08-02,--.--,--.--,--.--,--.--,--.--,--.--,--.--,0.00,--.--,--.--,true,true,true,true,true,true,false,false,true,true,false,false,0.32,0.07,0.00,0.01,0.00,0.00,0.41,0.20,43.9452975,-78.8969129,17TPJ 68769 67947,0.0,0.0,52.4,3,10,--.--,--.--,--.--,0.0,0.0,0.0,0,0,0,--.--,--.--,--.--
2020-08-02 14:49:18.304,-86.9,-51.4,85,-18.5,12.1,0.4,17.7,17.3,0.5,49.0,49.0,54.9,00:00:44,43.4,308,187,--.--,59,0000:36:01,11.32,51,0,-1.00,--.--,-11.32,--.--,0,--.--,--.--,--.--,--.--,--.--,--.--,--.--,0,14:49:18,2020-08-02,--.--,--.--,--.--,--.--,--.--,--.--,--.--,0.00,--.--,--.--,true,true,true,true,true,true,false,false,true,true,false,false,0.32,0.07,0.00,0.01,0.00,0.00,0.41,0.20,43.9454069,-78.8968016,17TPJ 68778 67959,0.0,0.0,18.4,3,10,--.--,--.--,--.--,0.0,0.0,0.0,0,0,0,--.--,--.--,--.--
2020-08-02 14:49:19.304,-87.9,-51.9,68,-16.6,13.3,-3.2,18.5,18.1,0.2,49.1,49.1,70.2,00:00:45,57.1,308,182,--.--,57,0000:36:01,11.32,51,0,-1.00,--.--,-11.32,--.--,0,--.--,--.--,--.--,--.--,--.--,--.--,--.--,0,14:49:19,2020-08-02,--.--,--.--,--.--,--.--,--.--,--.--,--.--,0.00,--.--,--.--,true,true,true,true,true,true,false,false,true,true,false,false,0.16,0.10,0.00,0.02,0.00,0.00,0.44,0.20,43.9455588,-78.8967848,17TPJ 68778 67976,0.0,0.0,352.3,3,10,--.--,--.--,--.--,0.0,0.0,0.0,0,0,0,--.--,--.--,--.--
2020-08-02 14:49:20.304,-85.8,-55.9,47,-17.4,14.0,-7.5,18.6,18.1,0.3,49.3,49.3,85.8,00:00:46,71.5,308,174,--.--,57,0000:36:01,11.32,51,0,-1.00,--.--,-11.32,--.--,0,--.--,--.--,--.--,--.--,--.--,--.--,--.--,0,14:49:20,2020-08-02,--.--,--.--,--.--,--.--,--.--,--.--,--.--,0.00,--.--,--.--,true,true,true,true,true,true,false,false,true,true,false,false,0.16,0.10,0.00,0.02,0.00,0.00,0.44,0.20,43.9457146,-78.8968574,17TPJ 68772 67993,0.0,0.0,330.5,3,10,--.--,--.--,--.--,0.0,0.0,0.0,0,0,0,--.--,--.--,--.--
2020-08-02 14:49:21.304,-83.8,-65.4,25,-15.7,5.0,-13.3,18.3,17.7,0.7,49.9,49.9,103.2,00:00:47,84.7,308,165,--.--,56,0000:36:01,11.32,51,0,-1.00,--.--,-11.32,--.--,0,--.--,--.--,--.--,--.--,--.--,--.--,--.--,0,14:49:21,2020-08-02,--.--,--.--,--.--,--.--,--.--,--.--,--.--,0.00,--.--,--.--,true,true,true,true,true,true,false,false,true,true,false,false,0.21,0.08,0.01,0.04,0.00,0.00,0.43,0.21,43.9458408,-78.8970053,17TPJ 68760 68007,0.0,0.0,308.8,3,10,--.--,--.--,--.--,0.0,0.0,0.0,0,0,0,--.--,--.--,--.--
2020-08-02 14:49:22.305,-84.5,-77.1,13,-9.1,0.6,-13.1,18.4,17.5,0.3,50.3,50.3,120.6,00:00:48,95.2,308,157,--.--,51,0000:36:01,11.32,51,0,-1.00,--.--,-11.32,--.--,0,--.--,--.--,--.--,--.--,--.--,--.--,--.--,0,14:49:22,2020-08-02,--.--,--.--,--.--,--.--,--.--,--.--,--.--,0.00,--.--,--.--,true,true,true,true,true,true,false,false,true,true,false,false,0.21,0.08,0.01,0.04,0.00,0.00,0.43,0.21,43.9459219,-78.8972037,17TPJ 68744 68015,0.0,0.0,291.4,3,10,--.--,--.--,--.--,0.0,0.0,0.0,0,0,0,--.--,--.--,--.--
2020-08-02 14:49:23.304,-72.5,-87.1,356,-3.4,0.2,-9.3,18.6,18.2,0.1,50.5,50.5,135.9,00:00:49,105.6,308,150,--.--,47,0000:36:01,11.32,51,0,-1.00,--.--,-11.32,--.--,0,--.--,--.--,--.--,--.--,--.--,--.--,--.--,0,14:49:23,2020-08-02,--.--,--.--,--.--,--.--,--.--,--.--,--.--,0.00,--.--,--.--,true,true,true,true,true,true,false,false,true,true,false,false,0.10,0.02,0.00,0.04,0.00,0.00,0.43,0.21,43.9459609,-78.8973801,17TPJ 68730 68019,0.0,0.0,283.5,3,10,--.--,--.--,--.--,0.0,0.0,0.0,0,0,0,--.--,--.--,--.--
2020-08-02 14:49:24.307,72.5,-86.1,209,0.3,0.7,-5.2,18.5,18.5,0.2,50.6,50.6,153.4,00:00:50,116.8,308,144,--.--,46,0000:36:01,11.32,51,0,-1.00,--.--,-11.32,--.--,0,--.--,--.--,--.--,--.--,--.--,--.--,--.--,0,14:49:24,2020-08-02,--.--,--.--,--.--,--.--,--.--,--.--,--.--,0.00,--.--,--.--,true,true,true,true,true,true,false,false,true,true,false,false,0.10,0.02,0.00,0.04,0.00,0.00,0.43,0.21,43.9459937,-78.8976099,17TPJ 68711 68023,0.0,0.0,279.8,3,10,--.--,--.--,--.--,0.0,0.0,0.0,0,0,0,--.--,--.--,--.--
2020-08-02 14:49:25.304,78.7,-83.3,204,1.7,0.1,-3.4,18.3,18.5,0.2,50.8,50.8,166.2,00:00:51,126.1,308,140,--.--,45,0000:36:01,11.32,51,0,-1.00,--.--,-11.32,--.--,0,--.--,--.--,--.--,--.--,--.--,--.--,--.--,0,14:49:25,2020-08-02,--.--,--.--,--.--,--.--,--.--,--.--,--.--,0.00,--.--,--.--,true,true,true,true,true,true,false,false,true,true,false,false,0.10,0.02,0.00,0.04,0.00,0.00,0.43,0.21,43.9459937,-78.8976099,17TPJ 68711 68023,0.0,0.0,279.8,3,10,--.--,--.--,--.--,0.0,0.0,0.0,0,0,0,--.--,--.--,--.--
2020-08-02 14:49:26.311,79.6,-81.1,205,2.7,0.7,-2.0,18.1,18.5,0.3,50.9,50.9,179.2,00:00:52,137.6,308,136,--.--,44,0000:36:01,11.32,51,0,-1.00,--.--,-11.32,--.--,0,--.--,--.--,--.--,--.--,--.--,--.--,--.--,0,14:49:26,2020-08-02,--.--,--.--,--.--,--.--,--.--,--.--,--.--,0.00,--.--,--.--,true,true,true,true,true,true,false,false,true,true,false,false,0.10,0.11,0.00,0.05,0.00,0.00,0.42,0.21,43.9460228,-78.8978418,17TPJ 68692 68025,0.0,0.0,280.3,3,10,--.--,--.--,--.--,0.0,0.0,0.0,0,0,0,--.--,--.--,--.--
2020-08-02 14:49:27.304,81.2,-79.8,206,3.0,0.5,-1.2,17.9,18.6,0.3,51.2,51.1,194.5,00:00:53,150.1,308,133,--.--,44,0000:36:01,11.32,51,0,-1.00,--.--,-11.32,--.--,0,--.--,--.--,--.--,--.--,--.--,--.--,--.--,0,14:49:27,2020-08-02,--.--,--.--,--.--,--.--,--.--,--.--,--.--,0.00,--.--,--.--,true,true,true,true,true,true,false,false,true,true,false,false,0.10,0.11,0.00,0.05,0.00,0.00,0.42,0.21,43.9460564,-78.8980744,17TPJ 68674 68029,0.0,0.0,282.6,3,10,--.--,--.--,--.--,0.0,0.0,0.0,0,0,0,--.--,--.--,--.--
2020-08-02 14:49:28.304,82.0,-79.0,208,3.6,0.7,-0.5,17.7,18.5,0.3,51.4,51.4,209.9,00:00:54,163.2,308,131,--.--,43,0000:36:01,11.32,51,0,-1.00,--.--,-11.32,--.--,0,--.--,--.--,--.--,--.--,--.--,--.--,--.--,0,14:49:28,2020-08-02,--.--,--.--,--.--,--.--,--.--,--.--,--.--,0.00,--.--,--.--,true,true,true,true,true,true,false,false,true,true,false,false,0.17,0.11,0.01,0.05,0.00,0.00,0.41,0.20,43.9460975,-78.8983008,17TPJ 68655 68033,0.0,0.0,285.8,3,10,--.--,--.--,--.--,0.0,0.0,0.0,0,0,0,--.--,--.--,--.--
2020-08-02 14:49:29.304,83.7,-78.6,209,3.7,1.0,-0.2,17.5,18.3,0.2,51.6,51.6,227.3,00:00:55,179.5,308,129,--.--,43,0000:36:01,11.32,51,0,-1.00,--.--,-11.32,--.--,0,--.--,--.--,--.--,--.--,--.--,--.--,--.--,0,14:49:29,2020-08-02,--.--,--.--,--.--,--.--,--.--,--.--,--.--,0.00,--.--,--.--,true,true,true,true,true,true,false,false,true,true,false,false,0.17,0.11,0.01,0.05,0.00,0.00,0.41,0.20,43.9461479,-78.8985221,17TPJ 68637 68038,0.0,0.0,289.4,3,10,--.--,--.--,--.--,0.0,0.0,0.0,0,0,0,--.--,--.--,--.--
2020-08-02 14:49:30.304,84.4,-78.9,211,3.6,0.3,-0.2,17.2,17.4,0.2,51.8,51.8,242.2,00:00:56,193.8,308,128,--.--,43,0000:36:01,11.32,51,0,-1.00,--.--,-11.32,--.--,0,--.--,--.--,--.--,--.--,--.--,--.--,--.--,0,14:49:30,2020-08-02,--.--,--.--,--.--,--.--,--.--,--.--,--.--,0.00,--.--,--.--,true,true,true,true,true,true,false,false,true,true,false,false,0.15,0.09,0.00,0.06,0.00,0.00,0.44,0.21,43.9461944,-78.8986917,17TPJ 68624 68043,0.0,0.0,292.4,3,10,--.--,--.--,--.--,0.0,0.0,0.0,0,0,0,--.--,--.--,--.--
2020-08-02 14:49:31.304,85.4,-79.4,214,3.2,1.0,0.7,17.0,17.4,0.1,52.0,52.0,258.7,00:00:57,210.6,308,127,--.--,43,0000:36:01,11.32,51,0,-1.00,--.--,-11.32,--.--,0,--.--,--.--,--.--,--.--,--.--,--.--,--.--,0,14:49:31,2020-08-02,--.--,--.--,--.--,--.--,--.--,--.--,--.--,0.00,--.--,--.--,true,true,true,true,true,true,false,false,true,true,false,false,0.15,0.09,0.00,0.06,0.00,0.00,0.44,0.21,43.9462608,-78.8988971,17TPJ 68607 68050,0.0,0.0,295.9,3,10,--.--,--.--,--.--,0.0,0.0,0.0,0,0,0,--.--,--.--,--.--
2020-08-02 14:49:32.304,86.1,-80.2,216,3.1,0.7,0.9,16.8,16.8,0.1,52.1,52.1,273.2,00:00:58,224.7,308,126,--.--,43,0000:36:01,11.32,51,0,-1.00,--.--,-11.32,--.--,0,--.--,--.--,--.--,--.--,--.--,--.--,--.--,0,14:49:32,2020-08-02,--.--,--.--,--.--,--.--,--.--,--.--,--.--,0.00,--.--,--.--,true,true,true,true,true,true,false,false,true,true,false,false,0.15,0.09,0.00,0.06,0.00,0.00,0.44,0.21,43.9462608,-78.8988971,17TPJ 68607 68050,0.0,0.0,295.9,3,10,--.--,--.--,--.--,0.0,0.0,0.0,0,0,0,--.--,--.--,--.--
2020-08-02 14:49:33.322,87.5,-82.1,217,2.2,-0.3,14.5,16.6,16.5,0.1,52.1,52.1,287.5,00:00:59,239.9,213,126,--.--,43,0000:36:01,11.32,51,0,-1.00,--.--,-11.32,--.--,0,--.--,--.--,--.--,--.--,--.--,--.--,--.--,0,14:49:33,2020-08-02,--.--,--.--,--.--,--.--,--.--,--.--,--.--,0.00,--.--,--.--,true,true,true,true,true,true,false,false,true,true,false,false,0.12,0.09,0.00,0.05,0.00,0.00,0.43,0.21,43.9463341,-78.8990917,17TPJ 68591 68057,0.0,0.0,299.3,3,10,--.--,--.--,--.--,0.0,0.0,0.0,0,0,0,--.--,--.--,--.--
2020-08-02 14:49:34.305,-80.3,-50.8,6,-22.8,27.7,-19.2,16.7,16.3,1.0,52.3,52.2,306.0,00:01:00,256.5,213,125,--.--,47,0000:36:01,11.32,51,0,-1.00,--.--,-11.32,--.--,0,--.--,--.--,--.--,--.--,--.--,--.--,--.--,0,14:49:34,2020-08-02,--.--,--.--,--.--,--.--,--.--,--.--,--.--,0.00,--.--,--.--,true,true,true,true,true,true,false,false,true,true,false,false,0.12,0.09,0.00,0.05,0.00,0.00,0.43,0.21,43.9464145,-78.8992781,17TPJ 68576 68066,0.0,0.0,302.5,3,10,--.--,--.--,--.--,0.0,0.0,0.0,0,0,0,--.--,--.--,--.--
2020-08-02 14:49:35.310,-87.0,-54.2,350,-18.0,11.3,-1.4,17.1,16.9,0.2,53.0,53.0,322.3,00:01:01,270.8,213,123,--.--,45,0000:36:01,11.32,51,0,-1.00,--.--,-11.32,--.--,0,--.--,--.--,--.--,--.--,--.--,--.--,--.--,0,14:49:35,2020-08-02,--.--,--.--,--.--,--.--,--.--,--.--,--.--,0.00,--.--,--.--,true,true,true,true,true,true,false,false,true,true,false,false,0.08,0.13,0.00,0.02,0.00,0.00,0.42,0.21,43.9464891,-78.8994631,17TPJ 68561 68074,0.0,0.0,286.3,3,10,--.--,--.--,--.--,0.0,0.0,0.0,0,0,0,--.--,--.--,--.--
2020-08-02 14:49:36.304,-88.0,-56.0,331,-17.3,12.2,-3.5,17.0,16.7,-0.1,52.9,52.9,335.8,00:01:02,280.2,213,121,--.--,44,0000:36:01,11.32,51,0,-1.00,--.--,-11.32,--.--,0,--.--,--.--,--.--,--.--,--.--,--.--,--.--,0,14:49:36,2020-08-02,--.--,--.--,--.--,--.--,--.--,--.--,--.--,0.00,--.--,--.--,true,true,true,true,true,true,false,false,true,true,false,false,0.08,0.13,0.00,0.02,0.00,0.00,0.42,0.21,43.9464948,-78.8996732,17TPJ 68544 68074,0.0,0.0,260.8,3,10,--.--,--.--,--.--,0.0,0.0,0.0,0,0,0,--.--,--.--,--.--
2020-08-02 14:49:37.323,-86.9,-59.9,309,-18.2,11.1,-5.7,16.5,16.2,-0.1,52.6,52.6,354.2,00:01:03,286.6,177,118,--.--,45,0000:36:01,11.32,51,0,-1.00,--.--,-11.32,--.--,0,--.--,--.--,--.--,--.--,--.--,--.--,--.--,0,14:49:37,2020-08-02,--.--,--.--,--.--,--.--,--.--,--.--,--.--,0.00,--.--,--.--,true,true,true,true,true,true,false,false,true,true,false,false,0.10,0.07,0.01,0.05,0.00,0.00,0.42,0.20,43.9464432,-78.8998732,17TPJ 68528 68068,0.0,0.0,239.4,3,10,--.--,--.--,--.--,0.0,0.0,0.0,0,0,0,--.--,--.--,--.--
2020-08-02 14:49:38.324,-87.0,-65.4,291,-16.2,6.2,-6.7,16.3,16.3,-0.1,52.4,52.4,368.1,00:01:04,288.0,168,115,--.--,44,0000:36:01,11.32,51,0,-1.00,--.--,-11.32,--.--,0,--.--,--.--,--.--,--.--,--.--,--.--,--.--,0,14:49:38,2020-08-02,--.--,--.--,--.--,--.--,--.--,--.--,--.--,0.00,--.--,--.--,true,true,true,true,true,true,false,false,true,true,false,false,0.10,0.07,0.01,0.05,0.00,0.00,0.42,0.20,43.9463426,-78.9000334,17TPJ 68516 68056,0.0,0.0,217.9,3,10,--.--,--.--,--.--,0.0,0.0,0.0,0,0,0,--.--,--.--,--.--
2020-08-02 14:49:39.311,-88.6,-70.3,279,-12.0,4.5,-5.7,16.6,16.9,-0.3,52.1,52.1,382.6,00:01:05,286.1,168,112,--.--,42,0000:36:01,11.32,51,0,-1.00,--.--,-11.32,--.--,0,--.--,--.--,--.--,--.--,--.--,--.--,--.--,0,14:49:39,2020-08-02,--.--,--.--,--.--,--.--,--.--,--.--,--.--,0.00,--.--,--.--,true,true,true,true,true,true,false,false,true,true,false,false,0.09,0.09,0.01,0.06,0.00,0.00,0.41,0.20,43.9462092,-78.9001323,17TPJ 68508 68041,0.0,0.0,198.7,3,10,--.--,--.--,--.--,0.0,0.0,0.0,0,0,0,--.--,--.--,--.--
2020-08-02 14:49:40.305,-89.3,-73.9,272,-9.0,2.3,-5.4,16.9,16.9,-0.4,51.8,51.8,395.0,00:01:06,282.8,168,110,--.--,40,0000:36:01,11.32,51,0,-1.00,--.--,-11.32,--.--,0,--.--,--.--,--.--,--.--,--.--,--.--,--.--,0,14:49:40,2020-08-02,--.--,--.--,--.--,--.--,--.--,--.--,--.--,0.00,--.--,--.--,true,true,true,true,true,true,false,false,true,true,false,false,0.09,0.09,0.01,0.06,0.00,0.00,0.41,0.20,43.9460586,-78.9001743,17TPJ 68505 68025,0.0,0.0,184.6,3,10,--.--,--.--,--.--,0.0,0.0,0.0,0,0,0,--.--,--.--,--.--
2020-08-02 14:49:41.309,-87.9,-78.0,264,-5.9,1.7,-4.5,17.2,16.8,-0.3,51.5,51.5,411.7,00:01:07,277.2,168,107,--.--,38,0000:36:01,11.32,51,0,-1.00,--.--,-11.32,--.--,0,--.--,--.--,--.--,--.--,--.--,--.--,--.--,0,14:49:41,2020-08-02,--.--,--.--,--.--,--.--,--.--,--.--,--.--,0.00,--.--,--.--,true,true,true,true,true,true,false,false,true,true,false,false,0.03,0.17,0.00,0.05,0.00,0.00,0.43,0.21,43.9459327,-78.9001764,17TPJ 68505 68011,0.0,0.0,177.0,3,10,--.--,--.--,--.--,0.0,0.0,0.0,0,0,0,--.--,--.--,--.--
2020-08-02 14:49:42.304,-86.9,-80.3,259,-4.0,1.0,-3.1,17.1,16.9,-0.2,51.3,51.3,423.9,00:01:08,272.7,168,104,--.--,38,0000:36:01,11.32,51,0,-1.00,--.--,-11.32,--.--,0,--.--,--.--,--.--,--.--,--.--,--.--,--.--,0,14:49:42,2020-08-02,--.--,--.--,--.--,--.--,--.--,--.--,--.--,0.00,--.--,--.--,true,true,true,true,true,true,false,false,true,true,false,false,0.03,0.17,0.00,0.05,0.00,0.00,0.43,0.21,43.9459327,-78.9001764,17TPJ 68505 68011,0.0,0.0,177.0,3,10,--.--,--.--,--.--,0.0,0.0,0.0,0,0,0,--.--,--.--,--.--
2020-08-02 14:49:43.308,-84.0,-82.9,253,-2.5,0.9,-2.1,17.0,17.2,-0.1,51.2,51.2,440.4,00:01:09,265.7,168,101,--.--,38,0000:36:01,11.32,51,0,-1.00,--.--,-11.32,--.--,0,--.--,--.--,--.--,--.--,--.--,--.--,--.--,0,14:49:43,2020-08-02,--.--,--.--,--.--,--.--,--.--,--.--,--.--,0.00,--.--,--.--,true,true,true,true,true,true,false,false,true,true,false,false,0.03,0.17,0.00,0.05,0.00,0.00,0.43,0.21,43.9457739,-78.9001522,17TPJ 68508 67993,0.0,0.0,170.8,3,10,--.--,--.--,--.--,0.0,0.0,0.0,0,0,0,--.--,--.--,--.--
2020-08-02 14:49:44.304,-81.4,-84.7,249,-1.7,0.5,-1.5,17.0,16.7,-0.1,51.1,51.1,454.9,00:01:10,259.5,168,98,--.--,38,0000:36:01,11.32,51,0,-1.00,--.--,-11.32,--.--,0,--.--,--.--,--.--,--.--,--.--,--.--,--.--,0,14:49:44,2020-08-02,--.--,--.--,--.--,--.--,--.--,--.--,--.--,0.00,--.--,--.--,true,true,true,true,true,true,false,false,true,true,false,false,0.09,0.05,0.01,0.02,0.00,0.00,0.43,0.21,43.9456181,-78.9001095,17TPJ 68512 67976,0.0,0.0,167.1,3,10,--.--,--.--,--.--,0.0,0.0,0.0,0,0,0,--.--,--.--,--.--
2020-08-02 14:49:45.313,-77.9,-86.0,244,-1.0,-0.1,-0.7,16.9,16.8,-0.0,51.1,51.1,473.6,00:01:11,253.1,168,94,--.--,38,0000:36:01,11.32,51,0,-1.00,--.--,-11.32,--.--,0,--.--,--.--,--.--,--.--,--.--,--.--,--.--,0,14:49:45,2020-08-02,--.--,--.--,--.--,--.--,--.--,--.--,--.--,0.00,--.--,--.--,true,true,true,true,true,true,false,false,true,true,false,false,0.09,0.05,0.01,0.02,0.00,0.00,0.43,0.21,43.9454635,-78.9000561,17TPJ 68516 67959,0.0,0.0,165.1,3,10,--.--,--.--,--.--,0.0,0.0,0.0,0,0,0,--.--,--.--,--.--
2020-08-02 14:49:46.312,-74.3,-86.9,240,-0.4,0.4,-0.6,16.8,17.0,-0.0,51.1,51.1,490.2,00:01:12,247.5,168,91,--.--,38,0000:36:01,11.32,51,0,-1.00,--.--,-11.32,--.--,0,--.--,--.--,--.--,--.--,--.--,--.--,--.--,0,14:49:46,2020-08-02,--.--,--.--,--.--,--.--,--.--,--.--,--.--,0.00,--.--,--.--,true,true,true,true,true,true,false,false,true,true,false,false,0.06,0.16,0.00,0.02,0.00,0.00,0.42,0.21,43.9453117,-78.8999975,17TPJ 68521 67942,0.0,0.0,163.9,3,10,--.--,--.--,--.--,0.0,0.0,0.0,0,0,0,--.--,--.--,--.--
2020-08-02 14:49:47.304,-71.0,-87.5,237,-0.2,-0.1,-0.8,16.7,16.6,0.0,51.1,51.1,502.8,00:01:13,243.9,168,88,--.--,38,0000:36:01,11.32,51,0,-1.00,--.--,-11.32,--.--,0,--.--,--.--,--.--,--.--,--.--,--.--,--.--,0,14:49:47,2020-08-02,--.--,--.--,--.--,--.--,--.--,--.--,--.--,0.00,--.--,--.--,true,true,true,true,true,true,false,false,true,true,false,false,0.06,0.16,0.00,0.02,0.00,0.00,0.42,0.21,43.9451624,-78.8999368,17TPJ 68527 67926,0.0,0.0,163.5,3,10,--.--,--.--,--.--,0.0,0.0,0.0,0,0,0,--.--,--.--,--.--
2020-08-02 14:49:48.304,-89.1,-51.6,249,-16.1,20.4,34.8,16.7,16.8,-0.4,51.0,51.0,516.6,00:01:14,240.8,7,84,--.--,44,0000:36:01,11.32,51,0,-1.00,--.--,-11.32,--.--,0,--.--,--.--,--.--,--.--,--.--,--.--,--.--,0,14:49:48,2020-08-02,--.--,--.--,--.--,--.--,--.--,--.--,--.--,0.00,--.--,--.--,true,true,true,true,true,true,false,false,true,true,false,false,0.08,0.04,0.01,0.01,0.00,0.00,0.42,0.20,43.9450134,-78.8998751,17TPJ 68532 67909,0.0,0.0,163.3,3,10,--.--,--.--,--.--,0.0,0.0,0.0,0,0,0,--.--,--.--,--.--
2020-08-02 14:49:49.314,-83.2,-52.8,215,-22.0,18.2,-1.8,16.2,16.1,0.5,51.2,51.2,532.9,00:01:15,233.2,7,81,--.--,44,0000:36:01,11.32,51,0,-1.00,--.--,-11.32,--.--,0,--.--,--.--,--.--,--.--,--.--,--.--,--.--,0,14:49:49,2020-08-02,--.--,--.--,--.--,--.--,--.--,--.--,--.--,0.00,--.--,--.--,true,true,true,true,true,true,false,false,true,true,false,false,0.08,0.04,0.01,0.01,0.00,0.00,0.42,0.20,43.9448733,-78.8997919,17TPJ 68539 67894,0.0,0.0,143.6,3,10,--.--,--.--,--.--,0.0,0.0,0.0,0,0,0,--.--,--.--,--.--
2020-08-02 14:49:50.314,-83.8,-53.1,187,-22.2,13.0,-1.5,16.0,15.7,0.4,51.7,51.7,548.5,00:01:16,220.7,7,79,--.--,44,0000:36:01,11.32,51,0,-1.00,--.--,-11.32,--.--,0,--.--,--.--,--.--,--.--,--.--,--.--,--.--,0,14:49:50,2020-08-02,--.--,--.--,--.--,--.--,--.--,--.--,--.--,0.00,--.--,--.--,true,true,true,true,true,true,false,false,true,true,false,false,0.04,0.09,0.00,0.01,0.00,0.00,0.41,0.20,43.9447784,-78.8996354,17TPJ 68552 67883,0.0,0.0,115.1,3,10,--.--,--.--,--.--,0.0,0.0,0.0,0,0,0,--.--,--.--,--.--
2020-08-02 14:49:51.304,-87.0,-52.8,172,-19.9,12.3,0.2,16.3,16.1,-0.1,51.8,51.8,562.0,00:01:17,209.2,7,78,--.--,42,0000:36:01,11.32,51,0,-1.00,--.--,-11.32,--.--,0,--.--,--.--,--.--,--.--,--.--,--.--,--.--,0,14:49:51,2020-08-02,--.--,--.--,--.--,--.--,--.--,--.--,--.--,0.00,--.--,--.--,true,true,true,true,true,true,false,false,true,true,false,false,0.04,0.09,0.00,0.01,0.00,0.00,0.41,0.20,43.9447497,-78.8994391,17TPJ 68568 67881,0.0,0.0,88.4,3,10,--.--,--.--,--.--,0.0,0.0,0.0,0,0,0,--.--,--.--,--.--
2020-08-02 14:49:52.304,-88.3,-52.3,157,-18.9,14.6,-0.1,16.4,16.1,-0.4,51.5,51.5,573.6,00:01:18,198.1,7,78,--.--,42,0000:36:01,11.32,51,0,-1.00,--.--,-11.32,--.--,0,--.--,--.--,--.--,--.--,--.--,--.--,--.--,0,14:49:52,2020-08-02,--.--,--.--,--.--,--.--,--.--,--.--,--.--,0.00,--.--,--.--,true,true,true,true,true,true,false,false,true,true,false,false,0.04,0.09,0.00,0.01,0.00,0.00,0.41,0.20,43.9447497,-78.8994391,17TPJ 68568 67881,0.0,0.0,88.4,3,10,--.--,--.--,--.--,0.0,0.0,0.0,0,0,0,--.--,--.--,--.--
2020-08-02 14:49:53.304,-86.4,-53.2,132,-21.2,18.2,-3.0,16.2,16.5,-0.3,51.1,51.1,587.3,00:01:19,184.2,7,79,--.--,44,0000:36:01,11.32,51,0,-1.00,--.--,-11.32,--.--,0,--.--,--.--,--.--,--.--,--.--,--.--,--.--,0,14:49:53,2020-08-02,--.--,--.--,--.--,--.--,--.--,--.--,--.--,0.00,--.--,--.--,true,true,true,true,true,true,false,false,true,true,false,false,0.08,0.10,0.00,0.02,0.00,0.00,0.41,0.20,43.9447844,-78.8992378,17TPJ 68584 67885,0.0,0.0,64.3,3,10,--.--,--.--,--.--,0.0,0.0,0.0,0,0,0,--.--,--.--,--.--
2020-08-02 14:49:54.304,-85.5,-56.9,106,-20.5,11.1,-5.9,15.9,15.5,-0.0,51.1,51.1,602.5,00:01:20,174.3,7,83,--.--,44,0000:36:01,11.32,51,0,-1.00,--.--,-11.32,--.--,0,--.--,--.--,--.--,--.--,--.--,--.--,--.--,0,14:49:54,2020-08-02,--.--,--.--,--.--,--.--,--.--,--.--,--.--,0.00,--.--,--.--,true,true,true,true,true,true,false,false,true,true,false,false,0.08,0.10,0.00,0.02,0.00,0.00,0.41,0.20,43.9448532,-78.8991042,17TPJ 68594 67893,0.0,0.0,43.6,3,10,--.--,--.--,--.--,0.0,0.0,0.0,0,0,0,--.--,--.--,--.--
2020-08-02 14:49:55.304,-89.1,-62.6,91,-15.2,5.3,-7.1,16.2,16.2,-0.4,51.0,50.9,615.9,00:01:21,170.6,7,87,--.--,41,0000:36:01,11.32,51,0,-1.00,--.--,-11.32,--.--,0,--.--,--.--,--.--,--.--,--.--,--.--,--.--,0,14:49:55,2020-08-02,--.--,--.--,--.--,--.--,--.--,--.--,--.--,0.00,--.--,--.--,true,true,true,true,true,true,false,false,true,true,false,false,0.06,0.03,0.01,0.02,0.00,0.00,0.43,0.21,43.9449798,-78.8990023,17TPJ 68602 67907,0.0,0.0,16.8,3,10,--.--,--.--,--.--,0.0,0.0,0.0,0,0,0,--.--,--.--,--.--
2020-08-02 14:49:56.304,-90.7,-68.7,83,-10.8,3.9,-8.9,16.6,16.6,-0.6,50.7,50.7,629.1,00:01:22,171.3,7,91,--.--,39,0000:36:01,11.32,51,0,-1.00,--.--,-11.32,--.--,0,--.--,--.--,--.--,--.--,--.--,--.--,--.--,0,14:49:56,2020-08-02,--.--,--.--,--.--,--.--,--.--,--.--,--.--,0.00,--.--,--.--,true,true,true,true,true,true,false,false,true,true,false,false,0.06,0.03,0.01,0.02,0.00,0.00,0.43,0.21,43.9451265,-78.8989788,17TPJ 68604 67923,0.0,0.0,357.4,3,10,--.--,--.--,--.--,0.0,0.0,0.0,0,0,0,--.--,--.--,--.--
2020-08-02 14:49:57.304,-91.5,-75.9,76,-6.0,1.6,-7.9,16.9,17.1,-0.5,50.3,50.3,643.3,00:01:23,175.3,7,96,--.--,39,0000:36:01,11.32,51,0,-1.00,--.--,-11.32,--.--,0,--.--,--.--,--.--,--.--,--.--,--.--,--.--,0,14:49:57,2020-08-02,--.--,--.--,--.--,--.--,--.--,--.--,--.--,0.00,--.--,--.--,true,true,true,true,true,true,false,false,true,true,false,false,0.04,0.09,0.01,0.02,0.00,0.00,0.42,0.21,43.9452780,-78.8990125,17TPJ 68600 67940,0.0,0.0,345.5,3,10,--.--,--.--,--.--,0.0,0.0,0.0,0,0,0,--.--,--.--,--.--
2020-08-02 14:49:58.304,-88.9,-83.0,70,-2.0,0.9,-6.0,17.0,16.8,-0.3,50.0,50.0,659.7,00:01:24,183.0,7,101,--.--,39,0000:36:01,11.32,51,0,-1.00,--.--,-11.32,--.--,0,--.--,--.--,--.--,--.--,--.--,--.--,--.--,0,14:49:58,2020-08-02,--.--,--.--,--.--,--.--,--.--,--.--,--.--,0.00,--.--,--.--,true,true,true,true,true,true,false,false,true,true,false,false,0.04,0.09,0.01,0.02,0.00,0.00,0.42,0.21,43.9452780,-78.8990125,17TPJ 68600 67940,0.0,0.0,345.5,3,10,--.--,--.--,--.--,0.0,0.0,0.0,0,0,0,--.--,--.--,--.--
2020-08-02 14:49:59.304,-78.7,-87.3,59,0.1,0.1,-3.6,16.8,16.7,-0.1,49.9,49.9,674.5,00:01:25,191.4,7,104,--.--,39,0000:36:01,11.32,51,0,-1.00,--.--,-11.32,--.--,0,--.--,--.--,--.--,--.--,--.--,--.--,--.--,0,14:49:59,2020-08-02,--.--,--.--,--.--,--.--,--.--,--.--,--.--,0.00,--.--,--.--,true,true,true,true,true,true,false,false,true,true,false,false,0.04,0.09,0.01,0.02,0.00,0.00,0.42,0.21,43.9454252,-78.8990778,17TPJ 68595 67956,0.0,0.0,339.8,3,10,--.--,--.--,--.--,0.0,0.0,0.0,0,0,0,--.--,--.--,--.--
2020-08-02 14:50:00.308,-26.0,-89.1,7,1.7,0.3,-2.3,16.6,16.7,-0.1,49.9,49.9,688.0,00:01:26,199.4,7,108,--.--,39,0000:36:01,11.32,51,0,-1.00,--.--,-11.32,--.--,0,--.--,--.--,--.--,--.--,--.--,--.--,--.--,0,14:50:00,2020-08-02,--.--,--.--,--.--,--.--,--.--,--.--,--.--,0.00,--.--,--.--,true,true,true,true,true,true,false,false,true,true,false,false,0.02,0.11,0.00,0.02,0.00,0.00,0.42,0.21,43.9455703,-78.8991557,17TPJ 68588 67972,0.0,0.0,338.4,3,10,--.--,--.--,--.--,0.0,0.0,0.0,0,0,0,--.--,--.--,--.--
2020-08-02 14:50:01.307,48.7,-88.5,294,2.0,0.5,-1.4,16.5,17.0,0.0,49.9,49.9,701.9,00:01:27,207.7,7,110,--.--,39,0000:36:01,11.32,51,0,-1.00,--.--,-11.32,--.--,0,--.--,--.--,--.--,--.--,--.--,--.--,--.--,0,14:50:01,2020-08-02,--.--,--.--,--.--,--.--,--.--,--.--,--.--,0.00,--.--,--.--,true,true,true,true,true,true,false,false,true,true,false,false,0.02,0.11,0.00,0.02,0.00,0.00,0.42,0.21,43.9457138,-78.8992334,17TPJ 68582 67988,0.0,0.0,339.3,3,10,--.--,--.--,--.--,0.0,0.0,0.0,0,0,0,--.--,--.--,--.--
2020-08-02 14:50:02.310,65.0,-87.8,279,2.8,0.2,-0.7,16.5,16.7,0.0,49.9,49.9,714.8,00:01:28,216.2,7,113,--.--,40,0000:36:01,11.32,51,0,-1.00,--.--,-11.32,--.--,0,--.--,--.--,--.--,--.--,--.--,--.--,--.--,0,14:50:02,2020-08-02,--.--,--.--,--.--,--.--,--.--,--.--,--.--,0.00,--.--,--.--,true,true,true,true,true,true,false,false,true,true,false,false,0.04,0.06,0.01,0.03,0.00,0.00,0.41,0.20,43.9458574,-78.8993046,17TPJ 68575 68004,0.0,0.0,341.5,3,10,--.--,--.--,--.--,0.0,0.0,0.0,0,0,0,--.--,--.--,--.--
2020-08-02 14:50:03.304,65.7,-87.3,281,2.8,0.2,-0.6,16.5,16.7,0.1,50.0,50.0,729.3,00:01:29,226.0,7,116,--.--,39,0000:36:01,11.32,51,0,-1.00,--.--,-11.32,--.--,0,--.--,--.--,--.--,--.--,--.--,--.--,--.--,0,14:50:03,2020-08-02,--.--,--.--,--.--,--.--,--.--,--.--,--.--,0.00,--.--,--.--,true,true,true,true,true,true,false,false,true,true,false,false,0.04,0.06,0.01,0.03,0.00,0.00,0.41,0.20,43.9460042,-78.8993673,17TPJ 68570 68020,0.0,0.0,344.3,3,10,--.--,--.--,--.--,0.0,0.0,0.0,0,0,0,--.--,--.--,--.--
2020-08-02 14:50:04.311,67.9,-87.2,281,2.8,0.1,0.0,16.5,16.9,0.1,50.1,50.1,745.5,00:01:30,236.0,7,119,--.--,39,0000:36:01,11.32,51,0,-1.00,--.--,-11.32,--.--,0,--.--,--.--,--.--,--.--,--.--,--.--,--.--,0,14:50:04,2020-08-02,--.--,--.--,--.--,--.--,--.--,--.--,--.--,0.00,--.--,--.--,true,true,true,true,true,true,false,false,true,true,false,false,0.03,0.13,0.01,0.06,0.00,0.00,0.41,0.20,43.9461516,-78.8994193,17TPJ 68565 68036,0.0,0.0,347.3,3,10,--.--,--.--,--.--,0.0,0.0,0.0,0,0,0,--.--,--.--,--.--
2020-08-02 14:50:05.318,82.4,-81.7,270,7.3,0.0,-56.9,16.5,16.6,0.2,50.2,50.2,760.8,00:01:31,246.1,14,122,--.--,38,0000:36:01,11.32,51,0,-1.00,--.--,-11.32,--.--,0,--.--,--.--,--.--,--.--,--.--,--.--,--.--,0,14:50:05,2020-08-02,--.--,--.--,--.--,--.--,--.--,--.--,--.--,0.00,--.--,--.--,true,true,true,true,true,true,false,false,true,true,false,false,0.03,0.13,0.01,0.06,0.00,0.00,0.41,0.20,43.9462711,-78.8994539,17TPJ 68562 68050,0.0,0.0,349.3,3,10,--.--,--.--,--.--,0.0,0.0,0.0,0,0,0,--.--,--.--,--.--
2020-08-02 14:50:06.316,87.4,-66.0,277,15.2,2.3,-62.4,16.3,16.3,0.4,50.5,50.5,776.6,00:01:32,255.8,176,125,--.--,39,0000:36:01,11.32,51,0,-1.00,--.--,-11.32,--.--,0,--.--,--.--,--.--,--.--,--.--,--.--,--.--,0,14:50:06,2020-08-02,--.--,--.--,--.--,--.--,--.--,--.--,--.--,0.00,--.--,--.--,true,true,true,true,true,true,false,false,true,true,false,false,0.03,0.13,0.01,0.06,0.00,0.00,0.41,0.20,43.9462711,-78.8994539,17TPJ 68562 68050,0.0,0.0,349.3,3,10,--.--,--.--,--.--,0.0,0.0,0.0,0,0,0,--.--,--.--,--.--
2020-08-02 14:50:07.304,85.6,-54.2,299,18.0,8.8,1.8,16.1,15.7,0.4,50.6,50.6,790.1,00:01:33,261.7,176,128,--.--,40,0000:36:01,11.32,51,0,-1.00,--.--,-11.32,--.--,0,--.--,--.--,--.--,--.--,--.--,--.--,--.--,0,14:50:07,2020-08-02,--.--,--.--,--.--,--.--,--.--,--.--,--.--,0.00,--.--,--.--,true,true,true,true,true,true,false,false,true,true,false,false,0.13,0.03,0.00,0.05,0.00,0.00,0.43,0.21,43.9464219,-78.8994813,17TPJ 68560 68066,0.0,0.0,359.4,3,10,--.--,--.--,--.--,0.0,0.0,0.0,0,0,0,--.--,--.--,--.--
2020-08-02 14:50:08.304,85.8,-54.0,315,20.0,16.4,1.3,15.8,15.6,0.1,50.8,50.7,801.4,00:01:34,263.4,176,130,--.--,42,0000:36:01,11.32,51,0,-1.00,--.--,-11.32,--.--,0,--.--,--.--,--.--,--.--,--.--,--.--,--.--,0,14:50:08,2020-08-02,--.--,--.--,--.--,--.--,--.--,--.--,--.--,0.00,--.--,--.--,true,true,true,true,true,true,false,false,true,true,false,false,0.13,0.03,0.00,0.05,0.00,0.00,0.43,0.21,43.9465725,-78.8994555,17TPJ 68561 68083,0.0,0.0,18.9,3,10,--.--,--.--,--.--,0.0,0.0,0.0,0,0,0,--.--,--.--,--.--
2020-08-02 14:50:09.304,83.5,-54.4,339,22.5,17.4,2.4,15.3,15.7,0.5,51.0,51.0,814.7,00:01:35,261.9,176,133,--.--,43,0000:36:01,11.32,51,0,-1.00,--.--,-11.32,--.--,0,--.--,--.--,--.--,--.--,--.--,--.--,--.--,0,14:50:09,2020-08-02,--.--,--.--,--.--,--.--,--.--,--.--,--.--,0.00,--.--,--.--,true,true,true,true,true,true,false,false,true,true,false,false,0.12,0.13,0.00,0.08,0.00,0.00,0.43,0.21,43.9467002,-78.8993540,17TPJ 68569 68097,0.0,0.0,41.8,3,10,--.--,--.--,--.--,0.0,0.0,0.0,0,0,0,--.--,--.--,--.--
2020-08-02 14:50:10.304,86.9,-54.4,1,20.7,10.4,-0.2,15.3,14.7,0.3,51.5,51.5,829.9,00:01:36,254.4,176,136,--.--,42,0000:36:01,11.32,51,0,-1.00,--.--,-11.32,--.--,0,--.--,--.--,--.--,--.--,--.--,--.--,--.--,0,14:50:10,2020-08-02,--.--,--.--,--.--,--.--,--.--,--.--,--.--,0.00,--.--,--.--,true,true,true,true,true,true,false,false,true,true,false,false,0.12,0.13,0.00,0.08,0.00,0.00,0.43,0.21,43.9467812,-78.8991912,17TPJ 68582 68107,0.0,0.0,70.0,3,10,--.--,--.--,--.--,0.0,0.0,0.0,0,0,0,--.--,--.--,--.--
2020-08-02 14:50:11.304,90.2,-53.8,21,18.9,13.0,-0.6,15.6,15.6,-0.4,51.4,51.4,844.8,00:01:37,242.8,176,138,--.--,40,0000:36:01,11.32,51,0,-1.00,--.--,-11.32,--.--,0,--.--,--.--,--.--,--.--,--.--,--.--,--.--,0,14:50:11,2020-08-02,--.--,--.--,--.--,--.--,--.--,--.--,--.--,0.00,--.--,--.--,true,true,true,true,true,true,false,false,true,true,false,false,0.21,0.16,0.00,0.08,0.00,0.00,0.42,0.21,43.9467992,-78.8989978,17TPJ 68597 68109,0.0,0.0,94.9,3,10,--.--,--.--,--.--,0.0,0.0,0.0,0,0,0,--.--,--.--,--.--
2020-08-02 14:50:12.304,90.0,-53.9,34,19.6,15.7,0.8,15.6,15.6,-0.4,51.1,51.1,853.4,00:01:38,235.2,176,139,--.--,41,0000:36:01,11.32,51,0,-1.00,--.--,-11.32,--.--,0,--.--,--.--,--.--,--.--,--.--,--.--,--.--,0,14:50:12,2020-08-02,--.--,--.--,--.--,--.--,--.--,--.--,--.--,0.00,--.--,--.--,true,true,true,true,true,true,false,false,true,true,false,false,0.21,0.16,0.00,0.08,0.00,0.00,0.42,0.21,43.9467992,-78.8989978,17TPJ 68597 68109,0.0,0.0,94.9,3,10,--.--,--.--,--.--,0.0,0.0,0.0,0,0,0,--.--,--.--,--.--
2020-08-02 14:50:13.304,85.8,-55.7,65,21.7,17.0,4.7,15.3,15.7,0.1,50.9,50.9,868.6,00:01:39,220.3,176,139,--.--,42,0000:36:01,11.32,51,0,-1.00,--.--,-11.32,--.--,0,--.--,--.--,--.--,--.--,--.--,--.--,--.--,0,14:50:13,2020-08-02,--.--,--.--,--.--,--.--,--.--,--.--,--.--,0.00,--.--,--.--,true,true,true,true,true,true,false,false,true,true,false,false,0.21,0.16,0.00,0.08,0.00,0.00,0.42,0.21,43.9467580,-78.8988050,17TPJ 68613 68105,0.0,0.0,118.6,3,10,--.--,--.--,--.--,0.0,0.0,0.0,0,0,0,--.--,--.--,--.--
2020-08-02 14:50:14.304,88.6,-59.8,84,18.6,8.1,5.6,15.4,15.7,-0.0,51.0,50.9,881.6,00:01:40,207.3,176,138,--.--,41,0000:36:01,11.32,51,0,-1.00,--.--,-11.32,--.--,0,--.--,--.--,--.--,--.--,--.--,--.--,--.--,0,14:50:14,2020-08-02,--.--,--.--,--.--,--.--,--.--,--.--,--.--,0.00,--.--,--.--,true,true,true,true,true,true,false,false,true,true,false,false,0.10,0.06,0.01,0.06,0.00,0.00,0.41,0.21,43.9466635,-78.8986562,17TPJ 68625 68095,0.0,0.0,145.6,3,10,--.--,--.--,--.--,0.0,0.0,0.0,0,0,0,--.--,--.--,--.--
2020-08-02 14:50:15.304,92.6,-65.3,94,13.3,5.0,8.1,15.9,16.0,-0.5,50.7,50.6,895.0,00:01:41,197.7,176,135,--.--,40,0000:36:01,11.32,51,0,-1.00,--.--,-11.32,--.--,0,--.--,--.--,--.--,--.--,--.--,--.--,--.--,0,14:50:15,2020-08-02,--.--,--.--,--.--,--.--,--.--,--.--,--.--,0.00,--.--,--.--,true,true,true,true,true,true,false,false,true,true,false,false,0.10,0.06,0.01,0.06,0.00,0.00,0.41,0.21,43.9465311,-78.8985853,17TPJ 68631 68080,0.0,0.0,171.2,3,10,--.--,--.--,--.--,0.0,0.0,0.0,0,0,0,--.--,--.--,--.--
2020-08-02 14:50:16.314,94.0,-73.6,102,7.5,2.9,9.2,16.4,16.7,-0.5,50.1,50.1,910.4,00:01:42,189.7,176,132,--.--,38,0000:36:01,11.32,51,0,-1.00,--.--,-11.32,--.--,0,--.--,--.--,--.--,--.--,--.--,--.--,--.--,0,14:50:16,2020-08-02,--.--,--.--,--.--,--.--,--.--,--.--,--.--,0.00,--.--,--.--,true,true,true,true,true,true,false,false,true,true,false,false,0.05,0.09,0.01,0.05,0.00,0.00,0.41,0.21,43.9463859,-78.8985865,17TPJ 68632 68064,0.0,0.0,188.5,3,10,--.--,--.--,--.--,0.0,0.0,0.0,0,0,0,--.--,--.--,--.--
2020-08-02 14:50:17.313,93.9,-80.8,107,3.5,1.0,7.1,16.5,16.3,-0.4,49.7,49.7,924.0,00:01:43,184.3,176,128,--.--,39,0000:36:01,11.32,51,0,-1.00,--.--,-11.32,--.--,0,--.--,--.--,--.--,--.--,--.--,--.--,--.--,0,14:50:17,2020-08-02,--.--,--.--,--.--,--.--,--.--,--.--,--.--,0.00,--.--,--.--,true,true,true,true,true,true,false,false,true,true,false,false,0.05,0.09,0.01,0.05,0.00,0.00,0.41,0.21,43.9462681,-78.8986244,17TPJ 68629 68051,0.0,0.0,197.1,3,10,--.--,--.--,--.--,0.0,0.0,0.0,0,0,0,--.--,--.--,--.--
2020-08-02 14:50:18.308,92.1,-85.6,111,0.6,1.0,5.4,16.5,16.1,-0.2,49.5,49.5,937.7,00:01:44,181.3,176,124,--.--,39,0000:36:01,11.32,51,0,-1.00,--.--,-11.32,--.--,0,--.--,--.--,--.--,--.--,--.--,--.--,--.--,0,14:50:18,2020-08-02,--.--,--.--,--.--,--.--,--.--,--.--,--.--,0.00,--.--,--.--,true,true,true,true,true,true,false,false,true,true,false,false,0.04,0.03,0.00,0.04,0.00,0.00,0.43,0.21,43.9461259,-78.8986966,17TPJ 68623 68035,0.0,0.0,202.3,3,10,--.--,--.--,--.--,0.0,0.0,0.0,0,0,0,--.--,--.--,--.--
2020-08-02 14:50:19.310,61.9,-89.3,141,-1.7,-0.3,3.0,16.5,16.1,-0.0,49.4,49.4,951.6,00:01:45,179.1,176,119,--.--,40,0000:36:01,11.32,51,0,-1.00,--.--,-11.32,--.--,0,--.--,--.--,--.--,--.--,--.--,--.--,--.--,0,14:50:19,2020-08-02,--.--,--.--,--.--,--.--,--.--,--.--,--.--,0.00,--.--,--.--,true,true,true,true,true,true,false,false,true,true,false,false,0.04,0.03,0.00,0.04,0.00,0.00,0.43,0.21,43.9459855,-78.8987793,17TPJ 68617 68019,0.0,0.0,203.2,3,10,--.--,--.--,--.--,0.0,0.0,0.0,0,0,0,--.--,--.--,--.--
2020-08-02 14:50:20.304,-67.8,-88.4,268,-3.1,0.0,1.5,16.6,16.0,0.0,49.4,49.4,965.3,00:01:46,178.0,176,115,--.--,40,0000:36:01,11.32,51,0,-1.00,--.--,-11.32,--.--,0,--.--,--.--,--.--,--.--,--.--,--.--,--.--,0,14:50:20,2020-08-02,--.--,--.--,--.--,--.--,--.--,--.--,--.--,0.00,--.--,--.--,true,true,true,true,true,true,false,false,true,true,false,false,0.04,0.03,0.00,0.04,0.00,0.00,0.43,0.21,43.9459855,-78.8987793,17TPJ 68617 68019,0.0,0.0,203.2,3,10,--.--,--.--,--.--,0.0,0.0,0.0,0,0,0,--.--,--.--,--.--
2020-08-02 14:50:21.312,-73.6,-87.2,271,-3.8,0.2,0.9,16.6,16.4,0.1,49.4,49.4,982.3,00:01:47,177.3,176,109,--.--,40,0000:36:01,11.32,51,0,-1.00,--.--,-11.32,--.--,0,--.--,--.--,--.--,--.--,--.--,--.--,--.--,0,14:50:21,2020-08-02,--.--,--.--,--.--,--.--,--.--,--.--,--.--,0.00,--.--,--.--,true,true,true,true,true,true,false,false,true,true,false,false,0.07,0.07,0.00,0.03,0.00,0.00,0.42,0.21,43.9458464,-78.8988593,17TPJ 68611 68004,0.0,0.0,201.3,3,10,--.--,--.--,--.--,0.0,0.0,0.0,0,0,0,--.--,--.--,--.--
2020-08-02 14:50:22.304,-71.5,-86.9,266,-3.9,0.1,-0.2,16.7,16.6,0.1,49.5,49.5,996.4,00:01:48,177.1,176,105,--.--,39,0000:36:01,11.32,51,0,-1.00,--.--,-11.32,--.--,0,--.--,--.--,--.--,--.--,--.--,--.--,--.--,0,14:50:22,2020-08-02,--.--,--.--,--.--,--.--,--.--,--.--,--.--,0.00,--.--,--.--,true,true,true,true,true,true,false,false,true,true,false,false,0.07,0.07,0.00,0.03,0.00,0.00,0.42,0.21,43.9457041,-78.8989306,17TPJ 68606 67988,0.0,0.0,198.1,3,10,--.--,--.--,--.--,0.0,0.0,0.0,0,0,0,--.--,--.--,--.--
2020-08-02 14:50:23.304,-67.2,-87.0,259,-3.2,-0.1,-0.6,16.7,16.2,0.1,49.7,49.6,1007.4,00:01:49,177.2,176,101,--.--,39,0000:36:01,11.32,51,0,-1.00,--.--,-11.32,--.--,0,--.--,--.--,--.--,--.--,--.--,--.--,--.--,0,14:50:23,2020-08-02,--.--,--.--,--.--,--.--,--.--,--.--,--.--,0.00,--.--,--.--,true,true,true,true,true,true,false,false,true,true,false,false,0.10,0.19,0.00,0.02,0.00,0.00,0.42,0.20,43.9455595,-78.8989892,17TPJ 68602 67972,0.0,0.0,194.4,3,10,--.--,--.--,--.--,0.0,0.0,0.0,0,0,0,--.--,--.--,--.--
2020-08-02 14:50:24.304,-61.4,-87.4,250,-2.3,0.5,-1.1,16.6,16.5,0.1,49.8,49.8,1023.3,00:01:50,177.8,176,96,--.--,39,0000:36:01,11.32,51,0,-1.00,--.--,-11.32,--.--,0,--.--,--.--,--.--,--.--,--.--,--.--,--.--,0,14:50:24,2020-08-02,--.--,--.--,--.--,--.--,--.--,--.--,--.--,0.00,--.--,--.--,true,true,true,true,true,true,false,false,true,true,false,false,0.10,0.19,0.00,0.02,0.00,0.00,0.42,0.20,43.9454130,-78.8990350,17TPJ 68598 67955,0.0,0.0,190.9,3,10,--.--,--.--,--.--,0.0,0.0,0.0,0,0,0,--.--,--.--,--.--
2020-08-02 14:50:25.305,-53.6,-87.8,240,-2.4,-0.5,-0.8,16.6,16.5,0.1,49.9,49.9,1039.3,00:01:51,178.9,176,91,--.--,38,0000:36:01,11.32,51,0,-1.00,--.--,-11.32,--.--,0,--.--,--.--,--.--,--.--,--.--,--.--,--.--,0,14:50:25,2020-08-02,--.--,--.--,--.--,--.--,--.--,--.--,--.--,0.00,--.--,--.--,true,true,true,true,true,true,false,false,true,true,false,false,0.09,0.02,0.00,0.01,0.00,0.00,0.41,0.20,43.9452631,-78.8990698,17TPJ 68596 67938,0.0,0.0,188.1,3,10,--.--,--.--,--.--,0.0,0.0,0.0,0,0,0,--.--,--.--,--.--
2020-08-02 14:50:26.304,-43.6,-88.2,228,-1.5,0.3,-0.5,16.6,16.1,0.1,50.1,50.0,1055.0,00:01:52,181.0,176,86,--.--,37,0000:36:01,11.32,51,0,-1.00,--.--,-11.32,--.--,0,--.--,--.--,--.--,--.--,--.--,--.--,--.--,0,14:50:26,2020-08-02,--.--,--.--,--.--,--.--,--.--,--.--,--.--,0.00,--.--,--.--,true,true,true,true,true,true,false,false,true,true,false,false,0.09,0.02,0.00,0.01,0.00,0.00,0.41,0.20,43.9451133,-78.8990951,17TPJ 68594 67922,0.0,0.0,185.9,3,10,--.--,--.--,--.--,0.0,0.0,0.0,0,0,0,--.--,--.--,--.--
2020-08-02 14:50:27.304,-37.2,-88.4,221,-1.1,-0.2,-0.9,16.6,16.7,0.1,50.2,50.2,1067.1,00:01:53,183.2,176,82,--.--,37,0000:36:01,11.32,51,0,-1.00,--.--,-11.32,--.--,0,--.--,--.--,--.--,--.--,--.--,--.--,--.--,0,14:50:27,2020-08-02,--.--,--.--,--.--,--.--,--.--,--.--,--.--,0.00,--.--,--.--,true,true,true,true,true,true,false,false,true,true,false,false,0.09,0.10,0.00,0.03,0.00,0.00,0.41,0.20,43.9449614,-78.8991138,17TPJ 68593 67905,0.0,0.0,184.2,3,10,--.--,--.--,--.--,0.0,0.0,0.0,0,0,0,--.--,--.--,--.--
2020-08-02 14:50:28.304,-25.8,-88.6,209,-1.0,-0.0,0.3,16.6,16.7,0.1,50.3,50.3,1083.4,00:01:54,186.9,176,78,--.--,36,0000:36:01,11.32,51,0,-1.00,--.--,-11.32,--.--,0,--.--,--.--,--.--,--.--,--.--,--.--,--.--,0,14:50:28,2020-08-02,--.--,--.--,--.--,--.--,--.--,--.--,--.--,0.00,--.--,--.--,true,true,true,true,true,true,false,false,true,true,false,false,0.09,0.10,0.00,0.03,0.00,0.00,0.41,0.20,43.9449614,-78.8991138,17TPJ 68593 67905,0.0,0.0,184.2,3,10,--.--,--.--,--.--,0.0,0.0,0.0,0,0,0,--.--,--.--,--.--
