Timestamp,roll,pitch,heading,rollRate,pitchRate,yawRate,groundSpeed,airSpeed,climbRate,altitudeRelative,altitudeAMSL,flightDistance,flightTime,distanceToHome,headingToNextWP,headingToHome,distanceToGCS,throttlePct,hobbs,battery.voltage,battery.percentRemaining,battery.mahConsumed,battery.current,battery.temperature,battery.instantPower,battery.timeRemaining,battery.chargeState,battery2.voltage,battery2.percentRemaining,battery2.mahConsumed,battery2.current,battery2.temperature,battery2.instantPower,battery2.timeRemaining,battery2.chargeState,clock.currentTime,clock.currentDate,distanceSensor.rotationNone,distanceSensor.rotationYaw45,distanceSensor.rotationYaw90,distanceSensor.rotationYaw135,distanceSensor.rotationYaw180,distanceSensor.rotationYaw225,distanceSensor.rotationYaw270,distanceSensor.rotationYaw315,distanceSensor.rotationPitch90,distanceSensor.rotationPitch270,estimatorStatus.goodAttitudeEsimate,estimatorStatus.goodHorizVelEstimate,estimatorStatus.goodVertVelEstimate,estimatorStatus.goodHorizPosRelEstimate,estimatorStatus.goodHorizPosAbsEstimate,estimatorStatus.goodVertPosAbsEstimate,estimatorStatus.goodVertPosAGLEstimate,estimatorStatus.goodConstPosModeEstimate,estimatorStatus.goodPredHorizPosRelEstimate,estimatorStatus.goodPredHorizPosAbsEstimate,estimatorStatus.gpsGlitch,estimatorStatus.accelError,estimatorStatus.velRatio,estimatorStatus.horizPosRatio,estimatorStatus.vertPosRatio,estimatorStatus.magRatio,estimatorStatus.haglRatio,estimatorStatus.tasRatio,estimatorStatus.horizPosAccuracy,estimatorStatus.vertPosAccuracy,gps.lat,gps.lon,gps.mgrs,gps.hdop,gps.vdop,gps.courseOverGround,gps.lock,gps.count,temperature.temperature1,temperature.temperature2,temperature.temperature3,vibration.xAxis,vibration.yAxis,vibration.zAxis,vibration.clipCount1,vibration.clipCount2,vibration.clipCount3,wind.direction,wind.speed,wind.verticalSpeed
2020-08-02 14:58:35.832,-1.1,-1.1,98,0.0,0.0,-0.1,0.0,2.6,-0.0,-0.0,49.8,0.0,00:00:00,0.0,308,--.--,--.--,0,0000:36:01,12.14,100,0,-1.00,--.--,-12.14,--.--,0,--.--,--.--,--.--,--.--,--.--,--.--,--.--,0,14:58:35,2020-08-02,--.--,--.--,--.--,--.--,--.--,--.--,--.--,0.00,--.--,--.--,true,true,true,true,true,true,true,false,true,true,false,false,0.01,0.00,0.01,0.02,0.00,0.00,0.45,0.21,43.9451549,-78.8968509,17TPJ 68774 67931,0.0,0.0,311.9,3,10,--.--,--.--,--.--,0.0,0.0,0.0,0,0,0,--.--,--.--,--.--
2020-08-02 14:58:36.811,0.3,0.3,98,-1.6,-0.9,-0.3,0.0,-0.8,0.2,0.1,49.9,0.0,00:00:01,0.0,308,--.--,--.--,60,0000:36:01,12.13,99,0,-1.00,--.--,-12.13,--.--,0,--.--,--.--,--.--,--.--,--.--,--.--,--.--,0,14:58:36,2020-08-02,--.--,--.--,--.--,--.--,--.--,--.--,--.--,0.00,--.--,--.--,true,true,true,true,true,true,true,false,true,true,false,false,0.01,0.00,0.01,0.02,0.00,0.00,0.45,0.21,43.9451550,-78.8968509,17TPJ 68774 67931,0.0,0.0,53.5,3,10,--.--,--.--,--.--,0.0,0.0,0.0,0,0,0,--.--,--.--,--.--
2020-08-02 14:58:37.831,-1.5,-1.6,98,-1.6,-1.4,-0.6,0.1,1.9,1.4,0.9,50.7,0.0,00:00:02,0.1,308,--.--,--.--,62,0000:36:01,12.10,98,0,-1.00,--.--,-12.10,--.--,0,--.--,--.--,--.--,--.--,--.--,--.--,--.--,0,14:58:37,2020-08-02,--.--,--.--,--.--,--.--,--.--,--.--,--.--,0.00,--.--,--.--,true,true,true,true,true,true,true,false,true,true,false,false,0.04,0.00,0.01,0.00,0.00,0.00,0.44,0.21,43.9451545,-78.8968517,17TPJ 68774 67931,0.0,0.0,218.6,3,10,--.--,--.--,--.--,0.0,0.0,0.0,0,0,0,--.--,--.--,--.--
2020-08-02 14:58:38.833,-2.0,-1.8,97,1.1,1.4,-1.3,0.1,2.4,1.1,2.2,52.0,0.0,00:00:03,0.2,308,--.--,--.--,57,0000:36:01,12.08,96,0,-1.00,--.--,-12.08,--.--,0,--.--,--.--,--.--,--.--,--.--,--.--,--.--,0,14:58:38,2020-08-02,--.--,--.--,--.--,--.--,--.--,--.--,--.--,0.00,--.--,--.--,true,true,true,true,true,true,true,false,true,true,false,false,0.04,0.00,0.01,0.00,0.00,0.00,0.44,0.21,43.9451534,-78.8968528,17TPJ 68774 67931,0.0,0.0,214.4,3,10,--.--,--.--,--.--,0.0,0.0,0.0,0,0,0,--.--,--.--,--.--
2020-08-02 14:58:39.834,-0.4,-1.0,97,0.8,-0.1,-0.2,0.1,-1.1,1.0,3.2,53.1,0.0,00:00:04,0.1,308,--.--,--.--,57,0000:36:01,12.05,94,0,-1.00,--.--,-12.05,--.--,0,--.--,--.--,--.--,--.--,--.--,--.--,--.--,0,14:58:39,2020-08-02,--.--,--.--,--.--,--.--,--.--,--.--,--.--,0.00,--.--,--.--,true,true,true,true,true,true,true,false,true,true,false,false,0.01,0.01,0.00,0.01,0.00,0.00,0.43,0.20,43.9451539,-78.8968523,17TPJ 68774 67931,0.0,0.0,17.2,3,10,--.--,--.--,--.--,0.0,0.0,0.0,0,0,0,--.--,--.--,--.--
2020-08-02 14:58:40.821,-0.8,-1.3,97,-1.2,-0.2,0.0,0.0,3.0,0.9,4.1,53.9,0.0,00:00:05,0.1,308,--.--,--.--,58,0000:36:01,12.05,94,0,-1.00,--.--,-12.05,--.--,0,--.--,--.--,--.--,--.--,--.--,--.--,--.--,0,14:58:40,2020-08-02,--.--,--.--,--.--,--.--,--.--,--.--,--.--,0.00,--.--,--.--,true,true,true,true,true,true,true,false,true,true,false,false,0.01,0.01,0.00,0.01,0.00,0.00,0.43,0.20,43.9451539,-78.8968523,17TPJ 68774 67931,0.0,0.0,17.2,3,10,--.--,--.--,--.--,0.0,0.0,0.0,0,0,0,--.--,--.--,--.--
2020-08-02 14:58:41.820,-1.6,-1.5,97,-0.6,0.2,-0.4,0.0,-3.5,0.9,4.8,54.6,0.0,00:00:06,0.1,308,--.--,--.--,58,0000:36:01,12.02,93,0,-1.00,--.--,-12.02,--.--,0,--.--,--.--,--.--,--.--,--.--,--.--,--.--,0,14:58:41,2020-08-02,--.--,--.--,--.--,--.--,--.--,--.--,--.--,0.00,--.--,--.--,true,true,true,true,true,true,true,false,true,true,false,false,0.01,0.01,0.00,0.01,0.00,0.00,0.43,0.20,43.9451542,-78.8968520,17TPJ 68774 67931,0.0,0.0,165.3,3,10,--.--,--.--,--.--,0.0,0.0,0.0,0,0,0,--.--,--.--,--.--
2020-08-02 14:58:42.821,-1.3,-1.1,96,0.8,0.2,-0.3,0.1,-2.8,0.9,5.8,55.6,0.0,00:00:07,0.1,308,--.--,--.--,57,0000:36:01,11.99,91,0,-1.00,--.--,-11.99,--.--,0,--.--,--.--,--.--,--.--,--.--,--.--,--.--,0,14:58:42,2020-08-02,--.--,--.--,--.--,--.--,--.--,--.--,--.--,0.00,--.--,--.--,true,true,true,true,true,true,false,false,true,true,false,false,0.01,0.00,0.00,0.01,0.00,0.00,0.43,0.20,43.9451538,-78.8968518,17TPJ 68774 67931,0.0,0.0,66.4,3,10,--.--,--.--,--.--,0.0,0.0,0.0,0,0,0,--.--,--.--,--.--
2020-08-02 14:58:43.834,-0.7,-1.2,96,-0.2,-0.5,-0.1,0.0,3.0,0.9,6.6,56.5,0.0,00:00:08,0.1,308,--.--,--.--,57,0000:36:01,11.97,89,0,-1.00,--.--,-11.97,--.--,0,--.--,--.--,--.--,--.--,--.--,--.--,--.--,0,14:58:43,2020-08-02,--.--,--.--,--.--,--.--,--.--,--.--,--.--,0.00,--.--,--.--,true,true,true,true,true,true,false,false,true,true,false,false,0.01,0.00,0.00,0.01,0.00,0.00,0.43,0.20,43.9451540,-78.8968513,17TPJ 68774 67931,0.0,0.0,41.3,3,10,--.--,--.--,--.--,0.0,0.0,0.0,0,0,0,--.--,--.--,--.--
2020-08-02 14:58:44.815,-1.2,-1.4,96,-0.8,-0.1,-0.3,0.0,2.2,1.0,7.6,57.4,0.0,00:00:09,0.1,308,--.--,--.--,58,0000:36:01,11.94,88,0,-1.00,--.--,-11.94,--.--,0,--.--,--.--,--.--,--.--,--.--,--.--,--.--,0,14:58:44,2020-08-02,--.--,--.--,--.--,--.--,--.--,--.--,--.--,0.00,--.--,--.--,true,true,true,true,true,true,false,false,true,true,false,false,0.01,0.00,0.00,0.00,0.00,0.00,0.43,0.20,43.9451544,-78.8968510,17TPJ 68774 67931,0.0,0.0,33.6,3,10,--.--,--.--,--.--,0.0,0.0,0.0,0,0,0,--.--,--.--,--.--
2020-08-02 14:58:45.836,-1.5,-1.4,96,-0.0,0.1,-0.4,0.0,2.0,0.9,8.3,58.1,0.0,00:00:10,0.1,308,--.--,--.--,58,0000:36:01,11.91,86,0,-1.00,--.--,-11.91,--.--,0,--.--,--.--,--.--,--.--,--.--,--.--,--.--,0,14:58:45,2020-08-02,--.--,--.--,--.--,--.--,--.--,--.--,--.--,0.00,--.--,--.--,true,true,true,true,true,true,false,false,true,true,false,false,0.01,0.00,0.00,0.00,0.00,0.00,0.43,0.20,43.9451542,-78.8968508,17TPJ 68774 67931,0.0,0.0,125.8,3,10,--.--,--.--,--.--,0.0,0.0,0.0,0,0,0,--.--,--.--,--.--
2020-08-02 14:58:46.833,-1.1,-1.2,96,0.7,0.2,-0.2,0.0,2.3,0.9,9.1,59.0,0.0,00:00:11,0.1,308,--.--,--.--,57,0000:36:01,11.88,84,0,-1.00,--.--,-11.88,--.--,0,--.--,--.--,--.--,--.--,--.--,--.--,--.--,0,14:58:46,2020-08-02,--.--,--.--,--.--,--.--,--.--,--.--,--.--,0.00,--.--,--.--,true,true,true,true,true,true,false,false,true,true,false,false,0.01,0.01,0.00,0.03,0.00,0.00,0.42,0.20,43.9451544,-78.8968503,17TPJ 68774 67931,0.0,0.0,41.4,3,10,--.--,--.--,--.--,0.0,0.0,0.0,0,0,0,--.--,--.--,--.--
2020-08-02 14:58:47.811,-1.0,-1.3,96,-0.2,-0.1,0.0,0.0,1.7,0.9,10.1,59.9,0.0,00:00:12,0.1,308,--.--,--.--,58,0000:36:01,11.86,83,0,-1.00,--.--,-11.86,--.--,0,--.--,--.--,--.--,--.--,--.--,--.--,--.--,0,14:58:47,2020-08-02,--.--,--.--,--.--,--.--,--.--,--.--,--.--,0.00,--.--,--.--,true,true,true,true,true,true,false,false,true,true,false,false,0.01,0.01,0.00,0.03,0.00,0.00,0.42,0.20,43.9451548,-78.8968501,17TPJ 68774 67931,0.0,0.0,13.5,3,10,--.--,--.--,--.--,0.0,0.0,0.0,0,0,0,--.--,--.--,--.--
2020-08-02 14:58:48.834,-1.0,-1.7,96,-0.4,-2.0,-0.1,0.0,4.1,2.8,12.1,61.9,0.0,00:00:13,0.1,308,--.--,--.--,65,0000:36:01,11.83,81,0,-1.00,--.--,-11.83,--.--,0,--.--,--.--,--.--,--.--,--.--,--.--,--.--,0,14:58:48,2020-08-02,--.--,--.--,--.--,--.--,--.--,--.--,--.--,0.00,--.--,--.--,true,true,true,true,true,true,false,false,true,true,false,false,0.08,0.00,0.00,0.01,0.00,0.00,0.43,0.21,43.9451549,-78.8968498,17TPJ 68774 67931,0.0,0.0,22.1,3,10,--.--,--.--,--.--,0.0,0.0,0.0,0,0,0,--.--,--.--,--.--
2020-08-02 14:58:49.833,-1.2,-2.4,96,0.2,-0.8,-0.0,0.0,1.6,2.9,14.5,64.3,0.0,00:00:14,0.0,308,--.--,--.--,60,0000:36:01,11.80,79,0,-1.00,--.--,-11.80,--.--,0,--.--,--.--,--.--,--.--,--.--,--.--,--.--,0,14:58:49,2020-08-02,--.--,--.--,--.--,--.--,--.--,--.--,--.--,0.00,--.--,--.--,true,true,true,true,true,true,false,false,true,true,false,false,0.08,0.00,0.00,0.01,0.00,0.00,0.43,0.21,43.9451548,-78.8968504,17TPJ 68774 67931,0.0,0.0,244.7,3,10,--.--,--.--,--.--,0.0,0.0,0.0,0,0,0,--.--,--.--,--.--
2020-08-02 14:58:50.830,-1.2,-2.4,96,0.1,0.3,-0.1,0.0,-2.1,2.9,16.9,66.7,0.0,00:00:15,0.0,308,--.--,--.--,60,0000:36:01,11.80,79,0,-1.00,--.--,-11.80,--.--,0,--.--,--.--,--.--,--.--,--.--,--.--,--.--,0,14:58:50,2020-08-02,--.--,--.--,--.--,--.--,--.--,--.--,--.--,0.00,--.--,--.--,true,true,true,true,true,true,false,false,true,true,false,false,0.02,0.00,0.01,0.01,0.00,0.00,0.43,0.21,43.9451548,-78.8968504,17TPJ 68774 67931,0.0,0.0,244.7,3,10,--.--,--.--,--.--,0.0,0.0,0.0,0,0,0,--.--,--.--,--.--
2020-08-02 14:58:51.832,-1.1,-2.4,96,0.4,-0.1,-0.0,0.0,3.7,2.9,19.2,69.1,0.0,00:00:16,0.1,308,--.--,--.--,60,0000:36:01,11.78,78,0,-1.00,--.--,-11.78,--.--,0,--.--,--.--,--.--,--.--,--.--,--.--,--.--,0,14:58:51,2020-08-02,--.--,--.--,--.--,--.--,--.--,--.--,--.--,0.00,--.--,--.--,true,true,true,true,true,true,false,false,true,true,false,false,0.02,0.00,0.01,0.01,0.00,0.00,0.43,0.21,43.9451547,-78.8968504,17TPJ 68774 67931,0.0,0.0,142.7,3,10,--.--,--.--,--.--,0.0,0.0,0.0,0,0,0,--.--,--.--,--.--
2020-08-02 14:58:52.834,-1.0,-2.4,96,0.1,0.1,0.0,0.0,1.9,2.8,21.5,71.3,0.0,00:00:17,0.1,308,--.--,--.--,60,0000:36:01,11.75,76,0,-1.00,--.--,-11.75,--.--,0,--.--,--.--,--.--,--.--,--.--,--.--,--.--,0,14:58:52,2020-08-02,--.--,--.--,--.--,--.--,--.--,--.--,--.--,0.00,--.--,--.--,true,true,true,true,true,true,false,false,true,true,false,false,0.02,0.00,0.01,0.01,0.00,0.00,0.43,0.21,43.9451547,-78.8968500,17TPJ 68774 67931,0.0,0.0,72.5,3,10,--.--,--.--,--.--,0.0,0.0,0.0,0,0,0,--.--,--.--,--.--
2020-08-02 14:58:53.833,-1.0,-2.4,96,-0.3,-0.2,-0.3,0.0,3.2,2.9,23.4,73.2,0.0,00:00:18,0.1,308,--.--,--.--,60,0000:36:01,11.72,74,0,-1.00,--.--,-11.72,--.--,0,--.--,--.--,--.--,--.--,--.--,--.--,--.--,0,14:58:53,2020-08-02,--.--,--.--,--.--,--.--,--.--,--.--,--.--,0.00,--.--,--.--,true,true,true,true,true,true,false,false,true,true,false,false,0.02,0.01,0.01,0.03,0.00,0.00,0.42,0.20,43.9451546,-78.8968496,17TPJ 68774 67931,0.0,0.0,115.2,3,10,--.--,--.--,--.--,0.0,0.0,0.0,0,0,0,--.--,--.--,--.--
2020-08-02 14:58:54.832,-1.1,-2.4,96,-0.4,0.1,-0.3,0.0,3.1,2.8,25.7,75.5,0.0,00:00:19,0.1,308,--.--,--.--,60,0000:36:01,11.72,74,0,-1.00,--.--,-11.72,--.--,0,--.--,--.--,--.--,--.--,--.--,--.--,--.--,0,14:58:54,2020-08-02,--.--,--.--,--.--,--.--,--.--,--.--,--.--,0.00,--.--,--.--,true,true,true,true,true,true,false,false,true,true,false,false,0.02,0.01,0.01,0.03,0.00,0.00,0.42,0.20,43.9451546,-78.8968496,17TPJ 68774 67931,0.0,0.0,115.2,3,10,--.--,--.--,--.--,0.0,0.0,0.0,0,0,0,--.--,--.--,--.--
2020-08-02 14:58:55.838,-1.2,-2.4,96,-0.3,0.0,-0.2,0.0,1.5,2.8,28.5,78.4,0.0,00:00:20,0.1,308,--.--,--.--,60,0000:36:01,11.69,73,0,-1.00,--.--,-11.69,--.--,0,--.--,--.--,--.--,--.--,--.--,--.--,--.--,0,14:58:55,2020-08-02,--.--,--.--,--.--,--.--,--.--,--.--,--.--,0.00,--.--,--.--,true,true,true,true,true,true,false,false,true,true,false,false,0.03,0.01,0.01,0.02,0.00,0.00,0.44,0.21,43.9451544,-78.8968492,17TPJ 68774 67931,0.0,0.0,122.2,3,10,--.--,--.--,--.--,0.0,0.0,0.0,0,0,0,--.--,--.--,--.--
2020-08-02 14:58:56.837,-1.2,-2.3,96,0.1,0.3,-0.4,0.0,4.1,2.8,31.3,81.1,0.0,00:00:21,0.2,308,--.--,--.--,60,0000:36:01,11.66,71,0,-1.00,--.--,-11.66,--.--,0,--.--,--.--,--.--,--.--,--.--,--.--,--.--,0,14:58:56,2020-08-02,--.--,--.--,--.--,--.--,--.--,--.--,--.--,0.00,--.--,--.--,true,true,true,true,true,true,false,false,true,true,false,false,0.03,0.01,0.01,0.02,0.00,0.00,0.44,0.21,43.9451542,-78.8968487,17TPJ 68774 67931,0.0,0.0,124.3,3,10,--.--,--.--,--.--,0.0,0.0,0.0,0,0,0,--.--,--.--,--.--
2020-08-02 14:58:57.833,-1.1,-2.4,96,-0.1,-0.4,0.1,0.0,-3.5,2.7,33.5,83.4,0.0,00:00:22,0.2,308,--.--,--.--,60,0000:36:01,11.64,69,0,-1.00,--.--,-11.64,--.--,0,--.--,--.--,--.--,--.--,--.--,--.--,--.--,0,14:58:57,2020-08-02,--.--,--.--,--.--,--.--,--.--,--.--,--.--,0.00,--.--,--.--,true,true,true,true,true,true,false,false,true,true,false,false,0.03,0.01,0.01,0.02,0.00,0.00,0.44,0.21,43.9451540,-78.8968483,17TPJ 68775 67931,0.0,0.0,111.2,3,10,--.--,--.--,--.--,0.0,0.0,0.0,0,0,0,--.--,--.--,--.--
2020-08-02 14:58:58.841,-1.2,-2.3,95,-0.0,0.3,-0.2,0.0,4.1,2.7,36.2,86.1,0.0,00:00:23,0.2,308,--.--,--.--,60,0000:36:01,11.61,68,0,-1.00,--.--,-11.61,--.--,0,--.--,--.--,--.--,--.--,--.--,--.--,--.--,0,14:58:58,2020-08-02,--.--,--.--,--.--,--.--,--.--,--.--,--.--,0.00,--.--,--.--,true,true,true,true,true,true,false,false,true,true,false,false,0.03,0.01,0.01,0.01,0.00,0.00,0.44,0.21,43.9451539,-78.8968480,17TPJ 68775 67931,0.0,0.0,102.4,3,10,--.--,--.--,--.--,0.0,0.0,0.0,0,0,0,--.--,--.--,--.--
2020-08-02 14:58:59.832,-1.1,-2.3,95,0.0,0.1,-0.1,0.0,4.0,2.7,38.7,88.5,0.0,00:00:24,0.3,308,--.--,--.--,60,0000:36:01,11.58,66,0,-1.00,--.--,-11.58,--.--,0,--.--,--.--,--.--,--.--,--.--,--.--,--.--,0,14:58:59,2020-08-02,--.--,--.--,--.--,--.--,--.--,--.--,--.--,0.00,--.--,--.--,true,true,true,true,true,true,false,false,true,true,false,false,0.03,0.01,0.01,0.01,0.00,0.00,0.44,0.21,43.9451539,-78.8968475,17TPJ 68775 67931,0.0,0.0,53.0,3,10,--.--,--.--,--.--,0.0,0.0,0.0,0,0,0,--.--,--.--,--.--
2020-08-02 14:59:00.838,-1.0,-2.3,95,-0.6,-1.0,-0.1,0.0,2.9,2.6,41.1,90.9,0.0,00:00:25,0.3,308,--.--,--.--,60,0000:36:01,11.55,64,0,-1.00,--.--,-11.55,--.--,0,--.--,--.--,--.--,--.--,--.--,--.--,--.--,0,14:59:00,2020-08-02,--.--,--.--,--.--,--.--,--.--,--.--,--.--,0.00,--.--,--.--,true,true,true,true,true,true,false,false,true,true,false,false,0.02,0.01,0.01,0.02,0.00,0.00,0.43,0.21,43.9451540,-78.8968472,17TPJ 68775 67931,0.0,0.0,353.8,3,10,--.--,--.--,--.--,0.0,0.0,0.0,0,0,0,--.--,--.--,--.--
2020-08-02 14:59:01.838,-1.3,-2.1,95,0.3,0.7,-0.5,0.0,1.4,1.9,43.2,93.1,0.0,00:00:26,0.3,308,--.--,--.--,57,0000:36:01,11.53,63,0,-1.00,--.--,-11.53,--.--,0,--.--,--.--,--.--,--.--,--.--,--.--,--.--,0,14:59:01,2020-08-02,--.--,--.--,--.--,--.--,--.--,--.--,--.--,0.00,--.--,--.--,true,true,true,true,true,true,false,false,true,true,false,false,0.02,0.01,0.01,0.02,0.00,0.00,0.43,0.21,43.9451540,-78.8968471,17TPJ 68775 67931,0.0,0.0,6.2,3,10,--.--,--.--,--.--,0.0,0.0,0.0,0,0,0,--.--,--.--,--.--
2020-08-02 14:59:02.840,-1.2,-1.7,95,-0.0,0.4,-0.3,0.0,1.4,1.4,44.9,94.7,0.0,00:00:27,0.3,308,--.--,--.--,57,0000:36:01,11.50,61,0,-1.00,--.--,-11.50,--.--,0,--.--,--.--,--.--,--.--,--.--,--.--,--.--,0,14:59:02,2020-08-02,--.--,--.--,--.--,--.--,--.--,--.--,--.--,0.00,--.--,--.--,true,true,true,true,true,true,false,false,true,true,false,false,0.04,0.01,0.00,0.02,0.00,0.00,0.42,0.20,43.9451540,-78.8968466,17TPJ 68775 67931,0.0,0.0,57.3,3,10,--.--,--.--,--.--,0.0,0.0,0.0,0,0,0,--.--,--.--,--.--
2020-08-02 14:59:03.835,-1.1,-1.4,95,0.0,-0.1,-0.1,0.0,4.1,1.1,45.8,95.7,0.0,00:00:28,0.3,308,--.--,--.--,57,0000:36:01,11.47,59,0,-1.00,--.--,-11.47,--.--,0,--.--,--.--,--.--,--.--,--.--,--.--,--.--,0,14:59:03,2020-08-02,--.--,--.--,--.--,--.--,--.--,--.--,--.--,0.00,--.--,--.--,true,true,true,true,true,true,false,false,true,true,false,false,0.04,0.01,0.00,0.02,0.00,0.00,0.42,0.20,43.9451543,-78.8968463,17TPJ 68775 67931,0.0,0.0,44.2,3,10,--.--,--.--,--.--,0.0,0.0,0.0,0,0,0,--.--,--.--,--.--
2020-08-02 14:59:04.835,-1.1,-1.3,95,0.4,0.6,-0.4,0.0,2.6,0.8,46.8,96.6,0.0,00:00:29,0.3,308,--.--,--.--,57,0000:36:01,11.45,58,0,-1.00,--.--,-11.45,--.--,0,--.--,--.--,--.--,--.--,--.--,--.--,--.--,0,14:59:04,2020-08-02,--.--,--.--,--.--,--.--,--.--,--.--,--.--,0.00,--.--,--.--,true,true,true,true,true,true,false,false,true,true,false,false,0.03,0.01,0.00,0.03,0.00,0.00,0.42,0.21,43.9451546,-78.8968462,17TPJ 68775 67931,0.0,0.0,357.3,3,10,--.--,--.--,--.--,0.0,0.0,0.0,0,0,0,--.--,--.--,--.--
2020-08-02 14:59:05.834,-1.1,-1.3,95,-0.0,-0.0,-0.1,0.1,0.5,0.6,47.5,97.3,0.0,00:00:30,0.3,308,--.--,--.--,57,0000:36:01,11.42,56,0,-1.00,--.--,-11.42,--.--,0,--.--,--.--,--.--,--.--,--.--,--.--,--.--,0,14:59:05,2020-08-02,--.--,--.--,--.--,--.--,--.--,--.--,--.--,0.00,--.--,--.--,true,true,true,true,true,true,false,false,true,true,false,false,0.03,0.01,0.00,0.03,0.00,0.00,0.42,0.21,43.9451548,-78.8968464,17TPJ 68775 67931,0.0,0.0,339.8,3,10,--.--,--.--,--.--,0.0,0.0,0.0,0,0,0,--.--,--.--,--.--
2020-08-02 14:59:06.836,-1.1,-1.3,95,0.0,0.2,-0.3,0.0,-0.4,0.5,47.9,97.7,0.0,00:00:31,0.3,308,--.--,--.--,57,0000:36:01,11.42,56,0,-1.00,--.--,-11.42,--.--,0,--.--,--.--,--.--,--.--,--.--,--.--,--.--,0,14:59:06,2020-08-02,--.--,--.--,--.--,--.--,--.--,--.--,--.--,0.00,--.--,--.--,true,true,true,true,true,true,false,false,true,true,false,false,0.03,0.01,0.01,0.00,0.00,0.00,0.44,0.21,43.9451548,-78.8968464,17TPJ 68775 67931,0.0,0.0,339.8,3,10,--.--,--.--,--.--,0.0,0.0,0.0,0,0,0,--.--,--.--,--.--
2020-08-02 14:59:07.834,-1.0,-1.3,95,0.2,0.2,-0.5,0.0,-1.8,0.4,48.4,98.2,0.0,00:00:32,0.3,308,--.--,--.--,56,0000:36:01,11.39,54,0,-1.00,--.--,-11.39,--.--,0,--.--,--.--,--.--,--.--,--.--,--.--,--.--,0,14:59:07,2020-08-02,--.--,--.--,--.--,--.--,--.--,--.--,--.--,0.00,--.--,--.--,true,true,true,true,true,true,false,false,true,true,false,false,0.03,0.01,0.01,0.00,0.00,0.00,0.44,0.21,43.9451551,-78.8968470,17TPJ 68775 67931,0.0,0.0,312.1,3,10,--.--,--.--,--.--,0.0,0.0,0.0,0,0,0,--.--,--.--,--.--
2020-08-02 14:59:08.832,-0.8,-1.3,95,0.3,-0.6,-0.2,0.0,1.9,0.3,48.7,98.5,0.0,00:00:33,0.2,308,--.--,--.--,57,0000:36:01,11.36,53,0,-1.00,--.--,-11.36,--.--,0,--.--,--.--,--.--,--.--,--.--,--.--,--.--,0,14:59:08,2020-08-02,--.--,--.--,--.--,--.--,--.--,--.--,--.--,0.00,--.--,--.--,true,true,true,true,true,true,false,false,true,true,false,false,0.03,0.01,0.01,0.00,0.00,0.00,0.44,0.21,43.9451555,-78.8968476,17TPJ 68775 67931,0.0,0.0,289.1,3,10,--.--,--.--,--.--,0.0,0.0,0.0,0,0,0,--.--,--.--,--.--
2020-08-02 14:59:09.832,-0.9,-1.4,95,0.2,0.1,-0.2,0.0,-3.3,0.3,49.0,98.8,0.0,00:00:34,0.2,308,--.--,--.--,57,0000:36:01,11.34,52,0,-1.00,--.--,-11.34,--.--,0,--.--,--.--,--.--,--.--,--.--,--.--,--.--,0,14:59:09,2020-08-02,--.--,--.--,--.--,--.--,--.--,--.--,--.--,0.00,--.--,--.--,true,true,true,true,true,true,false,false,true,true,false,false,0.03,0.01,0.01,0.01,0.00,0.00,0.43,0.21,43.9451558,-78.8968483,17TPJ 68775 67931,0.0,0.0,288.0,3,10,--.--,--.--,--.--,0.0,0.0,0.0,0,0,0,--.--,--.--,--.--
2020-08-02 14:59:10.846,-1.1,-1.4,95,-0.2,-0.3,-0.2,0.0,-2.3,0.2,49.2,99.0,0.0,00:00:35,0.2,308,--.--,--.--,57,0000:36:01,11.33,51,0,-1.00,--.--,-11.33,--.--,0,--.--,--.--,--.--,--.--,--.--,--.--,--.--,0,14:59:10,2020-08-02,--.--,--.--,--.--,--.--,--.--,--.--,--.--,0.00,--.--,--.--,true,true,true,true,true,true,false,false,true,true,false,false,0.03,0.01,0.01,0.01,0.00,0.00,0.43,0.21,43.9451558,-78.8968489,17TPJ 68774 67931,0.0,0.0,244.9,3,10,--.--,--.--,--.--,0.0,0.0,0.0,0,0,0,--.--,--.--,--.--
2020-08-02 14:59:11.839,-5.0,3.7,94,-15.6,24.4,-2.5,0.0,2.3,0.1,49.4,99.2,0.0,00:00:36,0.1,308,--.--,--.--,57,0000:36:01,11.33,51,0,-1.00,--.--,-11.33,--.--,0,--.--,--.--,--.--,--.--,--.--,--.--,--.--,0,14:59:11,2020-08-02,--.--,--.--,--.--,--.--,--.--,--.--,--.--,0.00,--.--,--.--,true,true,true,true,true,true,false,false,true,true,false,false,0.01,0.00,0.00,0.02,0.00,0.00,0.43,0.21,43.9451557,-78.8968494,17TPJ 68774 67931,0.0,0.0,294.4,3,10,--.--,--.--,--.--,0.0,0.0,0.0,0,0,0,--.--,--.--,--.--
2020-08-02 14:59:12.834,-18.2,20.9,85,-12.6,26.4,-15.4,2.0,1.9,0.2,49.5,99.3,0.0,00:00:37,0.5,308,--.--,--.--,57,0000:36:01,11.33,51,0,-1.00,--.--,-11.33,--.--,0,--.--,--.--,--.--,--.--,--.--,--.--,--.--,0,14:59:12,2020-08-02,--.--,--.--,--.--,--.--,--.--,--.--,--.--,0.00,--.--,--.--,true,true,true,true,true,true,false,false,true,true,false,false,0.01,0.00,0.00,0.02,0.00,0.00,0.43,0.21,43.9451557,-78.8968494,17TPJ 68774 67931,0.0,0.0,294.4,3,10,--.--,--.--,--.--,0.0,0.0,0.0,0,0,0,--.--,--.--,--.--
2020-08-02 14:59:13.837,1.5,-19.2,76,3.8,-59.0,-9.5,2.4,-2.1,-0.2,49.5,99.3,2.0,00:00:38,3.2,308,123,--.--,64,0000:36:01,11.33,51,0,-1.00,--.--,-11.33,--.--,0,--.--,--.--,--.--,--.--,--.--,--.--,--.--,0,14:59:13,2020-08-02,--.--,--.--,--.--,--.--,--.--,--.--,--.--,0.00,--.--,--.--,true,true,true,true,true,true,false,false,true,true,false,false,0.01,0.00,0.00,0.02,0.00,0.00,0.43,0.21,43.9451579,-78.8968542,17TPJ 68774 67931,0.0,0.0,301.4,3,10,--.--,--.--,--.--,0.0,0.0,0.0,0,0,0,--.--,--.--,--.--
2020-08-02 14:59:14.835,18.9,-78.6,59,7.7,-59.1,2.8,5.0,5.1,-0.2,49.4,99.3,2.0,00:00:39,3.7,308,151,--.--,68,0000:36:01,11.32,51,0,-1.00,--.--,-11.32,--.--,0,--.--,--.--,--.--,--.--,--.--,--.--,--.--,0,14:59:14,2020-08-02,--.--,--.--,--.--,--.--,--.--,--.--,--.--,0.00,--.--,--.--,true,true,true,true,true,true,false,false,true,true,false,false,0.05,0.02,0.01,0.01,0.00,0.00,0.42,0.20,43.9451700,-78.8968871,17TPJ 68771 67933,0.0,0.0,296.3,3,10,--.--,--.--,--.--,0.0,0.0,0.0,0,0,0,--.--,--.--,--.--
2020-08-02 14:59:15.835,-97.2,-57.5,168,-15.6,14.2,43.4,13.3,13.3,-1.2,48.8,98.6,12.4,00:00:40,9.0,308,227,--.--,70,0000:36:01,11.32,51,0,-1.00,--.--,-11.32,--.--,0,--.--,--.--,--.--,--.--,--.--,--.--,--.--,0,14:59:15,2020-08-02,--.--,--.--,--.--,--.--,--.--,--.--,--.--,0.00,--.--,--.--,true,true,true,true,true,true,false,false,true,true,false,false,0.05,0.02,0.01,0.01,0.00,0.00,0.42,0.20,43.9451870,-78.8968799,17TPJ 68772 67934,0.0,0.0,58.0,3,10,--.--,--.--,--.--,0.0,0.0,0.0,0,0,0,--.--,--.--,--.--
2020-08-02 14:59:16.836,-86.1,-52.9,130,-22.5,23.6,1.7,16.2,16.0,0.2,48.2,98.1,25.4,00:00:41,22.9,308,230,--.--,61,0000:36:01,11.32,51,0,-1.00,--.--,-11.32,--.--,0,--.--,--.--,--.--,--.--,--.--,--.--,--.--,0,14:59:16,2020-08-02,--.--,--.--,--.--,--.--,--.--,--.--,--.--,0.00,--.--,--.--,true,true,true,true,true,true,false,false,true,true,false,false,0.48,0.09,0.00,0.04,0.00,0.00,0.42,0.20,43.9452246,-78.8967574,17TPJ 68782 67939,0.0,0.0,64.0,3,10,--.--,--.--,--.--,0.0,0.0,0.0,0,0,0,--.--,--.--,--.--
2020-08-02 14:59:17.833,-83.6,-51.1,97,-21.8,13.1,-0.5,17.4,16.6,1.2,49.2,99.0,42.0,00:00:42,38.6,308,219,--.--,61,0000:36:01,11.32,51,0,-1.00,--.--,-11.32,--.--,0,--.--,--.--,--.--,--.--,--.--,--.--,--.--,0,14:59:17,2020-08-02,--.--,--.--,--.--,--.--,--.--,--.--,--.--,0.00,--.--,--.--,true,true,true,true,true,true,false,false,true,true,false,false,0.48,0.09,0.00,0.04,0.00,0.00,0.42,0.20,43.9453167,-78.8966081,17TPJ 68793 67949,0.0,0.0,33.8,3,10,--.--,--.--,--.--,0.0,0.0,0.0,0,0,0,--.--,--.--,--.--
2020-08-02 14:59:18.836,-87.4,-50.1,79,-17.7,12.3,-0.7,18.2,17.6,0.6,49.9,99.7,58.5,00:00:43,51.4,308,208,--.--,57,0000:36:01,11.32,51,0,-1.00,--.--,-11.32,--.--,0,--.--,--.--,--.--,--.--,--.--,--.--,--.--,0,14:59:18,2020-08-02,--.--,--.--,--.--,--.--,--.--,--.--,--.--,0.00,--.--,--.--,true,true,true,true,true,true,false,false,true,true,false,false,0.12,0.13,0.01,0.02,0.00,0.00,0.45,0.21,43.9454612,-78.8965426,17TPJ 68798 67966,0.0,0.0,3.6,3,10,--.--,--.--,--.--,0.0,0.0,0.0,0,0,0,--.--,--.--,--.--
2020-08-02 14:59:19.834,-87.3,-51.6,57,-17.7,15.5,-4.2,18.5,17.9,0.2,50.1,99.9,75.8,00:00:44,64.4,308,196,--.--,55,0000:36:01,11.32,51,0,-1.00,--.--,-11.32,--.--,0,--.--,--.--,--.--,--.--,--.--,--.--,--.--,0,14:59:19,2020-08-02,--.--,--.--,--.--,--.--,--.--,--.--,--.--,0.00,--.--,--.--,true,true,true,true,true,true,false,false,true,true,false,false,0.12,0.13,0.01,0.02,0.00,0.00,0.45,0.21,43.9456221,-78.8965743,17TPJ 68795 67983,0.0,0.0,340.5,3,10,--.--,--.--,--.--,0.0,0.0,0.0,0,0,0,--.--,--.--,--.--
2020-08-02 14:59:20.815,-84.2,-58.2,30,-18.7,11.4,-11.8,18.1,17.9,0.6,50.5,100.3,95.5,00:00:45,74.8,308,184,--.--,56,0000:36:01,11.32,51,0,-1.00,--.--,-11.32,--.--,0,--.--,--.--,--.--,--.--,--.--,--.--,--.--,0,14:59:20,2020-08-02,--.--,--.--,--.--,--.--,--.--,--.--,--.--,0.00,--.--,--.--,true,true,true,true,true,true,false,false,true,true,false,false,0.12,0.05,0.01,0.04,0.00,0.00,0.44,0.21,43.9457645,-78.8966920,17TPJ 68785 67999,0.0,0.0,317.1,3,10,--.--,--.--,--.--,0.0,0.0,0.0,0,0,0,--.--,--.--,--.--
2020-08-02 14:59:21.813,-86.1,-69.2,15,-13.2,2.2,-15.0,18.2,17.5,0.4,50.9,100.7,110.7,00:00:46,81.9,308,173,--.--,52,0000:36:01,11.32,51,0,-1.00,--.--,-11.32,--.--,0,--.--,--.--,--.--,--.--,--.--,--.--,--.--,0,14:59:21,2020-08-02,--.--,--.--,--.--,--.--,--.--,--.--,--.--,0.00,--.--,--.--,true,true,true,true,true,true,false,false,true,true,false,false,0.12,0.05,0.01,0.04,0.00,0.00,0.44,0.21,43.9458591,-78.8968757,17TPJ 68770 68009,0.0,0.0,294.4,3,10,--.--,--.--,--.--,0.0,0.0,0.0,0,0,0,--.--,--.--,--.--
2020-08-02 14:59:22.834,-87.0,-83.3,7,-4.7,0.3,-11.7,18.5,18.1,0.0,51.0,100.8,128.3,00:00:47,89.4,308,162,--.--,45,0000:36:01,11.32,51,0,-1.00,--.--,-11.32,--.--,0,--.--,--.--,--.--,--.--,--.--,--.--,--.--,0,14:59:22,2020-08-02,--.--,--.--,--.--,--.--,--.--,--.--,--.--,0.00,--.--,--.--,true,true,true,true,true,true,false,false,true,true,false,false,0.17,0.07,0.01,0.04,0.00,0.00,0.44,0.21,43.9459001,-78.8970499,17TPJ 68756 68013,0.0,0.0,282.6,3,10,--.--,--.--,--.--,0.0,0.0,0.0,0,0,0,--.--,--.--,--.--
2020-08-02 14:59:23.834,65.8,-88.5,212,-0.4,-0.1,-7.3,18.4,18.6,0.1,51.0,100.8,145.5,00:00:48,97.3,308,153,--.--,44,0000:36:01,11.32,51,0,-1.00,--.--,-11.32,--.--,0,--.--,--.--,--.--,--.--,--.--,--.--,--.--,0,14:59:23,2020-08-02,--.--,--.--,--.--,--.--,--.--,--.--,--.--,0.00,--.--,--.--,true,true,true,true,true,true,false,false,true,true,false,false,0.17,0.07,0.01,0.04,0.00,0.00,0.44,0.21,43.9459255,-78.8972790,17TPJ 68738 68016,0.0,0.0,276.2,3,10,--.--,--.--,--.--,0.0,0.0,0.0,0,0,0,--.--,--.--,--.--
2020-08-02 14:59:24.835,81.6,-83.6,197,2.1,0.6,-4.3,18.2,18.5,0.2,51.1,100.9,160.8,00:00:49,107.0,308,146,--.--,43,0000:36:01,11.32,51,0,-1.00,--.--,-11.32,--.--,0,--.--,--.--,--.--,--.--,--.--,--.--,--.--,0,14:59:24,2020-08-02,--.--,--.--,--.--,--.--,--.--,--.--,--.--,0.00,--.--,--.--,true,true,true,true,true,true,false,false,true,true,false,false,0.07,0.02,0.00,0.04,0.00,0.00,0.43,0.21,43.9459419,-78.8975134,17TPJ 68719 68017,0.0,0.0,275.6,3,10,--.--,--.--,--.--,0.0,0.0,0.0,0,0,0,--.--,--.--,--.--
2020-08-02 14:59:25.832,82.9,-80.4,199,3.4,0.9,-2.5,18.0,18.6,0.2,51.2,101.1,180.6,00:00:50,120.1,308,139,--.--,42,0000:36:01,11.32,51,0,-1.00,--.--,-11.32,--.--,0,--.--,--.--,--.--,--.--,--.--,--.--,--.--,0,14:59:25,2020-08-02,--.--,--.--,--.--,--.--,--.--,--.--,--.--,0.00,--.--,--.--,true,true,true,true,true,true,false,false,true,true,false,false,0.07,0.02,0.00,0.04,0.00,0.00,0.43,0.21,43.9459613,-78.8977481,17TPJ 68700 68019,0.0,0.0,278.0,3,10,--.--,--.--,--.--,0.0,0.0,0.0,0,0,0,--.--,--.--,--.--
2020-08-02 14:59:26.832,83.9,-79.0,201,3.6,0.7,-1.2,17.8,18.2,0.3,51.4,101.3,196.1,00:00:51,133.6,308,135,--.--,42,0000:36:01,11.32,51,0,-1.00,--.--,-11.32,--.--,0,--.--,--.--,--.--,--.--,--.--,--.--,--.--,0,14:59:26,2020-08-02,--.--,--.--,--.--,--.--,--.--,--.--,--.--,0.00,--.--,--.--,true,true,true,true,true,true,false,false,true,true,false,false,0.15,0.15,0.00,0.04,0.00,0.00,0.42,0.20,43.9459898,-78.8979798,17TPJ 68681 68021,0.0,0.0,281.6,3,10,--.--,--.--,--.--,0.0,0.0,0.0,0,0,0,--.--,--.--,--.--
2020-08-02 14:59:27.811,84.5,-78.4,204,4.0,0.9,-0.2,17.7,18.4,0.2,51.6,101.4,213.8,00:00:52,148.4,308,131,--.--,42,0000:36:01,11.32,51,0,-1.00,--.--,-11.32,--.--,0,--.--,--.--,--.--,--.--,--.--,--.--,--.--,0,14:59:27,2020-08-02,--.--,--.--,--.--,--.--,--.--,--.--,--.--,0.00,--.--,--.--,true,true,true,true,true,true,false,false,true,true,false,false,0.15,0.15,0.00,0.04,0.00,0.00,0.42,0.20,43.9459898,-78.8979798,17TPJ 68681 68021,0.0,0.0,281.6,3,10,--.--,--.--,--.--,0.0,0.0,0.0,0,0,0,--.--,--.--,--.--
2020-08-02 14:59:28.842,86.0,-78.4,206,3.8,0.5,0.2,17.4,17.8,0.2,51.8,101.6,228.8,00:00:53,163.3,308,129,--.--,42,0000:36:01,11.32,51,0,-1.00,--.--,-11.32,--.--,0,--.--,--.--,--.--,--.--,--.--,--.--,--.--,0,14:59:28,2020-08-02,--.--,--.--,--.--,--.--,--.--,--.--,--.--,0.00,--.--,--.--,true,true,true,true,true,true,false,false,true,true,false,false,0.14,0.21,0.00,0.05,0.00,0.00,0.42,0.20,43.9460294,-78.8982067,17TPJ 68663 68025,0.0,0.0,285.8,3,10,--.--,--.--,--.--,0.0,0.0,0.0,0,0,0,--.--,--.--,--.--
2020-08-02 14:59:29.837,86.6,-78.8,209,3.5,0.3,0.5,17.1,17.4,0.2,51.9,101.7,247.9,00:00:54,179.9,308,128,--.--,41,0000:36:01,11.32,51,0,-1.00,--.--,-11.32,--.--,0,--.--,--.--,--.--,--.--,--.--,--.--,--.--,0,14:59:29,2020-08-02,--.--,--.--,--.--,--.--,--.--,--.--,--.--,0.00,--.--,--.--,true,true,true,true,true,true,false,false,true,true,false,false,0.14,0.21,0.00,0.05,0.00,0.00,0.42,0.20,43.9460800,-78.8984248,17TPJ 68645 68031,0.0,0.0,289.9,3,10,--.--,--.--,--.--,0.0,0.0,0.0,0,0,0,--.--,--.--,--.--
2020-08-02 14:59:30.811,87.6,-79.3,211,3.5,0.3,0.8,17.0,16.9,0.1,52.0,101.8,260.6,00:00:55,192.6,308,127,--.--,42,0000:36:01,11.32,51,0,-1.00,--.--,-11.32,--.--,0,--.--,--.--,--.--,--.--,--.--,--.--,--.--,0,14:59:30,2020-08-02,--.--,--.--,--.--,--.--,--.--,--.--,--.--,0.00,--.--,--.--,true,true,true,true,true,true,false,false,true,true,false,false,0.14,0.21,0.00,0.05,0.00,0.00,0.42,0.20,43.9461402,-78.8986328,17TPJ 68629 68037,0.0,0.0,293.9,3,10,--.--,--.--,--.--,0.0,0.0,0.0,0,0,0,--.--,--.--,--.--
2020-08-02 14:59:31.828,88.1,-80.4,214,3.1,0.4,1.2,16.8,16.9,0.1,52.0,101.9,277.3,00:00:56,209.5,308,126,--.--,42,0000:36:01,11.32,51,0,-1.00,--.--,-11.32,--.--,0,--.--,--.--,--.--,--.--,--.--,--.--,--.--,0,14:59:31,2020-08-02,--.--,--.--,--.--,--.--,--.--,--.--,--.--,0.00,--.--,--.--,true,true,true,true,true,true,false,false,true,true,false,false,0.07,0.14,0.01,0.05,0.00,0.00,0.41,0.20,43.9462097,-78.8988326,17TPJ 68612 68044,0.0,0.0,297.7,3,10,--.--,--.--,--.--,0.0,0.0,0.0,0,0,0,--.--,--.--,--.--
2020-08-02 14:59:32.834,89.5,-81.4,215,3.0,0.1,1.2,16.6,16.8,-0.0,52.0,101.8,292.8,00:00:57,224.3,308,126,--.--,42,0000:36:01,11.32,51,0,-1.00,--.--,-11.32,--.--,0,--.--,--.--,--.--,--.--,--.--,--.--,--.--,0,14:59:32,2020-08-02,--.--,--.--,--.--,--.--,--.--,--.--,--.--,0.00,--.--,--.--,true,true,true,true,true,true,false,false,true,true,false,false,0.07,0.14,0.01,0.05,0.00,0.00,0.41,0.20,43.9462701,-78.8989840,17TPJ 68600 68050,0.0,0.0,300.4,3,10,--.--,--.--,--.--,0.0,0.0,0.0,0,0,0,--.--,--.--,--.--
2020-08-02 14:59:33.846,90.0,-82.7,217,2.3,0.5,3.6,16.5,16.6,-0.1,51.9,101.8,306.3,00:00:58,239.1,--.--,126,--.--,43,0000:36:01,11.32,51,0,-1.00,--.--,-11.32,--.--,0,--.--,--.--,--.--,--.--,--.--,--.--,--.--,0,14:59:33,2020-08-02,--.--,--.--,--.--,--.--,--.--,--.--,--.--,0.00,--.--,--.--,true,true,true,true,true,true,false,false,true,true,false,false,0.07,0.04,0.01,0.05,0.00,0.00,0.43,0.21,43.9463519,-78.8991668,17TPJ 68585 68059,0.0,0.0,303.4,3,10,--.--,--.--,--.--,0.0,0.0,0.0,0,0,0,--.--,--.--,--.--
2020-08-02 14:59:34.833,-86.6,-50.4,24,-20.8,38.7,17.8,16.5,16.8,-0.2,51.8,101.7,319.8,00:00:59,252.6,213,126,--.--,47,0000:36:01,11.32,51,0,-1.00,--.--,-11.32,--.--,0,--.--,--.--,--.--,--.--,--.--,--.--,--.--,0,14:59:34,2020-08-02,--.--,--.--,--.--,--.--,--.--,--.--,--.--,0.00,--.--,--.--,true,true,true,true,true,true,false,false,true,true,false,false,0.07,0.04,0.01,0.05,0.00,0.00,0.43,0.21,43.9464385,-78.8993402,17TPJ 68571 68068,0.0,0.0,305.6,3,10,--.--,--.--,--.--,0.0,0.0,0.0,0,0,0,--.--,--.--,--.--
2020-08-02 14:59:35.835,-84.6,-55.0,0,-20.2,5.7,0.2,16.4,16.4,1.2,52.5,102.3,333.1,00:01:00,264.7,213,124,--.--,45,0000:36:01,11.32,51,0,-1.00,--.--,-11.32,--.--,0,--.--,--.--,--.--,--.--,--.--,--.--,--.--,0,14:59:35,2020-08-02,--.--,--.--,--.--,--.--,--.--,--.--,--.--,0.00,--.--,--.--,true,true,true,true,true,true,false,false,true,true,false,false,0.08,0.08,0.00,0.04,0.00,0.00,0.42,0.21,43.9464385,-78.8993402,17TPJ 68571 68068,0.0,0.0,305.6,3,10,--.--,--.--,--.--,0.0,0.0,0.0,0,0,0,--.--,--.--,--.--
2020-08-02 14:59:36.836,-87.9,-55.0,343,-17.6,10.4,-2.0,16.9,16.7,-0.0,52.6,102.5,347.5,00:01:01,276.2,213,122,--.--,44,0000:36:01,11.32,51,0,-1.00,--.--,-11.32,--.--,0,--.--,--.--,--.--,--.--,--.--,--.--,--.--,0,14:59:36,2020-08-02,--.--,--.--,--.--,--.--,--.--,--.--,--.--,0.00,--.--,--.--,true,true,true,true,true,true,false,false,true,true,false,false,0.08,0.08,0.00,0.04,0.00,0.00,0.42,0.21,43.9465019,-78.8995281,17TPJ 68556 68075,0.0,0.0,277.9,3,10,--.--,--.--,--.--,0.0,0.0,0.0,0,0,0,--.--,--.--,--.--
2020-08-02 14:59:37.832,-88.3,-56.4,328,-17.3,11.9,-3.7,16.8,16.6,-0.3,52.4,102.2,359.7,00:01:02,283.0,213,120,--.--,44,0000:36:01,11.32,51,0,-1.00,--.--,-11.32,--.--,0,--.--,--.--,--.--,--.--,--.--,--.--,--.--,0,14:59:37,2020-08-02,--.--,--.--,--.--,--.--,--.--,--.--,--.--,0.00,--.--,--.--,true,true,true,true,true,true,false,false,true,true,false,false,0.08,0.08,0.00,0.04,0.00,0.00,0.42,0.21,43.9464947,-78.8997350,17TPJ 68539 68074,0.0,0.0,256.1,3,10,--.--,--.--,--.--,0.0,0.0,0.0,0,0,0,--.--,--.--,--.--
2020-08-02 14:59:38.848,-86.7,-60.8,304,-18.3,10.1,-6.1,16.4,16.5,-0.1,52.1,102.0,376.8,00:01:03,288.5,176,117,--.--,45,0000:36:01,11.32,51,0,-1.00,--.--,-11.32,--.--,0,--.--,--.--,--.--,--.--,--.--,--.--,--.--,0,14:59:38,2020-08-02,--.--,--.--,--.--,--.--,--.--,--.--,--.--,0.00,--.--,--.--,true,true,true,true,true,true,false,false,true,true,false,false,0.17,0.09,0.00,0.05,0.00,0.00,0.42,0.20,43.9464319,-78.8999274,17TPJ 68524 68067,0.0,0.0,234.7,3,10,--.--,--.--,--.--,0.0,0.0,0.0,0,0,0,--.--,--.--,--.--
2020-08-02 14:59:39.849,-87.5,-66.4,288,-15.6,6.7,-6.1,16.3,16.4,-0.2,52.0,101.8,390.2,00:01:04,289.2,168,114,--.--,44,0000:36:01,11.32,51,0,-1.00,--.--,-11.32,--.--,0,--.--,--.--,--.--,--.--,--.--,--.--,--.--,0,14:59:39,2020-08-02,--.--,--.--,--.--,--.--,--.--,--.--,--.--,0.00,--.--,--.--,true,true,true,true,true,true,false,false,true,true,false,false,0.17,0.09,0.00,0.05,0.00,0.00,0.42,0.20,43.9463232,-78.9000733,17TPJ 68512 68054,0.0,0.0,213.0,3,10,--.--,--.--,--.--,0.0,0.0,0.0,0,0,0,--.--,--.--,--.--
2020-08-02 14:59:40.832,-88.5,-71.2,276,-11.1,4.0,-5.3,16.6,17.0,-0.3,51.7,101.5,405.7,00:01:05,286.7,168,112,--.--,40,0000:36:01,11.32,51,0,-1.00,--.--,-11.32,--.--,0,--.--,--.--,--.--,--.--,--.--,--.--,--.--,0,14:59:40,2020-08-02,--.--,--.--,--.--,--.--,--.--,--.--,--.--,0.00,--.--,--.--,true,true,true,true,true,true,false,false,true,true,false,false,0.09,0.03,0.00,0.05,0.00,0.00,0.41,0.20,43.9461856,-78.9001570,17TPJ 68506 68039,0.0,0.0,194.7,3,10,--.--,--.--,--.--,0.0,0.0,0.0,0,0,0,--.--,--.--,--.--
2020-08-02 14:59:41.834,-89.1,-75.2,269,-7.8,2.4,-4.1,16.8,17.0,-0.4,51.4,101.2,420.4,00:01:06,282.5,168,109,--.--,40,0000:36:01,11.32,51,0,-1.00,--.--,-11.32,--.--,0,--.--,--.--,--.--,--.--,--.--,--.--,--.--,0,14:59:41,2020-08-02,--.--,--.--,--.--,--.--,--.--,--.--,--.--,0.00,--.--,--.--,true,true,true,true,true,true,false,false,true,true,false,false,0.09,0.03,0.00,0.05,0.00,0.00,0.41,0.20,43.9460321,-78.9001867,17TPJ 68504 68022,0.0,0.0,181.8,3,10,--.--,--.--,--.--,0.0,0.0,0.0,0,0,0,--.--,--.--,--.--
2020-08-02 14:59:42.832,-87.8,-79.3,261,-5.0,1.0,-3.8,17.1,17.0,-0.3,51.1,100.9,437.1,00:01:07,275.9,168,106,--.--,39,0000:36:01,11.32,51,0,-1.00,--.--,-11.32,--.--,0,--.--,--.--,--.--,--.--,--.--,--.--,--.--,0,14:59:42,2020-08-02,--.--,--.--,--.--,--.--,--.--,--.--,--.--,0.00,--.--,--.--,true,true,true,true,true,true,false,false,true,true,false,false,0.07,0.13,0.01,0.05,0.00,0.00,0.41,0.20,43.9458753,-78.9001772,17TPJ 68505 68004,0.0,0.0,173.6,3,10,--.--,--.--,--.--,0.0,0.0,0.0,0,0,0,--.--,--.--,--.--
2020-08-02 14:59:43.827,-85.1,-82.0,255,-3.0,0.9,-2.4,17.1,17.2,-0.2,50.9,100.7,453.9,00:01:08,269.3,168,103,--.--,38,0000:36:01,11.32,51,0,-1.00,--.--,-11.32,--.--,0,--.--,--.--,--.--,--.--,--.--,--.--,--.--,0,14:59:43,2020-08-02,--.--,--.--,--.--,--.--,--.--,--.--,--.--,0.00,--.--,--.--,true,true,true,true,true,true,false,false,true,true,false,false,0.07,0.13,0.01,0.05,0.00,0.00,0.41,0.20,43.9457490,-78.9001509,17TPJ 68508 67990,0.0,0.0,169.5,3,10,--.--,--.--,--.--,0.0,0.0,0.0,0,0,0,--.--,--.--,--.--
2020-08-02 14:59:44.833,-82.4,-84.0,250,-1.8,0.4,-2.1,17.0,16.9,-0.1,50.8,100.7,468.1,00:01:09,263.1,168,100,--.--,39,0000:36:01,11.32,51,0,-1.00,--.--,-11.32,--.--,0,--.--,--.--,--.--,--.--,--.--,--.--,--.--,0,14:59:44,2020-08-02,--.--,--.--,--.--,--.--,--.--,--.--,--.--,0.00,--.--,--.--,true,true,true,true,true,true,false,false,true,true,false,false,0.10,0.04,0.01,0.03,0.00,0.00,0.43,0.21,43.9457490,-78.9001509,17TPJ 68508 67990,0.0,0.0,169.5,3,10,--.--,--.--,--.--,0.0,0.0,0.0,0,0,0,--.--,--.--,--.--
2020-08-02 14:59:45.824,-79.2,-85.3,245,-1.0,0.2,-1.6,16.9,17.3,-0.0,50.8,100.6,484.5,00:01:10,257.0,168,97,--.--,38,0000:36:01,11.32,51,0,-1.00,--.--,-11.32,--.--,0,--.--,--.--,--.--,--.--,--.--,--.--,--.--,0,14:59:45,2020-08-02,--.--,--.--,--.--,--.--,--.--,--.--,--.--,0.00,--.--,--.--,true,true,true,true,true,true,false,false,true,true,false,false,0.10,0.04,0.01,0.03,0.00,0.00,0.43,0.21,43.9455943,-78.9001044,17TPJ 68512 67973,0.0,0.0,166.3,3,10,--.--,--.--,--.--,0.0,0.0,0.0,0,0,0,--.--,--.--,--.--
2020-08-02 14:59:46.834,-74.0,-86.4,239,-0.1,0.1,-1.3,16.7,16.5,0.0,50.8,100.7,498.9,00:01:11,251.5,168,93,--.--,38,0000:36:01,11.32,51,0,-1.00,--.--,-11.32,--.--,0,--.--,--.--,--.--,--.--,--.--,--.--,--.--,0,14:59:46,2020-08-02,--.--,--.--,--.--,--.--,--.--,--.--,--.--,0.00,--.--,--.--,true,true,true,true,true,true,false,false,true,true,false,false,0.10,0.04,0.01,0.03,0.00,0.00,0.43,0.21,43.9454406,-78.9000487,17TPJ 68517 67956,0.0,0.0,164.6,3,10,--.--,--.--,--.--,0.0,0.0,0.0,0,0,0,--.--,--.--,--.--
2020-08-02 14:59:47.836,-72.9,-87.1,238,-0.5,0.1,-0.9,16.7,16.7,0.0,50.9,100.7,513.3,00:01:12,247.2,168,90,--.--,38,0000:36:01,11.32,51,0,-1.00,--.--,-11.32,--.--,0,--.--,--.--,--.--,--.--,--.--,--.--,--.--,0,14:59:47,2020-08-02,--.--,--.--,--.--,--.--,--.--,--.--,--.--,0.00,--.--,--.--,true,true,true,true,true,true,false,false,true,true,false,false,0.08,0.12,0.00,0.02,0.00,0.00,0.42,0.20,43.9452903,-78.8999889,17TPJ 68522 67940,0.0,0.0,163.6,3,10,--.--,--.--,--.--,0.0,0.0,0.0,0,0,0,--.--,--.--,--.--
2020-08-02 14:59:48.851,-71.6,-87.6,237,0.1,0.0,-0.5,16.7,17.0,0.0,50.9,100.7,525.6,00:01:13,243.5,158,87,--.--,38,0000:36:01,11.32,51,0,-1.00,--.--,-11.32,--.--,0,--.--,--.--,--.--,--.--,--.--,--.--,--.--,0,14:59:48,2020-08-02,--.--,--.--,--.--,--.--,--.--,--.--,--.--,0.00,--.--,--.--,true,true,true,true,true,true,false,false,true,true,false,false,0.08,0.12,0.00,0.02,0.00,0.00,0.42,0.20,43.9451409,-78.8999273,17TPJ 68527 67923,0.0,0.0,163.3,3,10,--.--,--.--,--.--,0.0,0.0,0.0,0,0,0,--.--,--.--,--.--
2020-08-02 14:59:49.841,-85.9,-49.7,239,-18.7,27.4,-10.5,16.8,16.3,-0.3,50.8,100.6,544.2,00:01:14,239.3,7,83,--.--,44,0000:36:01,11.32,51,0,-1.00,--.--,-11.32,--.--,0,--.--,--.--,--.--,--.--,--.--,--.--,--.--,0,14:59:49,2020-08-02,--.--,--.--,--.--,--.--,--.--,--.--,--.--,0.00,--.--,--.--,true,true,true,true,true,true,false,false,true,true,false,false,0.03,0.16,0.01,0.03,0.00,0.00,0.42,0.20,43.9449937,-78.8998659,17TPJ 68533 67907,0.0,0.0,163.1,3,10,--.--,--.--,--.--,0.0,0.0,0.0,0,0,0,--.--,--.--,--.--
2020-08-02 14:59:50.832,-82.9,-52.9,208,-22.6,19.4,-2.9,16.0,15.9,0.5,51.2,101.0,559.6,00:01:15,230.7,7,80,--.--,44,0000:36:01,11.32,51,0,-1.00,--.--,-11.32,--.--,0,--.--,--.--,--.--,--.--,--.--,--.--,--.--,0,14:59:50,2020-08-02,--.--,--.--,--.--,--.--,--.--,--.--,--.--,0.00,--.--,--.--,true,true,true,true,true,true,false,false,true,true,false,false,0.03,0.16,0.01,0.03,0.00,0.00,0.42,0.20,43.9448556,-78.8997765,17TPJ 68540 67892,0.0,0.0,140.9,3,10,--.--,--.--,--.--,0.0,0.0,0.0,0,0,0,--.--,--.--,--.--
2020-08-02 14:59:51.832,-83.8,-53.5,188,-22.4,12.3,-1.7,15.8,15.6,0.6,51.6,101.4,570.6,00:01:16,221.3,7,78,--.--,44,0000:36:01,11.32,51,0,-1.00,--.--,-11.32,--.--,0,--.--,--.--,--.--,--.--,--.--,--.--,--.--,0,14:59:51,2020-08-02,--.--,--.--,--.--,--.--,--.--,--.--,--.--,0.00,--.--,--.--,true,true,true,true,true,true,false,false,true,true,false,false,0.06,0.02,0.00,0.03,0.00,0.00,0.41,0.20,43.9447673,-78.8996166,17TPJ 68553 67882,0.0,0.0,112.5,3,10,--.--,--.--,--.--,0.0,0.0,0.0,0,0,0,--.--,--.--,--.--
2020-08-02 14:59:52.835,-87.1,-53.1,172,-19.6,12.5,-0.2,16.0,16.3,-0.0,51.6,101.5,584.0,00:01:17,209.7,7,77,--.--,42,0000:36:01,11.32,51,0,-1.00,--.--,-11.32,--.--,0,--.--,--.--,--.--,--.--,--.--,--.--,--.--,0,14:59:52,2020-08-02,--.--,--.--,--.--,--.--,--.--,--.--,--.--,0.00,--.--,--.--,true,true,true,true,true,true,false,false,true,true,false,false,0.06,0.02,0.00,0.03,0.00,0.00,0.41,0.20,43.9447673,-78.8996166,17TPJ 68553 67882,0.0,0.0,112.5,3,10,--.--,--.--,--.--,0.0,0.0,0.0,0,0,0,--.--,--.--,--.--
2020-08-02 14:59:53.831,-88.2,-52.6,152,-19.0,15.6,-0.3,16.2,16.3,-0.4,51.3,101.1,597.7,00:01:18,195.2,7,78,--.--,42,0000:36:01,11.32,51,0,-1.00,--.--,-11.32,--.--,0,--.--,--.--,--.--,--.--,--.--,--.--,--.--,0,14:59:53,2020-08-02,--.--,--.--,--.--,--.--,--.--,--.--,--.--,0.00,--.--,--.--,true,true,true,true,true,true,false,false,true,true,false,false,0.06,0.08,0.01,0.01,0.00,0.00,0.41,0.20,43.9447442,-78.8994177,17TPJ 68569 67880,0.0,0.0,86.3,3,10,--.--,--.--,--.--,0.0,0.0,0.0,0,0,0,--.--,--.--,--.--
2020-08-02 14:59:54.836,-85.9,-53.8,127,-21.3,17.5,-3.7,16.0,16.2,-0.2,50.9,100.8,613.4,00:01:19,182.0,7,80,--.--,43,0000:36:01,11.32,51,0,-1.00,--.--,-11.32,--.--,0,--.--,--.--,--.--,--.--,--.--,--.--,--.--,0,14:59:54,2020-08-02,--.--,--.--,--.--,--.--,--.--,--.--,--.--,0.00,--.--,--.--,true,true,true,true,true,true,false,false,true,true,false,false,0.06,0.08,0.01,0.01,0.00,0.00,0.41,0.20,43.9447837,-78.8992193,17TPJ 68585 67885,0.0,0.0,62.3,3,10,--.--,--.--,--.--,0.0,0.0,0.0,0,0,0,--.--,--.--,--.--
2020-08-02 14:59:55.836,-85.8,-57.5,103,-19.8,9.0,-6.0,15.9,16.1,0.0,50.9,100.8,626.7,00:01:20,173.4,7,83,--.--,43,0000:36:01,11.32,51,0,-1.00,--.--,-11.32,--.--,0,--.--,--.--,--.--,--.--,--.--,--.--,--.--,0,14:59:55,2020-08-02,--.--,--.--,--.--,--.--,--.--,--.--,--.--,0.00,--.--,--.--,true,true,true,true,true,true,false,false,true,true,false,false,0.06,0.08,0.01,0.01,0.00,0.00,0.41,0.20,43.9448559,-78.8990889,17TPJ 68596 67893,0.0,0.0,41.4,3,10,--.--,--.--,--.--,0.0,0.0,0.0,0,0,0,--.--,--.--,--.--
2020-08-02 14:59:56.834,-90.1,-64.2,89,-13.8,5.0,-8.3,16.4,16.1,-0.5,50.8,100.6,642.1,00:01:21,170.2,7,88,--.--,41,0000:36:01,11.32,51,0,-1.00,--.--,-11.32,--.--,0,--.--,--.--,--.--,--.--,--.--,--.--,--.--,0,14:59:56,2020-08-02,--.--,--.--,--.--,--.--,--.--,--.--,--.--,0.00,--.--,--.--,true,true,true,true,true,true,false,false,true,true,false,false,0.12,0.13,0.01,0.01,0.00,0.00,0.43,0.21,43.9449836,-78.8989944,17TPJ 68603 67908,0.0,0.0,15.0,3,10,--.--,--.--,--.--,0.0,0.0,0.0,0,0,0,--.--,--.--,--.--
2020-08-02 14:59:57.835,-91.7,-72.8,79,-8.1,2.8,-9.0,16.7,16.6,-0.5,50.3,100.1,659.9,00:01:22,173.0,7,94,--.--,39,0000:36:01,11.32,51,0,-1.00,--.--,-11.32,--.--,0,--.--,--.--,--.--,--.--,--.--,--.--,--.--,0,14:59:57,2020-08-02,--.--,--.--,--.--,--.--,--.--,--.--,--.--,0.00,--.--,--.--,true,true,true,true,true,true,false,false,true,true,false,false,0.12,0.13,0.01,0.01,0.00,0.00,0.43,0.21,43.9451317,-78.8989762,17TPJ 68604 67924,0.0,0.0,356.1,3,10,--.--,--.--,--.--,0.0,0.0,0.0,0,0,0,--.--,--.--,--.--
2020-08-02 14:59:58.826,-90.1,-81.0,71,-3.5,1.1,-6.7,16.8,16.3,-0.3,50.0,99.8,676.6,00:01:23,179.9,7,99,--.--,39,0000:36:01,11.32,51,0,-1.00,--.--,-11.32,--.--,0,--.--,--.--,--.--,--.--,--.--,--.--,--.--,0,14:59:58,2020-08-02,--.--,--.--,--.--,--.--,--.--,--.--,--.--,0.00,--.--,--.--,true,true,true,true,true,true,false,false,true,true,false,false,0.06,0.04,0.00,0.01,0.00,0.00,0.42,0.21,43.9452815,-78.8990135,17TPJ 68600 67941,0.0,0.0,344.6,3,10,--.--,--.--,--.--,0.0,0.0,0.0,0,0,0,--.--,--.--,--.--
2020-08-02 14:59:59.832,-86.1,-86.2,66,-0.2,0.7,-4.6,16.8,16.7,-0.2,49.8,99.7,690.9,00:01:24,188.1,7,103,--.--,40,0000:36:01,11.32,51,0,-1.00,--.--,-11.32,--.--,0,--.--,--.--,--.--,--.--,--.--,--.--,--.--,0,14:59:59,2020-08-02,--.--,--.--,--.--,--.--,--.--,--.--,--.--,0.00,--.--,--.--,true,true,true,true,true,true,false,false,true,true,false,false,0.06,0.04,0.00,0.01,0.00,0.00,0.42,0.21,43.9454281,-78.8990818,17TPJ 68595 67957,0.0,0.0,339.1,3,10,--.--,--.--,--.--,0.0,0.0,0.0,0,0,0,--.--,--.--,--.--
2020-08-02 15:00:00.838,-4.3,-89.3,345,1.7,0.7,-2.5,16.7,16.4,-0.0,49.8,99.6,707.3,00:01:25,198.3,7,107,--.--,40,0000:36:01,11.32,51,0,-1.00,--.--,-11.32,--.--,0,--.--,--.--,--.--,--.--,--.--,--.--,--.--,0,15:00:00,2020-08-02,--.--,--.--,--.--,--.--,--.--,--.--,--.--,0.00,--.--,--.--,true,true,true,true,true,true,false,false,true,true,false,false,0.03,0.10,0.01,0.00,0.00,0.00,0.42,0.20,43.9455720,-78.8991616,17TPJ 68588 67973,0.0,0.0,337.9,3,10,--.--,--.--,--.--,0.0,0.0,0.0,0,0,0,--.--,--.--,--.--
2020-08-02 15:00:01.836,61.7,-88.3,281,2.6,0.4,-1.4,16.6,16.2,0.0,49.8,99.7,723.2,00:01:26,207.5,7,110,--.--,40,0000:36:01,11.32,51,0,-1.00,--.--,-11.32,--.--,0,--.--,--.--,--.--,--.--,--.--,--.--,--.--,0,15:00:01,2020-08-02,--.--,--.--,--.--,--.--,--.--,--.--,--.--,0.00,--.--,--.--,true,true,true,true,true,true,false,false,true,true,false,false,0.03,0.10,0.01,0.00,0.00,0.00,0.42,0.20,43.9457141,-78.8992397,17TPJ 68581 67988,0.0,0.0,339.2,3,10,--.--,--.--,--.--,0.0,0.0,0.0,0,0,0,--.--,--.--,--.--
2020-08-02 15:00:02.835,65.8,-87.5,279,3.0,0.5,-0.6,16.4,16.8,0.1,49.9,99.7,736.9,00:01:27,217.0,7,113,--.--,39,0000:36:01,11.32,51,0,-1.00,--.--,-11.32,--.--,0,--.--,--.--,--.--,--.--,--.--,--.--,--.--,0,15:00:02,2020-08-02,--.--,--.--,--.--,--.--,--.--,--.--,--.--,0.00,--.--,--.--,true,true,true,true,true,true,false,false,true,true,false,false,0.04,0.03,0.00,0.04,0.00,0.00,0.41,0.20,43.9458587,-78.8993108,17TPJ 68575 68004,0.0,0.0,341.8,3,10,--.--,--.--,--.--,0.0,0.0,0.0,0,0,0,--.--,--.--,--.--
2020-08-02 15:00:03.834,68.2,-87.2,280,2.7,0.5,-0.1,16.4,16.4,0.1,50.0,99.8,754.9,00:01:28,227.7,7,117,--.--,39,0000:36:01,11.32,51,0,-1.00,--.--,-11.32,--.--,0,--.--,--.--,--.--,--.--,--.--,--.--,--.--,0,15:00:03,2020-08-02,--.--,--.--,--.--,--.--,--.--,--.--,--.--,0.00,--.--,--.--,true,true,true,true,true,true,false,false,true,true,false,false,0.04,0.03,0.00,0.04,0.00,0.00,0.41,0.20,43.9460041,-78.8993716,17TPJ 68570 68020,0.0,0.0,344.8,3,10,--.--,--.--,--.--,0.0,0.0,0.0,0,0,0,--.--,--.--,--.--
2020-08-02 15:00:04.834,68.0,-87.2,282,2.3,0.2,0.1,16.5,16.4,0.2,50.1,99.9,768.9,00:01:29,237.4,--.--,119,--.--,39,0000:36:01,11.32,51,0,-1.00,--.--,-11.32,--.--,0,--.--,--.--,--.--,--.--,--.--,--.--,--.--,0,15:00:04,2020-08-02,--.--,--.--,--.--,--.--,--.--,--.--,--.--,0.00,--.--,--.--,true,true,true,true,true,true,false,false,true,true,false,false,0.03,0.11,0.00,0.04,0.00,0.00,0.41,0.20,43.9461525,-78.8994223,17TPJ 68565 68037,0.0,0.0,347.6,3,10,--.--,--.--,--.--,0.0,0.0,0.0,0,0,0,--.--,--.--,--.--
2020-08-02 15:00:05.833,86.4,-75.6,267,10.6,2.4,-72.2,16.5,16.5,0.2,50.2,100.1,785.5,00:01:30,247.4,14,122,--.--,38,0000:36:01,11.32,51,0,-1.00,--.--,-11.32,--.--,0,--.--,--.--,--.--,--.--,--.--,--.--,--.--,0,15:00:05,2020-08-02,--.--,--.--,--.--,--.--,--.--,--.--,--.--,0.00,--.--,--.--,true,true,true,true,true,true,false,false,true,true,false,false,0.03,0.11,0.00,0.04,0.00,0.00,0.41,0.20,43.9463011,-78.8994630,17TPJ 68561 68053,0.0,0.0,350.0,3,10,--.--,--.--,--.--,0.0,0.0,0.0,0,0,0,--.--,--.--,--.--
2020-08-02 15:00:06.860,84.4,-71.8,278,10.8,-1.8,2.5,16.4,16.5,0.4,50.4,100.2,796.1,00:01:31,254.5,176,124,--.--,38,0000:36:01,11.32,51,0,-1.00,--.--,-11.32,--.--,0,--.--,--.--,--.--,--.--,--.--,--.--,--.--,0,15:00:06,2020-08-02,--.--,--.--,--.--,--.--,--.--,--.--,--.--,0.00,--.--,--.--,true,true,true,true,true,true,false,false,true,true,false,false,0.21,0.14,0.00,0.05,0.00,0.00,0.43,0.21,43.9463011,-78.8994630,17TPJ 68561 68053,0.0,0.0,350.0,3,10,--.--,--.--,--.--,0.0,0.0,0.0,0,0,0,--.--,--.--,--.--
2020-08-02 15:00:07.834,85.3,-54.2,298,18.1,7.5,3.8,16.0,16.5,0.4,50.6,100.4,811.8,00:01:32,261.5,176,127,--.--,41,0000:36:01,11.32,51,0,-1.00,--.--,-11.32,--.--,0,--.--,--.--,--.--,--.--,--.--,--.--,--.--,0,15:00:07,2020-08-02,--.--,--.--,--.--,--.--,--.--,--.--,--.--,0.00,--.--,--.--,true,true,true,true,true,true,false,false,true,true,false,false,0.21,0.14,0.00,0.05,0.00,0.00,0.43,0.21,43.9464225,-78.8994820,17TPJ 68560 68066,0.0,0.0,359.6,3,10,--.--,--.--,--.--,0.0,0.0,0.0,0,0,0,--.--,--.--,--.--
2020-08-02 15:00:08.834,85.3,-54.2,322,20.7,18.0,1.7,15.6,15.7,0.2,50.7,100.6,829.4,00:01:33,263.4,176,131,--.--,43,0000:36:01,11.32,51,0,-1.00,--.--,-11.32,--.--,0,--.--,--.--,--.--,--.--,--.--,--.--,--.--,0,15:00:08,2020-08-02,--.--,--.--,--.--,--.--,--.--,--.--,--.--,0.00,--.--,--.--,true,true,true,true,true,true,false,false,true,true,false,false,0.16,0.08,0.00,0.08,0.00,0.00,0.43,0.20,43.9465717,-78.8994556,17TPJ 68561 68083,0.0,0.0,19.3,3,10,--.--,--.--,--.--,0.0,0.0,0.0,0,0,0,--.--,--.--,--.--
2020-08-02 15:00:09.834,83.6,-54.7,348,22.4,13.9,1.9,15.2,15.4,0.6,51.2,101.0,842.5,00:01:34,260.1,176,134,--.--,43,0000:36:01,11.32,51,0,-1.00,--.--,-11.32,--.--,0,--.--,--.--,--.--,--.--,--.--,--.--,--.--,0,15:00:09,2020-08-02,--.--,--.--,--.--,--.--,--.--,--.--,--.--,0.00,--.--,--.--,true,true,true,true,true,true,false,false,true,true,false,false,0.16,0.08,0.00,0.08,0.00,0.00,0.43,0.20,43.9466998,-78.8993527,17TPJ 68569 68097,0.0,0.0,42.1,3,10,--.--,--.--,--.--,0.0,0.0,0.0,0,0,0,--.--,--.--,--.--
2020-08-02 15:00:10.835,88.5,-54.3,8,20.0,11.0,-0.5,15.3,15.1,0.0,51.5,101.3,857.6,00:01:35,250.9,176,137,--.--,41,0000:36:01,11.32,51,0,-1.00,--.--,-11.32,--.--,0,--.--,--.--,--.--,--.--,--.--,--.--,--.--,0,15:00:10,2020-08-02,--.--,--.--,--.--,--.--,--.--,--.--,--.--,0.00,--.--,--.--,true,true,true,true,true,true,false,false,true,true,false,false,0.16,0.08,0.00,0.08,0.00,0.00,0.43,0.20,43.9467798,-78.8991908,17TPJ 68582 68107,0.0,0.0,70.0,3,10,--.--,--.--,--.--,0.0,0.0,0.0,0,0,0,--.--,--.--,--.--
2020-08-02 15:00:11.836,90.4,-53.7,26,19.3,13.8,-0.3,15.7,15.3,-0.5,51.2,101.0,870.9,00:01:36,239.9,176,138,--.--,40,0000:36:01,11.32,51,0,-1.00,--.--,-11.32,--.--,0,--.--,--.--,--.--,--.--,--.--,--.--,--.--,0,15:00:11,2020-08-02,--.--,--.--,--.--,--.--,--.--,--.--,--.--,0.00,--.--,--.--,true,true,true,true,true,true,false,false,true,true,false,false,0.05,0.10,0.00,0.06,0.00,0.00,0.42,0.21,43.9467977,-78.8989960,17TPJ 68598 68109,0.0,0.0,95.2,3,10,--.--,--.--,--.--,0.0,0.0,0.0,0,0,0,--.--,--.--,--.--
2020-08-02 15:00:12.821,88.1,-54.4,50,21.3,18.7,2.7,15.5,15.6,-0.3,50.8,100.7,883.8,00:01:37,227.2,176,139,--.--,42,0000:36:01,11.32,51,0,-1.00,--.--,-11.32,--.--,0,--.--,--.--,--.--,--.--,--.--,--.--,--.--,0,15:00:12,2020-08-02,--.--,--.--,--.--,--.--,--.--,--.--,--.--,0.00,--.--,--.--,true,true,true,true,true,true,false,false,true,true,false,false,0.05,0.10,0.00,0.06,0.00,0.00,0.42,0.21,43.9467566,-78.8988053,17TPJ 68613 68105,0.0,0.0,118.7,3,10,--.--,--.--,--.--,0.0,0.0,0.0,0,0,0,--.--,--.--,--.--
2020-08-02 15:00:13.834,86.2,-57.4,75,21.0,11.3,5.7,15.2,15.7,0.3,50.9,100.7,898.7,00:01:38,213.9,176,139,--.--,42,0000:36:01,11.32,51,0,-1.00,--.--,-11.32,--.--,0,--.--,--.--,--.--,--.--,--.--,--.--,--.--,0,15:00:13,2020-08-02,--.--,--.--,--.--,--.--,--.--,--.--,--.--,0.00,--.--,--.--,true,true,true,true,true,true,false,false,true,true,false,false,0.14,0.08,0.00,0.06,0.00,0.00,0.41,0.21,43.9466616,-78.8986565,17TPJ 68625 68095,0.0,0.0,145.9,3,10,--.--,--.--,--.--,0.0,0.0,0.0,0,0,0,--.--,--.--,--.--
2020-08-02 15:00:14.835,91.3,-63.1,91,15.5,5.4,7.1,15.6,15.7,-0.3,50.8,100.6,913.9,00:01:39,200.9,176,136,--.--,40,0000:36:01,11.32,51,0,-1.00,--.--,-11.32,--.--,0,--.--,--.--,--.--,--.--,--.--,--.--,--.--,0,15:00:14,2020-08-02,--.--,--.--,--.--,--.--,--.--,--.--,--.--,0.00,--.--,--.--,true,true,true,true,true,true,false,false,true,true,false,false,0.14,0.08,0.00,0.06,0.00,0.00,0.41,0.21,43.9465288,-78.8985860,17TPJ 68631 68080,0.0,0.0,171.5,3,10,--.--,--.--,--.--,0.0,0.0,0.0,0,0,0,--.--,--.--,--.--
2020-08-02 15:00:15.838,94.0,-70.9,100,9.5,3.5,9.1,16.1,16.2,-0.5,50.3,100.1,927.5,00:01:40,191.9,176,133,--.--,38,0000:36:01,11.32,51,0,-1.00,--.--,-11.32,--.--,0,--.--,--.--,--.--,--.--,--.--,--.--,--.--,0,15:00:15,2020-08-02,--.--,--.--,--.--,--.--,--.--,--.--,--.--,0.00,--.--,--.--,true,true,true,true,true,true,false,false,true,true,false,false,0.05,0.08,0.00,0.05,0.00,0.00,0.41,0.21,43.9463835,-78.8985880,17TPJ 68631 68064,0.0,0.0,188.7,3,10,--.--,--.--,--.--,0.0,0.0,0.0,0,0,0,--.--,--.--,--.--
2020-08-02 15:00:16.835,94.2,-79.8,107,4.4,2.0,8.0,16.6,16.5,-0.4,49.7,99.5,944.6,00:01:41,185.2,176,128,--.--,38,0000:36:01,11.32,51,0,-1.00,--.--,-11.32,--.--,0,--.--,--.--,--.--,--.--,--.--,--.--,--.--,0,15:00:16,2020-08-02,--.--,--.--,--.--,--.--,--.--,--.--,--.--,0.00,--.--,--.--,true,true,true,true,true,true,false,false,true,true,false,false,0.05,0.08,0.00,0.05,0.00,0.00,0.41,0.21,43.9462372,-78.8986396,17TPJ 68628 68048,0.0,0.0,198.7,3,10,--.--,--.--,--.--,0.0,0.0,0.0,0,0,0,--.--,--.--,--.--
2020-08-02 15:00:17.835,92.7,-85.6,110,0.7,0.3,4.8,16.6,16.2,-0.2,49.5,99.3,959.8,00:01:42,181.6,176,124,--.--,39,0000:36:01,11.32,51,0,-1.00,--.--,-11.32,--.--,0,--.--,--.--,--.--,--.--,--.--,--.--,--.--,0,15:00:17,2020-08-02,--.--,--.--,--.--,--.--,--.--,--.--,--.--,0.00,--.--,--.--,true,true,true,true,true,true,false,false,true,true,false,false,0.04,0.13,0.01,0.03,0.00,0.00,0.43,0.21,43.9461236,-78.8986994,17TPJ 68623 68035,0.0,0.0,202.3,3,10,--.--,--.--,--.--,0.0,0.0,0.0,0,0,0,--.--,--.--,--.--
2020-08-02 15:00:18.835,60.3,-89.4,142,-1.6,0.0,3.4,16.6,16.3,-0.0,49.4,99.2,975.7,00:01:43,179.1,176,119,--.--,40,0000:36:01,11.32,51,0,-1.00,--.--,-11.32,--.--,0,--.--,--.--,--.--,--.--,--.--,--.--,--.--,0,15:00:18,2020-08-02,--.--,--.--,--.--,--.--,--.--,--.--,--.--,0.00,--.--,--.--,true,true,true,true,true,true,false,false,true,true,false,false,0.04,0.13,0.01,0.03,0.00,0.00,0.43,0.21,43.9459843,-78.8987808,17TPJ 68617 68019,0.0,0.0,202.9,3,10,--.--,--.--,--.--,0.0,0.0,0.0,0,0,0,--.--,--.--,--.--
2020-08-02 15:00:19.835,-66.6,-88.2,266,-3.0,0.3,1.4,16.6,16.3,0.1,49.4,99.2,991.9,00:01:44,177.7,176,113,--.--,40,0000:36:01,11.32,51,0,-1.00,--.--,-11.32,--.--,0,--.--,--.--,--.--,--.--,--.--,--.--,--.--,0,15:00:19,2020-08-02,--.--,--.--,--.--,--.--,--.--,--.--,--.--,0.00,--.--,--.--,true,true,true,true,true,true,false,false,true,true,false,false,0.07,0.03,0.00,0.02,0.00,0.00,0.42,0.20,43.9458442,-78.8988600,17TPJ 68611 68003,0.0,0.0,201.0,3,10,--.--,--.--,--.--,0.0,0.0,0.0,0,0,0,--.--,--.--,--.--
2020-08-02 15:00:20.839,-70.7,-87.4,267,-3.5,-0.0,0.5,16.6,16.6,0.1,49.4,99.3,1008.1,00:01:45,177.1,176,109,--.--,40,0000:36:01,11.32,51,0,-1.00,--.--,-11.32,--.--,0,--.--,--.--,--.--,--.--,--.--,--.--,--.--,0,15:00:20,2020-08-02,--.--,--.--,--.--,--.--,--.--,--.--,--.--,0.00,--.--,--.--,true,true,true,true,true,true,false,false,true,true,false,false,0.07,0.03,0.00,0.02,0.00,0.00,0.42,0.20,43.9457018,-78.8989304,17TPJ 68606 67987,0.0,0.0,197.9,3,10,--.--,--.--,--.--,0.0,0.0,0.0,0,0,0,--.--,--.--,--.--
2020-08-02 15:00:21.832,-69.9,-87.2,263,-3.3,0.4,-0.2,16.7,16.4,0.1,49.5,99.3,1021.6,00:01:46,176.9,176,104,--.--,40,0000:36:01,11.32,51,0,-1.00,--.--,-11.32,--.--,0,--.--,--.--,--.--,--.--,--.--,--.--,--.--,0,15:00:21,2020-08-02,--.--,--.--,--.--,--.--,--.--,--.--,--.--,0.00,--.--,--.--,true,true,true,true,true,true,false,false,true,true,false,false,0.09,0.09,0.01,0.01,0.00,0.00,0.42,0.21,43.9457018,-78.8989304,17TPJ 68606 67987,0.0,0.0,197.9,3,10,--.--,--.--,--.--,0.0,0.0,0.0,0,0,0,--.--,--.--,--.--
2020-08-02 15:00:22.836,-64.7,-87.3,255,-3.0,0.0,-0.6,16.7,16.7,0.2,49.6,99.5,1036.5,00:01:47,177.2,176,99,--.--,39,0000:36:01,11.32,51,0,-1.00,--.--,-11.32,--.--,0,--.--,--.--,--.--,--.--,--.--,--.--,--.--,0,15:00:22,2020-08-02,--.--,--.--,--.--,--.--,--.--,--.--,--.--,0.00,--.--,--.--,true,true,true,true,true,true,false,false,true,true,false,false,0.09,0.09,0.01,0.01,0.00,0.00,0.42,0.21,43.9455577,-78.8989882,17TPJ 68602 67971,0.0,0.0,194.3,3,10,--.--,--.--,--.--,0.0,0.0,0.0,0,0,0,--.--,--.--,--.--
2020-08-02 15:00:23.834,-57.3,-87.6,245,-2.4,0.6,-0.6,16.6,16.6,0.1,49.8,99.6,1052.2,00:01:48,178.0,176,94,--.--,38,0000:36:01,11.32,51,0,-1.00,--.--,-11.32,--.--,0,--.--,--.--,--.--,--.--,--.--,--.--,--.--,0,15:00:23,2020-08-02,--.--,--.--,--.--,--.--,--.--,--.--,--.--,0.00,--.--,--.--,true,true,true,true,true,true,false,false,true,true,false,false,0.09,0.09,0.01,0.01,0.00,0.00,0.42,0.21,43.9454098,-78.8990341,17TPJ 68598 67955,0.0,0.0,190.9,3,10,--.--,--.--,--.--,0.0,0.0,0.0,0,0,0,--.--,--.--,--.--
2020-08-02 15:00:24.816,-50.0,-88.0,236,-2.0,-0.1,-0.4,16.5,16.5,0.1,49.9,99.8,1068.2,00:01:49,179.6,176,89,--.--,38,0000:36:01,11.32,51,0,-1.00,--.--,-11.32,--.--,0,--.--,--.--,--.--,--.--,--.--,--.--,--.--,0,15:00:24,2020-08-02,--.--,--.--,--.--,--.--,--.--,--.--,--.--,0.00,--.--,--.--,true,true,true,true,true,true,false,false,true,true,false,false,0.08,0.06,0.00,0.01,0.00,0.00,0.42,0.20,43.9452613,-78.8990686,17TPJ 68596 67938,0.0,0.0,188.1,3,10,--.--,--.--,--.--,0.0,0.0,0.0,0,0,0,--.--,--.--,--.--
2020-08-02 15:00:25.834,-36.9,-88.3,221,-1.2,0.1,-1.0,16.5,16.6,0.1,50.0,99.9,1084.4,00:01:50,182.1,176,84,--.--,37,0000:36:01,11.32,51,0,-1.00,--.--,-11.32,--.--,0,--.--,--.--,--.--,--.--,--.--,--.--,--.--,0,15:00:25,2020-08-02,--.--,--.--,--.--,--.--,--.--,--.--,--.--,0.00,--.--,--.--,true,true,true,true,true,true,false,false,true,true,false,false,0.08,0.06,0.00,0.01,0.00,0.00,0.42,0.20,43.9451103,-78.8990942,17TPJ 68594 67921,0.0,0.0,185.9,3,10,--.--,--.--,--.--,0.0,0.0,0.0,0,0,0,--.--,--.--,--.--
2020-08-02 15:00:26.832,-25.9,-88.4,209,-1.0,0.1,-1.0,16.5,16.3,0.1,50.2,100.0,1101.1,00:01:51,185.7,176,79,--.--,37,0000:36:01,11.32,51,0,-1.00,--.--,-11.32,--.--,0,--.--,--.--,--.--,--.--,--.--,--.--,--.--,0,15:00:26,2020-08-02,--.--,--.--,--.--,--.--,--.--,--.--,--.--,0.00,--.--,--.--,true,true,true,true,true,true,false,false,true,true,false,false,0.09,0.07,0.01,0.03,0.00,0.00,0.41,0.20,43.9449596,-78.8991127,17TPJ 68593 67905,0.0,0.0,184.2,3,10,--.--,--.--,--.--,0.0,0.0,0.0,0,0,0,--.--,--.--,--.--
2020-08-02 15:00:27.834,-18.8,-88.7,201,-0.6,-0.3,0.4,16.5,16.3,0.1,50.3,100.1,1117.2,00:01:52,190.5,176,74,--.--,37,0000:36:01,11.32,51,0,-1.00,--.--,-11.32,--.--,0,--.--,--.--,--.--,--.--,--.--,--.--,--.--,0,15:00:27,2020-08-02,--.--,--.--,--.--,--.--,--.--,--.--,--.--,0.00,--.--,--.--,true,true,true,true,true,true,false,false,true,true,false,false,0.09,0.07,0.01,0.03,0.00,0.00,0.41,0.20,43.9448076,-78.8991263,17TPJ 68593 67888,0.0,0.0,183.1,3,10,--.--,--.--,--.--,0.0,0.0,0.0,0,0,0,--.--,--.--,--.--
2020-08-02 15:00:28.832,-10.8,-88.7,193,-0.6,-0.0,0.6,16.4,16.5,0.1,50.4,100.2,1135.4,00:01:53,196.2,176,69,--.--,36,0000:36:01,11.32,51,0,-1.00,--.--,-11.32,--.--,0,--.--,--.--,--.--,--.--,--.--,--.--,--.--,0,15:00:28,2020-08-02,--.--,--.--,--.--,--.--,--.--,--.--,--.--,0.00,--.--,--.--,true,true,true,true,true,true,false,false,true,true,false,false,0.07,0.17,0.00,0.03,0.00,0.00,0.44,0.21,43.9446871,-78.8991344,17TPJ 68592 67874,0.0,0.0,182.5,3,10,--.--,--.--,--.--,0.0,0.0,0.0,0,0,0,--.--,--.--,--.--
2020-08-02 15:00:29.832,-5.0,-88.7,187,0.0,-0.2,-0.6,16.4,16.6,0.0,50.4,100.3,1146.8,00:01:54,201.4,176,66,--.--,36,0000:36:01,11.32,51,0,-1.00,--.--,-11.32,--.--,0,--.--,--.--,--.--,--.--,--.--,--.--,--.--,0,15:00:29,2020-08-02,--.--,--.--,--.--,--.--,--.--,--.--,--.--,0.00,--.--,--.--,true,true,true,true,true,true,false,false,true,true,false,false,0.07,0.17,0.00,0.03,0.00,0.00,0.44,0.21,43.9445352,-78.8991422,17TPJ 68592 67857,0.0,0.0,181.8,3,10,--.--,--.--,--.--,0.0,0.0,0.0,0,0,0,--.--,--.--,--.--
