Timestamp,roll,pitch,heading,rollRate,pitchRate,yawRate,groundSpeed,airSpeed,climbRate,altitudeRelative,altitudeAMSL,flightDistance,flightTime,distanceToHome,headingToNextWP,headingToHome,distanceToGCS,throttlePct,hobbs,battery.voltage,battery.percentRemaining,battery.mahConsumed,battery.current,battery.temperature,battery.instantPower,battery.timeRemaining,battery.chargeState,battery2.voltage,battery2.percentRemaining,battery2.mahConsumed,battery2.current,battery2.temperature,battery2.instantPower,battery2.timeRemaining,battery2.chargeState,clock.currentTime,clock.currentDate,distanceSensor.rotationNone,distanceSensor.rotationYaw45,distanceSensor.rotationYaw90,distanceSensor.rotationYaw135,distanceSensor.rotationYaw180,distanceSensor.rotationYaw225,distanceSensor.rotationYaw270,distanceSensor.rotationYaw315,distanceSensor.rotationPitch90,distanceSensor.rotationPitch270,estimatorStatus.goodAttitudeEsimate,estimatorStatus.goodHorizVelEstimate,estimatorStatus.goodVertVelEstimate,estimatorStatus.goodHorizPosRelEstimate,estimatorStatus.goodHorizPosAbsEstimate,estimatorStatus.goodVertPosAbsEstimate,estimatorStatus.goodVertPosAGLEstimate,estimatorStatus.goodConstPosModeEstimate,estimatorStatus.goodPredHorizPosRelEstimate,estimatorStatus.goodPredHorizPosAbsEstimate,estimatorStatus.gpsGlitch,estimatorStatus.accelError,estimatorStatus.velRatio,estimatorStatus.horizPosRatio,estimatorStatus.vertPosRatio,estimatorStatus.magRatio,estimatorStatus.haglRatio,estimatorStatus.tasRatio,estimatorStatus.horizPosAccuracy,estimatorStatus.vertPosAccuracy,gps.lat,gps.lon,gps.mgrs,gps.hdop,gps.vdop,gps.courseOverGround,gps.lock,gps.count,temperature.temperature1,temperature.temperature2,temperature.temperature3,vibration.xAxis,vibration.yAxis,vibration.zAxis,vibration.clipCount1,vibration.clipCount2,vibration.clipCount3,wind.direction,wind.speed,wind.verticalSpeed
2020-08-02 18:57:48.809,-1.0,-1.6,31,0.3,0.3,0.3,0.0,3.5,-0.0,-0.0,50.0,0.0,00:00:00,0.1,308,--.--,--.--,0,0001:47:08,--.--,--.--,--.--,--.--,--.--,--.--,--.--,0,--.--,--.--,--.--,--.--,--.--,--.--,--.--,0,18:57:48,2020-08-02,--.--,--.--,--.--,--.--,--.--,--.--,--.--,0.00,--.--,--.--,true,true,true,true,true,true,false,false,true,true,false,false,0.01,0.01,0.00,0.01,0.00,0.00,0.42,0.20,43.9451638,-78.8968383,17TPJ 68775 67932,0.0,0.0,134.4,3,10,--.--,--.--,--.--,0.0,0.0,0.0,0,0,0,--.--,--.--,--.--
2020-08-02 18:57:49.808,-1.0,-1.6,31,0.0,-0.0,0.1,0.0,3.0,-0.0,-0.0,50.0,0.0,00:00:01,0.0,308,--.--,--.--,27,0001:47:08,--.--,--.--,--.--,--.--,--.--,--.--,--.--,0,--.--,--.--,--.--,--.--,--.--,--.--,--.--,0,18:57:49,2020-08-02,--.--,--.--,--.--,--.--,--.--,--.--,--.--,0.00,--.--,--.--,true,true,true,true,true,true,false,false,true,true,false,false,0.03,0.01,0.02,0.01,0.00,0.00,0.43,0.20,43.9451638,-78.8968383,17TPJ 68775 67932,0.0,0.0,273.6,3,10,--.--,--.--,--.--,0.0,0.0,0.0,0,0,0,--.--,--.--,--.--
2020-08-02 18:57:50.816,2.1,0.9,31,8.0,21.0,0.1,0.0,2.0,0.2,-0.0,50.0,0.0,00:00:02,0.0,308,--.--,--.--,61,0001:47:08,--.--,--.--,--.--,--.--,--.--,--.--,--.--,0,--.--,--.--,--.--,--.--,--.--,--.--,--.--,0,18:57:50,2020-08-02,--.--,--.--,--.--,--.--,--.--,--.--,--.--,0.00,--.--,--.--,true,true,true,true,true,true,false,false,true,true,false,false,0.02,0.00,0.01,0.02,0.00,0.00,0.43,0.20,43.9451638,-78.8968383,17TPJ 68775 67932,0.0,0.0,207.5,3,10,--.--,--.--,--.--,0.0,0.0,0.0,0,0,0,--.--,--.--,--.--
2020-08-02 18:57:51.818,-0.7,-1.2,31,-1.7,-0.7,0.0,0.1,-2.7,2.2,1.0,51.1,0.0,00:00:03,0.2,308,--.--,--.--,66,0001:47:08,--.--,--.--,--.--,--.--,--.--,--.--,--.--,0,--.--,--.--,--.--,--.--,--.--,--.--,--.--,0,18:57:51,2020-08-02,--.--,--.--,--.--,--.--,--.--,--.--,--.--,0.00,--.--,--.--,true,true,true,true,true,true,false,false,true,true,false,false,0.02,0.00,0.00,0.03,0.00,0.00,0.43,0.20,43.9451624,-78.8968375,17TPJ 68775 67932,0.0,0.0,154.5,3,10,--.--,--.--,--.--,0.0,0.0,0.0,0,0,0,--.--,--.--,--.--
2020-08-02 18:57:52.817,-1.4,-2.0,31,0.2,-1.1,0.0,0.0,1.4,2.7,3.7,53.7,0.0,00:00:04,0.3,308,--.--,--.--,58,0001:47:08,--.--,--.--,--.--,--.--,--.--,--.--,--.--,0,--.--,--.--,--.--,--.--,--.--,--.--,--.--,0,18:57:52,2020-08-02,--.--,--.--,--.--,--.--,--.--,--.--,--.--,0.00,--.--,--.--,true,true,true,true,true,true,false,false,true,true,false,false,0.02,0.00,0.00,0.00,0.00,0.00,0.46,0.20,43.9451613,-78.8968370,17TPJ 68775 67932,0.0,0.0,177.7,3,10,--.--,--.--,--.--,0.0,0.0,0.0,0,0,0,--.--,--.--,--.--
2020-08-02 18:57:53.819,-1.6,-2.4,31,0.2,-1.2,-0.0,0.1,4.1,1.9,6.1,56.1,0.0,00:00:05,0.3,308,--.--,--.--,57,0001:47:08,--.--,--.--,--.--,--.--,--.--,--.--,--.--,0,--.--,--.--,--.--,--.--,--.--,--.--,--.--,0,18:57:53,2020-08-02,--.--,--.--,--.--,--.--,--.--,--.--,--.--,0.00,--.--,--.--,true,true,true,true,true,true,false,false,true,true,false,false,0.02,0.00,0.00,0.00,0.00,0.00,0.45,0.20,43.9451614,-78.8968370,17TPJ 68775 67932,0.0,0.0,327.3,3,10,--.--,--.--,--.--,0.0,0.0,0.0,0,0,0,--.--,--.--,--.--
2020-08-02 18:57:54.812,-1.5,-2.0,31,0.5,-0.6,-0.0,0.1,-1.9,1.6,7.9,57.9,0.0,00:00:06,0.2,308,--.--,--.--,57,0001:47:08,--.--,--.--,--.--,--.--,--.--,--.--,--.--,0,--.--,--.--,--.--,--.--,--.--,--.--,--.--,0,18:57:54,2020-08-02,--.--,--.--,--.--,--.--,--.--,--.--,--.--,0.00,--.--,--.--,true,true,true,true,true,true,false,false,true,true,false,false,0.01,0.00,0.00,0.02,0.00,0.00,0.45,0.20,43.9451621,-78.8968373,17TPJ 68775 67932,0.0,0.0,348.8,3,10,--.--,--.--,--.--,0.0,0.0,0.0,0,0,0,--.--,--.--,--.--
2020-08-02 18:57:55.813,-1.3,-1.9,31,-0.2,0.2,0.2,0.1,-2.9,1.6,9.5,59.5,0.0,00:00:07,0.1,308,--.--,--.--,58,0001:47:08,--.--,--.--,--.--,--.--,--.--,--.--,--.--,0,--.--,--.--,--.--,--.--,--.--,--.--,--.--,0,18:57:55,2020-08-02,--.--,--.--,--.--,--.--,--.--,--.--,--.--,0.00,--.--,--.--,true,true,true,true,true,true,false,false,true,true,false,false,0.01,0.00,0.00,0.01,0.00,0.00,0.45,0.21,43.9451629,-78.8968377,17TPJ 68775 67932,0.0,0.0,336.9,3,10,--.--,--.--,--.--,0.0,0.0,0.0,0,0,0,--.--,--.--,--.--
2020-08-02 18:57:56.808,-0.8,-1.3,31,0.9,0.1,0.3,0.1,-3.2,2.7,11.2,61.3,0.0,00:00:08,0.1,308,--.--,--.--,65,0001:47:08,--.--,--.--,--.--,--.--,--.--,--.--,--.--,0,--.--,--.--,--.--,--.--,--.--,--.--,--.--,0,18:57:56,2020-08-02,--.--,--.--,--.--,--.--,--.--,--.--,--.--,0.00,--.--,--.--,true,true,true,true,true,true,false,false,true,true,false,false,0.03,0.00,0.00,0.01,0.00,0.00,0.44,0.21,43.9451634,-78.8968380,17TPJ 68775 67932,0.0,0.0,324.1,3,10,--.--,--.--,--.--,0.0,0.0,0.0,0,0,0,--.--,--.--,--.--
2020-08-02 18:57:57.808,-0.8,-1.6,31,0.6,-1.6,-0.2,0.0,-2.1,3.0,14.1,64.2,0.0,00:00:09,0.0,308,--.--,--.--,60,0001:47:08,--.--,--.--,--.--,--.--,--.--,--.--,--.--,0,--.--,--.--,--.--,--.--,--.--,--.--,--.--,0,18:57:57,2020-08-02,--.--,--.--,--.--,--.--,--.--,--.--,--.--,0.00,--.--,--.--,true,true,true,true,true,true,false,false,true,true,false,false,0.03,0.00,0.01,0.02,0.00,0.00,0.44,0.21,43.9451633,-78.8968380,17TPJ 68775 67932,0.0,0.0,126.8,3,10,--.--,--.--,--.--,0.0,0.0,0.0,0,0,0,--.--,--.--,--.--
2020-08-02 18:57:58.808,-1.0,-1.6,31,-0.3,1.1,0.1,0.0,1.7,3.0,17.1,67.1,0.0,00:00:10,0.0,308,--.--,--.--,60,0001:47:08,--.--,--.--,--.--,--.--,--.--,--.--,--.--,0,--.--,--.--,--.--,--.--,--.--,--.--,--.--,0,18:57:58,2020-08-02,--.--,--.--,--.--,--.--,--.--,--.--,--.--,0.00,--.--,--.--,true,true,true,true,true,true,false,false,true,true,false,false,0.02,0.00,0.01,0.00,0.00,0.00,0.43,0.21,43.9451633,-78.8968379,17TPJ 68775 67932,0.0,0.0,115.3,3,10,--.--,--.--,--.--,0.0,0.0,0.0,0,0,0,--.--,--.--,--.--
2020-08-02 18:57:59.809,-0.9,-1.7,31,-0.3,-0.6,-0.2,0.0,1.6,3.0,20.1,70.1,0.0,00:00:11,0.0,308,--.--,--.--,60,0001:47:08,--.--,--.--,--.--,--.--,--.--,--.--,--.--,0,--.--,--.--,--.--,--.--,--.--,--.--,--.--,0,18:57:59,2020-08-02,--.--,--.--,--.--,--.--,--.--,--.--,--.--,0.00,--.--,--.--,true,true,true,true,true,true,false,false,true,true,false,false,0.02,0.00,0.01,0.02,0.00,0.00,0.43,0.20,43.9451634,-78.8968378,17TPJ 68775 67932,0.0,0.0,148.5,3,10,--.--,--.--,--.--,0.0,0.0,0.0,0,0,0,--.--,--.--,--.--
2020-08-02 18:58:00.809,-1.0,-1.7,31,-0.2,-0.8,-0.1,0.0,2.4,3.0,23.1,73.1,0.0,00:00:12,0.0,308,--.--,--.--,60,0001:47:08,--.--,--.--,--.--,--.--,--.--,--.--,--.--,0,--.--,--.--,--.--,--.--,--.--,--.--,--.--,0,18:58:00,2020-08-02,--.--,--.--,--.--,--.--,--.--,--.--,--.--,0.00,--.--,--.--,true,true,true,true,true,true,false,false,true,true,false,false,0.01,0.00,0.01,0.00,0.00,0.00,0.42,0.20,43.9451635,-78.8968379,17TPJ 68775 67932,0.0,0.0,235.4,3,10,--.--,--.--,--.--,0.0,0.0,0.0,0,0,0,--.--,--.--,--.--
2020-08-02 18:58:01.808,-0.9,-1.7,31,-1.2,0.4,-0.7,0.0,1.2,3.0,26.0,76.1,0.0,00:00:13,0.0,308,--.--,--.--,60,0001:47:08,--.--,--.--,--.--,--.--,--.--,--.--,--.--,0,--.--,--.--,--.--,--.--,--.--,--.--,--.--,0,18:58:01,2020-08-02,--.--,--.--,--.--,--.--,--.--,--.--,--.--,0.00,--.--,--.--,true,true,true,true,true,true,false,false,true,true,false,false,0.01,0.00,0.00,0.00,0.00,0.00,0.42,0.20,43.9451637,-78.8968379,17TPJ 68775 67932,0.0,0.0,31.0,3,10,--.--,--.--,--.--,0.0,0.0,0.0,0,0,0,--.--,--.--,--.--
2020-08-02 18:58:02.808,-0.8,-1.7,31,-0.6,-0.6,-0.1,0.0,3.9,3.0,29.1,79.1,0.0,00:00:14,0.0,308,--.--,--.--,60,0001:47:08,--.--,--.--,--.--,--.--,--.--,--.--,--.--,0,--.--,--.--,--.--,--.--,--.--,--.--,--.--,0,18:58:02,2020-08-02,--.--,--.--,--.--,--.--,--.--,--.--,--.--,0.00,--.--,--.--,true,true,true,true,true,true,false,false,true,true,false,false,0.01,0.00,0.00,0.01,0.00,0.00,0.44,0.21,43.9451638,-78.8968378,17TPJ 68775 67932,0.0,0.0,11.4,3,10,--.--,--.--,--.--,0.0,0.0,0.0,0,0,0,--.--,--.--,--.--
2020-08-02 18:58:03.808,-0.9,-1.6,31,0.4,-0.8,-0.1,0.0,1.4,3.0,32.1,82.1,0.0,00:00:15,0.0,308,--.--,--.--,60,0001:47:08,--.--,--.--,--.--,--.--,--.--,--.--,--.--,0,--.--,--.--,--.--,--.--,--.--,--.--,--.--,0,18:58:03,2020-08-02,--.--,--.--,--.--,--.--,--.--,--.--,--.--,0.00,--.--,--.--,true,true,true,true,true,true,false,false,true,true,false,false,0.01,0.00,0.00,0.00,0.00,0.00,0.43,0.21,43.9451639,-78.8968376,17TPJ 68775 67932,0.0,0.0,76.4,3,10,--.--,--.--,--.--,0.0,0.0,0.0,0,0,0,--.--,--.--,--.--
2020-08-02 18:58:04.808,-0.9,-1.6,31,0.5,1.2,-0.0,0.0,-4.3,3.0,35.1,85.1,0.0,00:00:16,0.0,308,--.--,--.--,60,0001:47:08,--.--,--.--,--.--,--.--,--.--,--.--,--.--,0,--.--,--.--,--.--,--.--,--.--,--.--,--.--,0,18:58:04,2020-08-02,--.--,--.--,--.--,--.--,--.--,--.--,--.--,0.00,--.--,--.--,true,true,true,true,true,true,false,false,true,true,false,false,0.01,0.00,0.01,0.00,0.00,0.00,0.43,0.21,43.9451639,-78.8968375,17TPJ 68775 67932,0.0,0.0,296.3,3,10,--.--,--.--,--.--,0.0,0.0,0.0,0,0,0,--.--,--.--,--.--
2020-08-02 18:58:05.809,-1.1,-1.5,31,0.0,0.0,-0.1,0.0,-3.6,3.0,38.1,88.1,0.0,00:00:17,0.0,308,--.--,--.--,60,0001:47:08,--.--,--.--,--.--,--.--,--.--,--.--,--.--,0,--.--,--.--,--.--,--.--,--.--,--.--,--.--,0,18:58:05,2020-08-02,--.--,--.--,--.--,--.--,--.--,--.--,--.--,0.00,--.--,--.--,true,true,true,true,true,true,false,false,true,true,false,false,0.02,0.00,0.02,0.03,0.00,0.00,0.43,0.21,43.9451640,-78.8968375,17TPJ 68775 67932,0.0,0.0,65.7,3,10,--.--,--.--,--.--,0.0,0.0,0.0,0,0,0,--.--,--.--,--.--
2020-08-02 18:58:06.808,-1.2,-1.5,31,0.6,0.1,0.1,0.0,-3.9,3.0,41.1,91.1,0.0,00:00:18,0.0,308,--.--,--.--,57,0001:47:08,--.--,--.--,--.--,--.--,--.--,--.--,--.--,0,--.--,--.--,--.--,--.--,--.--,--.--,--.--,0,18:58:06,2020-08-02,--.--,--.--,--.--,--.--,--.--,--.--,--.--,0.00,--.--,--.--,true,true,true,true,true,true,false,false,true,true,false,false,0.02,0.00,0.00,0.01,0.00,0.00,0.43,0.21,43.9451640,-78.8968378,17TPJ 68775 67932,0.0,0.0,261.4,3,10,--.--,--.--,--.--,0.0,0.0,0.0,0,0,0,--.--,--.--,--.--
2020-08-02 18:58:07.811,-1.2,-1.8,31,0.0,-0.0,0.0,0.0,-0.7,2.0,43.7,93.7,0.0,00:00:19,0.0,308,--.--,--.--,56,0001:47:08,--.--,--.--,--.--,--.--,--.--,--.--,--.--,0,--.--,--.--,--.--,--.--,--.--,--.--,--.--,0,18:58:07,2020-08-02,--.--,--.--,--.--,--.--,--.--,--.--,--.--,0.00,--.--,--.--,true,true,true,true,true,true,false,false,true,true,false,false,0.01,0.00,0.00,0.02,0.00,0.00,0.42,0.21,43.9451640,-78.8968381,17TPJ 68775 67932,0.0,0.0,267.7,3,10,--.--,--.--,--.--,0.0,0.0,0.0,0,0,0,--.--,--.--,--.--
2020-08-02 18:58:08.808,-0.9,-1.8,31,0.5,-0.0,-0.3,0.0,-2.6,1.4,45.4,95.4,0.0,00:00:20,0.0,308,--.--,--.--,56,0001:47:08,--.--,--.--,--.--,--.--,--.--,--.--,--.--,0,--.--,--.--,--.--,--.--,--.--,--.--,--.--,0,18:58:08,2020-08-02,--.--,--.--,--.--,--.--,--.--,--.--,--.--,0.00,--.--,--.--,true,true,true,true,true,true,false,false,true,true,false,false,0.00,0.00,0.00,0.02,0.00,0.00,0.42,0.20,43.9451641,-78.8968384,17TPJ 68775 67932,0.0,0.0,130.4,3,10,--.--,--.--,--.--,0.0,0.0,0.0,0,0,0,--.--,--.--,--.--
2020-08-02 18:58:09.809,-0.8,-1.6,31,-0.2,-0.7,-0.4,0.0,-3.6,1.0,46.6,96.7,0.0,00:00:21,0.0,308,--.--,--.--,56,0001:47:08,--.--,--.--,--.--,--.--,--.--,--.--,--.--,0,--.--,--.--,--.--,--.--,--.--,--.--,--.--,0,18:58:09,2020-08-02,--.--,--.--,--.--,--.--,--.--,--.--,--.--,0.00,--.--,--.--,true,true,true,true,true,true,false,false,true,true,false,false,0.02,0.00,0.01,0.03,0.00,0.00,0.42,0.20,43.9451641,-78.8968384,17TPJ 68775 67932,0.0,0.0,134.4,3,10,--.--,--.--,--.--,0.0,0.0,0.0,0,0,0,--.--,--.--,--.--
2020-08-02 18:58:10.812,-0.8,-1.5,31,-0.1,-1.5,-0.1,0.0,2.5,0.7,47.5,97.6,0.0,00:00:22,0.0,308,--.--,--.--,56,0001:47:08,--.--,--.--,--.--,--.--,--.--,--.--,--.--,0,--.--,--.--,--.--,--.--,--.--,--.--,--.--,0,18:58:10,2020-08-02,--.--,--.--,--.--,--.--,--.--,--.--,--.--,0.00,--.--,--.--,true,true,true,true,true,true,false,false,true,true,false,false,0.01,0.00,0.01,0.02,0.00,0.00,0.41,0.20,43.9451640,-78.8968383,17TPJ 68775 67932,0.0,0.0,189.7,3,10,--.--,--.--,--.--,0.0,0.0,0.0,0,0,0,--.--,--.--,--.--
2020-08-02 18:58:11.808,-0.8,-1.6,31,-0.9,-0.5,-0.2,0.0,-3.7,0.5,48.2,98.2,0.0,00:00:23,0.0,308,--.--,--.--,56,0001:47:08,--.--,--.--,--.--,--.--,--.--,--.--,--.--,0,--.--,--.--,--.--,--.--,--.--,--.--,--.--,0,18:58:11,2020-08-02,--.--,--.--,--.--,--.--,--.--,--.--,--.--,0.00,--.--,--.--,true,true,true,true,true,true,false,false,true,true,false,false,0.03,0.00,0.00,0.01,0.00,0.00,0.41,0.20,43.9451637,-78.8968381,17TPJ 68775 67932,0.0,0.0,168.9,3,10,--.--,--.--,--.--,0.0,0.0,0.0,0,0,0,--.--,--.--,--.--
2020-08-02 18:58:12.814,-0.8,-1.6,31,0.3,1.3,-0.2,0.0,1.8,0.4,48.7,98.7,0.0,00:00:24,0.0,308,--.--,--.--,56,0001:47:08,--.--,--.--,--.--,--.--,--.--,--.--,--.--,0,--.--,--.--,--.--,--.--,--.--,--.--,--.--,0,18:58:12,2020-08-02,--.--,--.--,--.--,--.--,--.--,--.--,--.--,0.00,--.--,--.--,true,true,true,true,true,true,false,false,true,true,false,false,0.00,0.00,0.00,0.01,0.00,0.00,0.44,0.21,43.9451635,-78.8968380,17TPJ 68775 67932,0.0,0.0,124.8,3,10,--.--,--.--,--.--,0.0,0.0,0.0,0,0,0,--.--,--.--,--.--
2020-08-02 18:58:13.810,-0.8,-1.6,31,-1.3,-0.3,0.4,0.0,1.8,0.3,49.0,99.1,0.0,00:00:25,0.0,308,--.--,--.--,56,0001:47:08,--.--,--.--,--.--,--.--,--.--,--.--,--.--,0,--.--,--.--,--.--,--.--,--.--,--.--,--.--,0,18:58:13,2020-08-02,--.--,--.--,--.--,--.--,--.--,--.--,--.--,0.00,--.--,--.--,true,true,true,true,true,true,false,false,true,true,false,false,0.02,0.01,0.01,0.01,0.00,0.00,0.43,0.21,43.9451633,-78.8968379,17TPJ 68775 67932,0.0,0.0,161.1,3,10,--.--,--.--,--.--,0.0,0.0,0.0,0,0,0,--.--,--.--,--.--
2020-08-02 18:58:14.809,-2.2,-2.2,28,-15.8,-3.6,-21.0,0.0,3.4,0.2,49.3,99.3,0.0,00:00:26,0.0,308,--.--,--.--,56,0001:47:08,--.--,--.--,--.--,--.--,--.--,--.--,--.--,0,--.--,--.--,--.--,--.--,--.--,--.--,--.--,0,18:58:14,2020-08-02,--.--,--.--,--.--,--.--,--.--,--.--,--.--,0.00,--.--,--.--,true,true,true,true,true,true,false,false,true,true,false,false,0.02,0.01,0.00,0.02,0.00,0.00,0.43,0.21,43.9451631,-78.8968377,17TPJ 68775 67932,0.0,0.0,161.3,3,10,--.--,--.--,--.--,0.0,0.0,0.0,0,0,0,--.--,--.--,--.--
2020-08-02 18:58:15.810,-15.3,-18.7,350,-6.4,-5.9,-46.7,1.5,4.5,0.1,49.5,99.6,0.0,00:00:27,0.5,308,--.--,--.--,60,0001:47:08,--.--,--.--,--.--,--.--,--.--,--.--,--.--,0,--.--,--.--,--.--,--.--,--.--,--.--,--.--,0,18:58:15,2020-08-02,--.--,--.--,--.--,--.--,--.--,--.--,--.--,0.00,--.--,--.--,true,true,true,true,true,true,false,false,true,true,false,false,0.06,0.01,0.00,0.00,0.00,0.00,0.43,0.21,43.9451649,-78.8968417,17TPJ 68775 67932,0.0,0.0,301.4,3,10,--.--,--.--,--.--,0.0,0.0,0.0,0,0,0,--.--,--.--,--.--
2020-08-02 18:58:16.810,-0.5,-30.7,310,2.9,-0.3,-13.1,3.1,0.3,0.0,49.6,99.7,2.1,00:00:28,2.7,308,124,--.--,65,0001:47:08,--.--,--.--,--.--,--.--,--.--,--.--,--.--,0,--.--,--.--,--.--,--.--,--.--,--.--,--.--,0,18:58:16,2020-08-02,--.--,--.--,--.--,--.--,--.--,--.--,--.--,0.00,--.--,--.--,true,true,true,true,true,true,false,false,true,true,false,false,0.14,0.03,0.01,0.02,0.00,0.00,0.42,0.21,43.9451745,-78.8968655,17TPJ 68773 67933,0.0,0.0,298.0,3,10,--.--,--.--,--.--,0.0,0.0,0.0,0,0,0,--.--,--.--,--.--
2020-08-02 18:58:17.808,3.9,-29.1,306,3.9,0.0,-0.5,3.6,4.7,0.1,49.6,99.6,4.3,00:00:29,6.1,308,123,--.--,66,0001:47:08,--.--,--.--,--.--,--.--,--.--,--.--,--.--,0,--.--,--.--,--.--,--.--,--.--,--.--,--.--,0,18:58:17,2020-08-02,--.--,--.--,--.--,--.--,--.--,--.--,--.--,0.00,--.--,--.--,true,true,true,true,true,true,false,false,true,true,false,false,0.16,0.04,0.00,0.01,0.00,0.00,0.42,0.21,43.9451897,-78.8969039,17TPJ 68770 67935,0.0,0.0,300.4,3,10,--.--,--.--,--.--,0.0,0.0,0.0,0,0,0,--.--,--.--,--.--
2020-08-02 18:58:18.809,5.7,-28.2,307,1.7,-1.6,0.2,3.6,5.6,0.1,49.6,99.6,8.6,00:00:30,9.8,308,123,--.--,66,0001:47:08,--.--,--.--,--.--,--.--,--.--,--.--,--.--,0,--.--,--.--,--.--,--.--,--.--,--.--,--.--,0,18:58:18,2020-08-02,--.--,--.--,--.--,--.--,--.--,--.--,--.--,0.00,--.--,--.--,true,true,true,true,true,true,false,false,true,true,false,false,0.13,0.04,0.00,0.02,0.00,0.00,0.43,0.20,43.9452085,-78.8969430,17TPJ 68767 67937,0.0,0.0,306.9,3,10,--.--,--.--,--.--,0.0,0.0,0.0,0,0,0,--.--,--.--,--.--
2020-08-02 18:58:19.808,6.1,-29.8,307,0.0,-0.3,0.5,3.7,1.9,0.2,49.6,99.7,13.1,00:00:31,13.5,308,124,--.--,67,0001:47:08,--.--,--.--,--.--,--.--,--.--,--.--,--.--,0,--.--,--.--,--.--,--.--,--.--,--.--,--.--,0,18:58:19,2020-08-02,--.--,--.--,--.--,--.--,--.--,--.--,--.--,0.00,--.--,--.--,true,true,true,true,true,true,false,false,true,true,false,false,0.08,0.04,0.00,0.01,0.00,0.00,0.43,0.21,43.9452260,-78.8969728,17TPJ 68764 67939,0.0,0.0,311.3,3,10,--.--,--.--,--.--,0.0,0.0,0.0,0,0,0,--.--,--.--,--.--
2020-08-02 18:58:20.808,5.6,-30.5,307,-0.5,0.1,0.2,3.9,3.3,0.2,49.7,99.7,15.5,00:00:32,17.5,308,126,--.--,68,0001:47:08,--.--,--.--,--.--,--.--,--.--,--.--,--.--,0,--.--,--.--,--.--,--.--,--.--,--.--,--.--,0,18:58:20,2020-08-02,--.--,--.--,--.--,--.--,--.--,--.--,--.--,0.00,--.--,--.--,true,true,true,true,true,true,false,false,true,true,false,false,0.05,0.03,0.01,0.02,0.00,0.00,0.42,0.20,43.9452501,-78.8970095,17TPJ 68761 67941,0.0,0.0,312.3,3,10,--.--,--.--,--.--,0.0,0.0,0.0,0,0,0,--.--,--.--,--.--
2020-08-02 18:58:21.824,5.2,-31.2,307,-0.2,-0.6,-0.0,4.1,1.2,0.1,49.7,99.8,19.9,00:00:33,21.5,308,127,--.--,68,0001:47:08,--.--,--.--,--.--,--.--,--.--,--.--,--.--,0,--.--,--.--,--.--,--.--,--.--,--.--,--.--,0,18:58:21,2020-08-02,--.--,--.--,--.--,--.--,--.--,--.--,--.--,0.00,--.--,--.--,true,true,true,true,true,true,false,false,true,true,false,false,0.03,0.02,0.00,0.00,0.00,0.00,0.45,0.21,43.9452752,-78.8970477,17TPJ 68758 67944,0.0,0.0,312.4,3,10,--.--,--.--,--.--,0.0,0.0,0.0,0,0,0,--.--,--.--,--.--
2020-08-02 18:58:22.809,4.8,-32.1,307,0.1,-2.5,0.2,4.2,-2.7,0.1,49.8,99.8,24.0,00:00:34,25.7,308,127,--.--,69,0001:47:08,--.--,--.--,--.--,--.--,--.--,--.--,--.--,0,--.--,--.--,--.--,--.--,--.--,--.--,--.--,0,18:58:22,2020-08-02,--.--,--.--,--.--,--.--,--.--,--.--,--.--,0.00,--.--,--.--,true,true,true,true,true,true,false,false,true,true,false,false,0.04,0.02,0.01,0.01,0.00,0.00,0.44,0.21,43.9453005,-78.8970875,17TPJ 68755 67947,0.0,0.0,310.8,3,10,--.--,--.--,--.--,0.0,0.0,0.0,0,0,0,--.--,--.--,--.--
2020-08-02 18:58:23.813,4.5,-33.2,307,-0.3,-0.6,0.6,4.4,3.0,0.1,49.8,99.9,28.3,00:00:35,30.0,308,128,--.--,69,0001:47:08,--.--,--.--,--.--,--.--,--.--,--.--,--.--,0,--.--,--.--,--.--,--.--,--.--,--.--,--.--,0,18:58:23,2020-08-02,--.--,--.--,--.--,--.--,--.--,--.--,--.--,0.00,--.--,--.--,true,true,true,true,true,true,false,false,true,true,false,false,0.03,0.01,0.01,0.02,0.00,0.00,0.44,0.21,43.9453260,-78.8971295,17TPJ 68751 67949,0.0,0.0,309.6,3,10,--.--,--.--,--.--,0.0,0.0,0.0,0,0,0,--.--,--.--,--.--
2020-08-02 18:58:24.814,4.2,-33.5,307,-0.8,0.0,0.4,4.5,4.9,0.1,49.9,99.9,32.7,00:00:36,34.5,308,128,--.--,70,0001:47:08,--.--,--.--,--.--,--.--,--.--,--.--,--.--,0,--.--,--.--,--.--,--.--,--.--,--.--,--.--,0,18:58:24,2020-08-02,--.--,--.--,--.--,--.--,--.--,--.--,--.--,0.00,--.--,--.--,true,true,true,true,true,true,false,false,true,true,false,false,0.02,0.01,0.01,0.01,0.00,0.00,0.43,0.21,43.9453517,-78.8971735,17TPJ 68748 67952,0.0,0.0,308.6,3,10,--.--,--.--,--.--,0.0,0.0,0.0,0,0,0,--.--,--.--,--.--
2020-08-02 18:58:25.814,4.1,-33.9,307,-0.7,-0.2,-0.1,4.6,4.9,0.1,49.9,99.9,37.3,00:00:37,39.1,308,128,--.--,70,0001:47:08,--.--,--.--,--.--,--.--,--.--,--.--,--.--,0,--.--,--.--,--.--,--.--,--.--,--.--,--.--,0,18:58:25,2020-08-02,--.--,--.--,--.--,--.--,--.--,--.--,--.--,0.00,--.--,--.--,true,true,true,true,true,true,false,false,true,true,false,false,0.02,0.01,0.00,0.01,0.00,0.00,0.43,0.20,43.9453777,-78.8972194,17TPJ 68744 67955,0.0,0.0,307.9,3,10,--.--,--.--,--.--,0.0,0.0,0.0,0,0,0,--.--,--.--,--.--
2020-08-02 18:58:26.814,4.2,-34.2,307,-0.1,0.0,0.6,4.6,4.9,0.1,49.9,100.0,41.9,00:00:38,43.7,308,128,--.--,70,0001:47:08,--.--,--.--,--.--,--.--,--.--,--.--,--.--,0,--.--,--.--,--.--,--.--,--.--,--.--,--.--,0,18:58:26,2020-08-02,--.--,--.--,--.--,--.--,--.--,--.--,--.--,0.00,--.--,--.--,true,true,true,true,true,true,false,false,true,true,false,false,0.04,0.01,0.00,0.01,0.00,0.00,0.42,0.20,43.9454038,-78.8972665,17TPJ 68740 67958,0.0,0.0,307.4,3,10,--.--,--.--,--.--,0.0,0.0,0.0,0,0,0,--.--,--.--,--.--
2020-08-02 18:58:27.815,4.2,-34.7,307,0.9,-0.5,-0.2,4.7,3.7,0.1,49.9,100.0,46.6,00:00:39,48.4,308,128,--.--,71,0001:47:08,--.--,--.--,--.--,--.--,--.--,--.--,--.--,0,--.--,--.--,--.--,--.--,--.--,--.--,--.--,0,18:58:27,2020-08-02,--.--,--.--,--.--,--.--,--.--,--.--,--.--,0.00,--.--,--.--,true,true,true,true,true,true,false,false,true,true,false,false,0.02,0.01,0.00,0.01,0.00,0.00,0.42,0.20,43.9454299,-78.8973140,17TPJ 68736 67961,0.0,0.0,307.5,3,10,--.--,--.--,--.--,0.0,0.0,0.0,0,0,0,--.--,--.--,--.--
2020-08-02 18:58:28.815,4.3,-34.7,307,0.8,1.1,0.2,4.8,2.1,0.0,49.9,100.0,51.3,00:00:40,53.2,308,128,--.--,71,0001:47:08,--.--,--.--,--.--,--.--,--.--,--.--,--.--,0,--.--,--.--,--.--,--.--,--.--,--.--,--.--,0,18:58:28,2020-08-02,--.--,--.--,--.--,--.--,--.--,--.--,--.--,0.00,--.--,--.--,true,true,true,true,true,true,false,false,true,true,false,false,0.02,0.01,0.01,0.02,0.00,0.00,0.42,0.20,43.9454566,-78.8973625,17TPJ 68732 67963,0.0,0.0,307.4,3,10,--.--,--.--,--.--,0.0,0.0,0.0,0,0,0,--.--,--.--,--.--
2020-08-02 18:58:29.816,4.4,-35.0,307,1.3,0.2,0.2,4.8,3.4,0.0,50.0,100.0,56.1,00:00:41,58.0,308,128,--.--,71,0001:47:08,--.--,--.--,--.--,--.--,--.--,--.--,--.--,0,--.--,--.--,--.--,--.--,--.--,--.--,--.--,0,18:58:29,2020-08-02,--.--,--.--,--.--,--.--,--.--,--.--,--.--,0.00,--.--,--.--,true,true,true,true,true,true,false,false,true,true,false,false,0.02,0.01,0.01,0.01,0.00,0.00,0.42,0.20,43.9454780,-78.8974016,17TPJ 68729 67966,0.0,0.0,307.5,3,10,--.--,--.--,--.--,0.0,0.0,0.0,0,0,0,--.--,--.--,--.--
2020-08-02 18:58:30.808,4.5,-35.3,307,0.4,0.3,0.2,4.8,3.0,0.0,50.0,100.0,61.0,00:00:42,62.9,308,128,--.--,71,0001:47:08,--.--,--.--,--.--,--.--,--.--,--.--,--.--,0,--.--,--.--,--.--,--.--,--.--,--.--,--.--,0,18:58:30,2020-08-02,--.--,--.--,--.--,--.--,--.--,--.--,--.--,0.00,--.--,--.--,true,true,true,true,true,true,false,false,true,true,false,false,0.02,0.01,0.00,0.00,0.00,0.00,0.44,0.20,43.9455051,-78.8974508,17TPJ 68725 67969,0.0,0.0,307.5,3,10,--.--,--.--,--.--,0.0,0.0,0.0,0,0,0,--.--,--.--,--.--
2020-08-02 18:58:31.808,4.5,-35.3,307,0.8,-0.5,-0.7,4.8,2.2,0.0,50.0,100.0,65.8,00:00:43,67.7,308,128,--.--,71,0001:47:08,--.--,--.--,--.--,--.--,--.--,--.--,--.--,0,--.--,--.--,--.--,--.--,--.--,--.--,--.--,0,18:58:31,2020-08-02,--.--,--.--,--.--,--.--,--.--,--.--,--.--,0.00,--.--,--.--,true,true,true,true,true,true,false,false,true,true,false,false,0.03,0.01,0.00,0.00,0.00,0.00,0.44,0.20,43.9455324,-78.8975002,17TPJ 68721 67972,0.0,0.0,307.5,3,10,--.--,--.--,--.--,0.0,0.0,0.0,0,0,0,--.--,--.--,--.--
2020-08-02 18:58:32.816,4.6,-35.5,307,-1.0,-0.1,0.1,4.9,3.7,0.0,50.0,100.0,70.7,00:00:44,72.6,308,128,--.--,71,0001:47:08,--.--,--.--,--.--,--.--,--.--,--.--,--.--,0,--.--,--.--,--.--,--.--,--.--,--.--,--.--,0,18:58:32,2020-08-02,--.--,--.--,--.--,--.--,--.--,--.--,--.--,0.00,--.--,--.--,true,true,true,true,true,true,false,false,true,true,false,false,0.03,0.02,0.00,0.00,0.00,0.00,0.43,0.20,43.9455600,-78.8975501,17TPJ 68717 67975,0.0,0.0,307.4,3,10,--.--,--.--,--.--,0.0,0.0,0.0,0,0,0,--.--,--.--,--.--
2020-08-02 18:58:33.816,4.7,-35.7,307,-0.7,0.4,0.2,4.9,5.3,0.0,50.0,100.0,75.6,00:00:45,77.6,308,128,--.--,72,0001:47:08,--.--,--.--,--.--,--.--,--.--,--.--,--.--,0,--.--,--.--,--.--,--.--,--.--,--.--,--.--,0,18:58:33,2020-08-02,--.--,--.--,--.--,--.--,--.--,--.--,--.--,0.00,--.--,--.--,true,true,true,true,true,true,false,false,true,true,false,false,0.03,0.02,0.00,0.00,0.00,0.00,0.43,0.20,43.9455877,-78.8975998,17TPJ 68713 67978,0.0,0.0,307.6,3,10,--.--,--.--,--.--,0.0,0.0,0.0,0,0,0,--.--,--.--,--.--
2020-08-02 18:58:34.810,4.6,-35.8,307,0.1,-0.8,-0.6,4.9,4.8,0.0,50.0,100.0,80.6,00:00:46,82.6,308,128,--.--,72,0001:47:08,--.--,--.--,--.--,--.--,--.--,--.--,--.--,0,--.--,--.--,--.--,--.--,--.--,--.--,--.--,0,18:58:34,2020-08-02,--.--,--.--,--.--,--.--,--.--,--.--,--.--,0.00,--.--,--.--,true,true,true,true,true,true,false,false,true,true,false,false,0.03,0.01,0.01,0.01,0.00,0.00,0.43,0.20,43.9456157,-78.8976503,17TPJ 68709 67981,0.0,0.0,307.6,3,10,--.--,--.--,--.--,0.0,0.0,0.0,0,0,0,--.--,--.--,--.--
2020-08-02 18:58:35.810,4.7,-35.9,307,-0.8,-0.8,0.5,4.9,-2.3,0.0,50.0,100.0,87.1,00:00:47,87.5,308,128,--.--,72,0001:47:08,--.--,--.--,--.--,--.--,--.--,--.--,--.--,0,--.--,--.--,--.--,--.--,--.--,--.--,--.--,0,18:58:35,2020-08-02,--.--,--.--,--.--,--.--,--.--,--.--,--.--,0.00,--.--,--.--,true,true,true,true,true,true,false,false,true,true,false,false,0.04,0.02,0.00,0.01,0.00,0.00,0.42,0.20,43.9456436,-78.8977005,17TPJ 68705 67984,0.0,0.0,307.4,3,10,--.--,--.--,--.--,0.0,0.0,0.0,0,0,0,--.--,--.--,--.--
2020-08-02 18:58:36.810,4.7,-36.0,307,-0.5,-0.9,0.4,4.9,5.2,0.0,50.0,100.0,91.1,00:00:48,92.6,308,128,--.--,72,0001:47:08,--.--,--.--,--.--,--.--,--.--,--.--,--.--,0,--.--,--.--,--.--,--.--,--.--,--.--,--.--,0,18:58:36,2020-08-02,--.--,--.--,--.--,--.--,--.--,--.--,--.--,0.00,--.--,--.--,true,true,true,true,true,true,false,false,true,true,false,false,0.02,0.02,0.00,0.01,0.00,0.00,0.42,0.20,43.9456717,-78.8977514,17TPJ 68701 67987,0.0,0.0,307.7,3,10,--.--,--.--,--.--,0.0,0.0,0.0,0,0,0,--.--,--.--,--.--
2020-08-02 18:58:37.818,4.8,-36.0,307,-0.1,0.2,-0.4,5.0,4.8,0.0,50.0,100.0,97.2,00:00:49,97.6,308,128,--.--,72,0001:47:08,--.--,--.--,--.--,--.--,--.--,--.--,--.--,0,--.--,--.--,--.--,--.--,--.--,--.--,--.--,0,18:58:37,2020-08-02,--.--,--.--,--.--,--.--,--.--,--.--,--.--,0.00,--.--,--.--,true,true,true,true,true,true,false,false,true,true,false,false,0.02,0.02,0.00,0.02,0.00,0.00,0.42,0.20,43.9456996,-78.8978019,17TPJ 68696 67990,0.0,0.0,307.6,3,10,--.--,--.--,--.--,0.0,0.0,0.0,0,0,0,--.--,--.--,--.--
2020-08-02 18:58:38.808,4.9,-35.9,307,0.4,1.0,-0.7,5.0,2.5,0.0,50.0,100.0,101.2,00:00:50,102.6,308,128,--.--,72,0001:47:08,--.--,--.--,--.--,--.--,--.--,--.--,--.--,0,--.--,--.--,--.--,--.--,--.--,--.--,--.--,0,18:58:38,2020-08-02,--.--,--.--,--.--,--.--,--.--,--.--,--.--,0.00,--.--,--.--,true,true,true,true,true,true,false,false,true,true,false,false,0.03,0.02,0.00,0.01,0.00,0.00,0.42,0.20,43.9457224,-78.8978426,17TPJ 68693 67992,0.0,0.0,307.6,3,10,--.--,--.--,--.--,0.0,0.0,0.0,0,0,0,--.--,--.--,--.--
2020-08-02 18:58:39.809,4.9,-35.9,307,0.9,0.3,-0.4,5.0,3.8,0.0,50.0,100.0,107.7,00:00:51,107.7,308,128,--.--,72,0001:47:08,--.--,--.--,--.--,--.--,--.--,--.--,--.--,0,--.--,--.--,--.--,--.--,--.--,--.--,--.--,0,18:58:39,2020-08-02,--.--,--.--,--.--,--.--,--.--,--.--,--.--,0.00,--.--,--.--,true,true,true,true,true,true,false,false,true,true,false,false,0.02,0.02,0.00,0.01,0.00,0.00,0.41,0.20,43.9457504,-78.8978929,17TPJ 68689 67995,0.0,0.0,307.9,3,10,--.--,--.--,--.--,0.0,0.0,0.0,0,0,0,--.--,--.--,--.--
2020-08-02 18:58:40.818,4.8,-35.9,307,1.0,-0.7,-0.3,5.0,4.5,0.0,50.0,100.0,112.2,00:00:52,112.7,308,128,--.--,72,0001:47:08,--.--,--.--,--.--,--.--,--.--,--.--,--.--,0,--.--,--.--,--.--,--.--,--.--,--.--,--.--,0,18:58:40,2020-08-02,--.--,--.--,--.--,--.--,--.--,--.--,--.--,0.00,--.--,--.--,true,true,true,true,true,true,false,false,true,true,false,false,0.03,0.02,0.00,0.01,0.00,0.00,0.44,0.20,43.9457787,-78.8979436,17TPJ 68685 67998,0.0,0.0,307.9,3,10,--.--,--.--,--.--,0.0,0.0,0.0,0,0,0,--.--,--.--,--.--
2020-08-02 18:58:41.819,4.8,-36.0,307,1.5,-0.1,-0.4,5.0,3.1,0.0,50.0,100.0,116.2,00:00:53,117.7,308,128,--.--,72,0001:47:08,--.--,--.--,--.--,--.--,--.--,--.--,--.--,0,--.--,--.--,--.--,--.--,--.--,--.--,--.--,0,18:58:41,2020-08-02,--.--,--.--,--.--,--.--,--.--,--.--,--.--,0.00,--.--,--.--,true,true,true,true,true,true,false,false,true,true,false,false,0.03,0.01,0.00,0.01,0.00,0.00,0.43,0.20,43.9458069,-78.8979937,17TPJ 68681 68001,0.0,0.0,307.9,3,10,--.--,--.--,--.--,0.0,0.0,0.0,0,0,0,--.--,--.--,--.--
2020-08-02 18:58:42.813,4.8,-36.0,307,0.2,-0.4,0.1,5.0,4.2,-0.0,50.0,100.1,122.7,00:00:54,122.7,308,128,--.--,72,0001:47:08,--.--,--.--,--.--,--.--,--.--,--.--,--.--,0,--.--,--.--,--.--,--.--,--.--,--.--,--.--,0,18:58:42,2020-08-02,--.--,--.--,--.--,--.--,--.--,--.--,--.--,0.00,--.--,--.--,true,true,true,true,true,true,false,false,true,true,false,false,0.02,0.02,0.00,0.01,0.00,0.00,0.43,0.20,43.9458353,-78.8980443,17TPJ 68677 68004,0.0,0.0,308.1,3,10,--.--,--.--,--.--,0.0,0.0,0.0,0,0,0,--.--,--.--,--.--
2020-08-02 18:58:43.814,4.7,-35.9,307,-0.2,-0.7,0.3,5.0,4.5,-0.0,50.0,100.1,126.7,00:00:55,127.7,308,128,--.--,72,0001:47:08,--.--,--.--,--.--,--.--,--.--,--.--,--.--,0,--.--,--.--,--.--,--.--,--.--,--.--,--.--,0,18:58:43,2020-08-02,--.--,--.--,--.--,--.--,--.--,--.--,--.--,0.00,--.--,--.--,true,true,true,true,true,true,false,false,true,true,false,false,0.02,0.01,0.00,0.02,0.00,0.00,0.43,0.20,43.9458635,-78.8980942,17TPJ 68673 68007,0.0,0.0,308.0,3,10,--.--,--.--,--.--,0.0,0.0,0.0,0,0,0,--.--,--.--,--.--
2020-08-02 18:58:44.814,4.7,-36.0,307,1.1,1.0,0.6,5.0,4.1,-0.0,50.0,100.1,131.7,00:00:56,132.7,308,128,--.--,72,0001:47:08,--.--,--.--,--.--,--.--,--.--,--.--,--.--,0,--.--,--.--,--.--,--.--,--.--,--.--,--.--,0,18:58:44,2020-08-02,--.--,--.--,--.--,--.--,--.--,--.--,--.--,0.00,--.--,--.--,true,true,true,true,true,true,false,false,true,true,false,false,0.01,0.02,0.00,0.04,0.00,0.00,0.42,0.20,43.9458917,-78.8981445,17TPJ 68668 68010,0.0,0.0,307.9,3,10,--.--,--.--,--.--,0.0,0.0,0.0,0,0,0,--.--,--.--,--.--
2020-08-02 18:58:45.809,4.6,-35.9,307,-0.5,0.0,-0.7,5.0,4.8,-0.0,50.0,100.1,136.2,00:00:57,137.7,308,128,--.--,72,0001:47:08,--.--,--.--,--.--,--.--,--.--,--.--,--.--,0,--.--,--.--,--.--,--.--,--.--,--.--,--.--,0,18:58:45,2020-08-02,--.--,--.--,--.--,--.--,--.--,--.--,--.--,0.00,--.--,--.--,true,true,true,true,true,true,false,false,true,true,false,false,0.01,0.01,0.01,0.00,0.00,0.00,0.42,0.20,43.9459200,-78.8981950,17TPJ 68664 68013,0.0,0.0,307.9,3,10,--.--,--.--,--.--,0.0,0.0,0.0,0,0,0,--.--,--.--,--.--
2020-08-02 18:58:46.809,4.7,-36.0,307,-0.1,0.9,0.2,5.0,5.0,-0.0,50.0,100.1,140.7,00:00:58,142.7,308,128,--.--,72,0001:47:08,--.--,--.--,--.--,--.--,--.--,--.--,--.--,0,--.--,--.--,--.--,--.--,--.--,--.--,--.--,0,18:58:46,2020-08-02,--.--,--.--,--.--,--.--,--.--,--.--,--.--,0.00,--.--,--.--,true,true,true,true,true,true,false,false,true,true,false,false,0.02,0.01,0.01,0.00,0.00,0.00,0.42,0.20,43.9459480,-78.8982449,17TPJ 68660 68016,0.0,0.0,307.7,3,10,--.--,--.--,--.--,0.0,0.0,0.0,0,0,0,--.--,--.--,--.--
2020-08-02 18:58:47.809,4.5,-35.9,307,0.3,0.6,-0.1,5.0,5.8,-0.0,50.0,100.1,147.7,00:00:59,147.7,308,128,--.--,72,0001:47:08,--.--,--.--,--.--,--.--,--.--,--.--,--.--,0,--.--,--.--,--.--,--.--,--.--,--.--,--.--,0,18:58:47,2020-08-02,--.--,--.--,--.--,--.--,--.--,--.--,--.--,0.00,--.--,--.--,true,true,true,true,true,true,false,false,true,true,false,false,0.02,0.01,0.00,0.01,0.00,0.00,0.42,0.20,43.9459706,-78.8982852,17TPJ 68657 68019,0.0,0.0,308.1,3,10,--.--,--.--,--.--,0.0,0.0,0.0,0,0,0,--.--,--.--,--.--
2020-08-02 18:58:48.808,4.5,-36.0,307,-1.4,0.5,0.1,5.0,-2.2,-0.0,50.0,100.1,152.2,00:01:00,152.7,308,128,--.--,72,0001:47:08,--.--,--.--,--.--,--.--,--.--,--.--,--.--,0,--.--,--.--,--.--,--.--,--.--,--.--,--.--,0,18:58:48,2020-08-02,--.--,--.--,--.--,--.--,--.--,--.--,--.--,0.00,--.--,--.--,true,true,true,true,true,true,false,false,true,true,false,false,0.00,0.01,0.00,0.02,0.00,0.00,0.41,0.20,43.9459989,-78.8983355,17TPJ 68653 68022,0.0,0.0,308.1,3,10,--.--,--.--,--.--,0.0,0.0,0.0,0,0,0,--.--,--.--,--.--
2020-08-02 18:58:49.810,4.5,-36.0,307,0.5,-1.1,-0.2,5.0,5.5,-0.0,50.0,100.1,157.2,00:01:01,157.7,308,128,--.--,72,0001:47:08,--.--,--.--,--.--,--.--,--.--,--.--,--.--,0,--.--,--.--,--.--,--.--,--.--,--.--,--.--,0,18:58:49,2020-08-02,--.--,--.--,--.--,--.--,--.--,--.--,--.--,0.00,--.--,--.--,true,true,true,true,true,true,false,false,true,true,false,false,0.01,0.00,0.01,0.01,0.00,0.00,0.41,0.20,43.9460271,-78.8983857,17TPJ 68649 68025,0.0,0.0,307.7,3,10,--.--,--.--,--.--,0.0,0.0,0.0,0,0,0,--.--,--.--,--.--
2020-08-02 18:58:50.809,4.5,-35.9,307,0.7,-0.4,0.1,5.0,5.6,-0.0,50.0,100.1,161.7,00:01:02,162.7,308,128,--.--,72,0001:47:08,--.--,--.--,--.--,--.--,--.--,--.--,--.--,0,--.--,--.--,--.--,--.--,--.--,--.--,--.--,0,18:58:50,2020-08-02,--.--,--.--,--.--,--.--,--.--,--.--,--.--,0.00,--.--,--.--,true,true,true,true,true,true,false,false,true,true,false,false,0.01,0.00,0.00,0.00,0.00,0.00,0.43,0.20,43.9460551,-78.8984357,17TPJ 68645 68028,0.0,0.0,307.9,3,10,--.--,--.--,--.--,0.0,0.0,0.0,0,0,0,--.--,--.--,--.--
2020-08-02 18:58:51.808,4.5,-36.0,307,-0.6,1.1,-0.1,5.0,3.7,-0.0,50.0,100.1,166.2,00:01:03,167.6,308,128,--.--,72,0001:47:08,--.--,--.--,--.--,--.--,--.--,--.--,--.--,0,--.--,--.--,--.--,--.--,--.--,--.--,--.--,0,18:58:51,2020-08-02,--.--,--.--,--.--,--.--,--.--,--.--,--.--,0.00,--.--,--.--,true,true,true,true,true,true,false,false,true,true,false,false,0.01,0.00,0.01,0.03,0.00,0.00,0.43,0.20,43.9460834,-78.8984861,17TPJ 68640 68031,0.0,0.0,307.8,3,10,--.--,--.--,--.--,0.0,0.0,0.0,0,0,0,--.--,--.--,--.--
2020-08-02 18:58:52.809,4.4,-36.1,307,-0.8,0.7,0.2,5.0,4.2,-0.0,50.0,100.1,172.7,00:01:04,172.6,308,128,--.--,72,0001:47:08,--.--,--.--,--.--,--.--,--.--,--.--,--.--,0,--.--,--.--,--.--,--.--,--.--,--.--,--.--,0,18:58:52,2020-08-02,--.--,--.--,--.--,--.--,--.--,--.--,--.--,0.00,--.--,--.--,true,true,true,true,true,true,false,false,true,true,false,false,0.01,0.01,0.00,0.03,0.00,0.00,0.43,0.20,43.9461115,-78.8985362,17TPJ 68636 68034,0.0,0.0,308.1,3,10,--.--,--.--,--.--,0.0,0.0,0.0,0,0,0,--.--,--.--,--.--
2020-08-02 18:58:53.808,4.5,-36.1,307,-1.0,-0.9,0.4,5.0,4.4,0.0,50.0,100.0,177.2,00:01:05,177.6,308,128,--.--,72,0001:47:08,--.--,--.--,--.--,--.--,--.--,--.--,--.--,0,--.--,--.--,--.--,--.--,--.--,--.--,--.--,0,18:58:53,2020-08-02,--.--,--.--,--.--,--.--,--.--,--.--,--.--,0.00,--.--,--.--,true,true,true,true,true,true,false,false,true,true,false,false,0.01,0.00,0.00,0.00,0.00,0.00,0.43,0.20,43.9461398,-78.8985869,17TPJ 68632 68037,0.0,0.0,307.5,3,10,--.--,--.--,--.--,0.0,0.0,0.0,0,0,0,--.--,--.--,--.--
2020-08-02 18:58:54.812,4.4,-35.9,307,-0.7,0.3,0.4,5.0,-1.6,0.0,50.0,100.0,181.7,00:01:06,182.6,308,128,--.--,72,0001:47:08,--.--,--.--,--.--,--.--,--.--,--.--,--.--,0,--.--,--.--,--.--,--.--,--.--,--.--,--.--,0,18:58:54,2020-08-02,--.--,--.--,--.--,--.--,--.--,--.--,--.--,0.00,--.--,--.--,true,true,true,true,true,true,false,false,true,true,false,false,0.03,0.00,0.01,0.01,0.00,0.00,0.42,0.20,43.9461677,-78.8986371,17TPJ 68628 68040,0.0,0.0,307.7,3,10,--.--,--.--,--.--,0.0,0.0,0.0,0,0,0,--.--,--.--,--.--
2020-08-02 18:58:55.808,4.2,-36.0,307,-0.3,0.4,-0.1,5.0,4.7,0.0,50.0,100.0,186.7,00:01:07,187.6,308,128,--.--,72,0001:47:08,--.--,--.--,--.--,--.--,--.--,--.--,--.--,0,--.--,--.--,--.--,--.--,--.--,--.--,--.--,0,18:58:55,2020-08-02,--.--,--.--,--.--,--.--,--.--,--.--,--.--,0.00,--.--,--.--,true,true,true,true,true,true,false,false,true,true,false,false,0.02,0.00,0.00,0.01,0.00,0.00,0.42,0.20,43.9461959,-78.8986876,17TPJ 68624 68043,0.0,0.0,307.6,3,10,--.--,--.--,--.--,0.0,0.0,0.0,0,0,0,--.--,--.--,--.--
2020-08-02 18:58:56.810,4.2,-35.8,307,0.6,0.3,0.1,5.0,4.8,0.0,50.0,100.0,192.7,00:01:08,192.6,308,128,--.--,72,0001:47:08,--.--,--.--,--.--,--.--,--.--,--.--,--.--,0,--.--,--.--,--.--,--.--,--.--,--.--,--.--,0,18:58:56,2020-08-02,--.--,--.--,--.--,--.--,--.--,--.--,--.--,0.00,--.--,--.--,true,true,true,true,true,true,false,false,true,true,false,false,0.02,0.00,0.01,0.01,0.00,0.00,0.42,0.20,43.9462238,-78.8987379,17TPJ 68620 68046,0.0,0.0,307.7,3,10,--.--,--.--,--.--,0.0,0.0,0.0,0,0,0,--.--,--.--,--.--
2020-08-02 18:58:57.808,4.2,-35.8,307,-0.2,-0.3,-0.0,5.0,2.6,0.0,50.0,100.0,196.7,00:01:09,197.7,308,128,--.--,72,0001:47:08,--.--,--.--,--.--,--.--,--.--,--.--,--.--,0,--.--,--.--,--.--,--.--,--.--,--.--,--.--,0,18:58:57,2020-08-02,--.--,--.--,--.--,--.--,--.--,--.--,--.--,0.00,--.--,--.--,true,true,true,true,true,true,false,false,true,true,false,false,0.02,0.00,0.00,0.01,0.00,0.00,0.42,0.20,43.9462463,-78.8987785,17TPJ 68617 68048,0.0,0.0,307.5,3,10,--.--,--.--,--.--,0.0,0.0,0.0,0,0,0,--.--,--.--,--.--
2020-08-02 18:58:58.809,4.2,-36.0,307,0.4,-1.0,0.2,5.0,5.0,0.0,50.0,100.0,200.7,00:01:10,202.6,308,128,--.--,72,0001:47:08,--.--,--.--,--.--,--.--,--.--,--.--,--.--,0,--.--,--.--,--.--,--.--,--.--,--.--,--.--,0,18:58:58,2020-08-02,--.--,--.--,--.--,--.--,--.--,--.--,--.--,0.00,--.--,--.--,true,true,true,true,true,true,false,false,true,true,false,false,0.03,0.01,0.01,0.02,0.00,0.00,0.41,0.20,43.9462741,-78.8988288,17TPJ 68612 68051,0.0,0.0,307.3,3,10,--.--,--.--,--.--,0.0,0.0,0.0,0,0,0,--.--,--.--,--.--
2020-08-02 18:58:59.809,4.3,-36.1,307,-0.5,0.4,0.0,5.0,3.9,0.0,50.0,100.0,207.2,00:01:11,207.6,308,128,--.--,72,0001:47:08,--.--,--.--,--.--,--.--,--.--,--.--,--.--,0,--.--,--.--,--.--,--.--,--.--,--.--,--.--,0,18:58:59,2020-08-02,--.--,--.--,--.--,--.--,--.--,--.--,--.--,0.00,--.--,--.--,true,true,true,true,true,true,false,false,true,true,false,false,0.02,0.00,0.00,0.01,0.00,0.00,0.44,0.20,43.9463020,-78.8988795,17TPJ 68608 68054,0.0,0.0,307.6,3,10,--.--,--.--,--.--,0.0,0.0,0.0,0,0,0,--.--,--.--,--.--
2020-08-02 18:59:00.809,4.3,-36.1,307,0.3,-0.2,0.0,5.0,2.7,0.0,50.0,100.0,211.7,00:01:12,212.6,308,128,--.--,72,0001:47:08,--.--,--.--,--.--,--.--,--.--,--.--,--.--,0,--.--,--.--,--.--,--.--,--.--,--.--,--.--,0,18:59:00,2020-08-02,--.--,--.--,--.--,--.--,--.--,--.--,--.--,0.00,--.--,--.--,true,true,true,true,true,true,false,false,true,true,false,false,0.02,0.00,0.00,0.02,0.00,0.00,0.43,0.20,43.9463303,-78.8989306,17TPJ 68604 68057,0.0,0.0,307.4,3,10,--.--,--.--,--.--,0.0,0.0,0.0,0,0,0,--.--,--.--,--.--
2020-08-02 18:59:01.809,4.3,-36.0,307,0.5,1.0,0.6,5.0,2.5,-0.0,50.0,100.1,217.7,00:01:13,217.7,308,128,--.--,72,0001:47:08,--.--,--.--,--.--,--.--,--.--,--.--,--.--,0,--.--,--.--,--.--,--.--,--.--,--.--,--.--,0,18:59:01,2020-08-02,--.--,--.--,--.--,--.--,--.--,--.--,--.--,0.00,--.--,--.--,true,true,true,true,true,true,false,false,true,true,false,false,0.01,0.01,0.00,0.01,0.00,0.00,0.43,0.20,43.9463585,-78.8989814,17TPJ 68600 68060,0.0,0.0,307.8,3,10,--.--,--.--,--.--,0.0,0.0,0.0,0,0,0,--.--,--.--,--.--
2020-08-02 18:59:02.810,4.3,-36.0,307,0.2,-0.1,-0.1,5.0,3.8,-0.0,50.0,100.0,222.2,00:01:14,222.7,308,128,--.--,72,0001:47:08,--.--,--.--,--.--,--.--,--.--,--.--,--.--,0,--.--,--.--,--.--,--.--,--.--,--.--,--.--,0,18:59:02,2020-08-02,--.--,--.--,--.--,--.--,--.--,--.--,--.--,0.00,--.--,--.--,true,true,true,true,true,true,false,false,true,true,false,false,0.01,0.01,0.00,0.01,0.00,0.00,0.43,0.20,43.9463867,-78.8990319,17TPJ 68596 68063,0.0,0.0,307.9,3,10,--.--,--.--,--.--,0.0,0.0,0.0,0,0,0,--.--,--.--,--.--
2020-08-02 18:59:03.810,4.2,-35.9,307,-0.1,-0.0,0.5,5.0,-0.7,0.0,50.0,100.0,226.3,00:01:15,227.7,308,128,--.--,72,0001:47:08,--.--,--.--,--.--,--.--,--.--,--.--,--.--,0,--.--,--.--,--.--,--.--,--.--,--.--,--.--,0,18:59:03,2020-08-02,--.--,--.--,--.--,--.--,--.--,--.--,--.--,0.00,--.--,--.--,true,true,true,true,true,true,false,false,true,true,false,false,0.04,0.01,0.00,0.01,0.00,0.00,0.43,0.20,43.9464152,-78.8990826,17TPJ 68592 68066,0.0,0.0,308.1,3,10,--.--,--.--,--.--,0.0,0.0,0.0,0,0,0,--.--,--.--,--.--
2020-08-02 18:59:04.808,4.2,-35.9,307,0.8,-0.4,0.7,5.0,4.0,0.0,50.0,100.0,230.8,00:01:16,232.7,308,128,--.--,72,0001:47:08,--.--,--.--,--.--,--.--,--.--,--.--,--.--,0,--.--,--.--,--.--,--.--,--.--,--.--,--.--,0,18:59:04,2020-08-02,--.--,--.--,--.--,--.--,--.--,--.--,--.--,0.00,--.--,--.--,true,true,true,true,true,true,false,false,true,true,false,false,0.01,0.01,0.01,0.01,0.00,0.00,0.42,0.20,43.9464435,-78.8991331,17TPJ 68588 68069,0.0,0.0,308.0,3,10,--.--,--.--,--.--,0.0,0.0,0.0,0,0,0,--.--,--.--,--.--
2020-08-02 18:59:05.810,4.1,-35.9,307,-0.2,1.5,0.2,5.0,1.8,0.0,50.0,100.0,237.3,00:01:17,237.7,308,128,--.--,72,0001:47:08,--.--,--.--,--.--,--.--,--.--,--.--,--.--,0,--.--,--.--,--.--,--.--,--.--,--.--,--.--,0,18:59:05,2020-08-02,--.--,--.--,--.--,--.--,--.--,--.--,--.--,0.00,--.--,--.--,true,true,true,true,true,true,false,false,true,true,false,false,0.01,0.01,0.01,0.00,0.00,0.00,0.42,0.20,43.9464718,-78.8991834,17TPJ 68583 68072,0.0,0.0,307.7,3,10,--.--,--.--,--.--,0.0,0.0,0.0,0,0,0,--.--,--.--,--.--
2020-08-02 18:59:06.809,4.1,-36.0,307,0.3,0.8,0.0,5.0,5.2,0.0,50.0,100.0,242.3,00:01:18,242.7,308,128,--.--,72,0001:47:08,--.--,--.--,--.--,--.--,--.--,--.--,--.--,0,--.--,--.--,--.--,--.--,--.--,--.--,--.--,0,18:59:06,2020-08-02,--.--,--.--,--.--,--.--,--.--,--.--,--.--,0.00,--.--,--.--,true,true,true,true,true,true,false,false,true,true,false,false,0.01,0.01,0.00,0.01,0.00,0.00,0.42,0.20,43.9465000,-78.8992339,17TPJ 68579 68076,0.0,0.0,307.8,3,10,--.--,--.--,--.--,0.0,0.0,0.0,0,0,0,--.--,--.--,--.--
2020-08-02 18:59:07.812,4.0,-36.0,307,1.1,-0.0,-0.1,4.9,3.0,0.0,50.0,100.0,246.8,00:01:19,247.7,308,128,--.--,72,0001:47:08,--.--,--.--,--.--,--.--,--.--,--.--,--.--,0,--.--,--.--,--.--,--.--,--.--,--.--,--.--,0,18:59:07,2020-08-02,--.--,--.--,--.--,--.--,--.--,--.--,--.--,0.00,--.--,--.--,true,true,true,true,true,true,false,false,true,true,false,false,0.02,0.01,0.00,0.01,0.00,0.00,0.41,0.20,43.9465227,-78.8992745,17TPJ 68576 68078,0.0,0.0,307.6,3,10,--.--,--.--,--.--,0.0,0.0,0.0,0,0,0,--.--,--.--,--.--
2020-08-02 18:59:08.808,4.0,-35.9,307,-1.0,-0.5,0.2,4.9,3.9,0.0,50.0,100.0,251.8,00:01:20,252.7,308,128,--.--,72,0001:47:08,--.--,--.--,--.--,--.--,--.--,--.--,--.--,0,--.--,--.--,--.--,--.--,--.--,--.--,--.--,0,18:59:08,2020-08-02,--.--,--.--,--.--,--.--,--.--,--.--,--.--,0.00,--.--,--.--,true,true,true,true,true,true,false,false,true,true,false,false,0.01,0.01,0.01,0.01,0.00,0.00,0.41,0.20,43.9465509,-78.8993249,17TPJ 68572 68081,0.0,0.0,307.9,3,10,--.--,--.--,--.--,0.0,0.0,0.0,0,0,0,--.--,--.--,--.--
2020-08-02 18:59:09.812,4.1,-36.0,307,0.5,-0.7,0.7,4.9,4.5,-0.0,50.0,100.1,256.3,00:01:21,257.8,308,128,--.--,72,0001:47:08,--.--,--.--,--.--,--.--,--.--,--.--,--.--,0,--.--,--.--,--.--,--.--,--.--,--.--,--.--,0,18:59:09,2020-08-02,--.--,--.--,--.--,--.--,--.--,--.--,--.--,0.00,--.--,--.--,true,true,true,true,true,true,false,false,true,true,false,false,0.01,0.02,0.00,0.01,0.00,0.00,0.43,0.20,43.9465794,-78.8993756,17TPJ 68568 68084,0.0,0.0,307.8,3,10,--.--,--.--,--.--,0.0,0.0,0.0,0,0,0,--.--,--.--,--.--
2020-08-02 18:59:10.813,4.1,-36.1,307,-0.3,0.7,-0.2,4.9,3.3,-0.0,50.0,100.1,262.3,00:01:22,262.7,308,128,--.--,72,0001:47:08,--.--,--.--,--.--,--.--,--.--,--.--,--.--,0,--.--,--.--,--.--,--.--,--.--,--.--,--.--,0,18:59:10,2020-08-02,--.--,--.--,--.--,--.--,--.--,--.--,--.--,0.00,--.--,--.--,true,true,true,true,true,true,false,false,true,true,false,false,0.03,0.01,0.01,0.01,0.00,0.00,0.43,0.20,43.9466077,-78.8994261,17TPJ 68564 68087,0.0,0.0,307.9,3,10,--.--,--.--,--.--,0.0,0.0,0.0,0,0,0,--.--,--.--,--.--
2020-08-02 18:59:11.813,4.1,-35.8,307,-0.3,1.4,-0.1,4.9,4.3,-0.0,50.0,100.1,266.3,00:01:23,267.8,308,128,--.--,72,0001:47:08,--.--,--.--,--.--,--.--,--.--,--.--,--.--,0,--.--,--.--,--.--,--.--,--.--,--.--,--.--,0,18:59:11,2020-08-02,--.--,--.--,--.--,--.--,--.--,--.--,--.--,0.00,--.--,--.--,true,true,true,true,true,true,false,false,true,true,false,false,0.03,0.01,0.00,0.02,0.00,0.00,0.43,0.20,43.9466360,-78.8994764,17TPJ 68559 68090,0.0,0.0,308.0,3,10,--.--,--.--,--.--,0.0,0.0,0.0,0,0,0,--.--,--.--,--.--
2020-08-02 18:59:12.813,4.1,-35.9,307,-0.1,-0.6,-0.2,4.9,4.0,-0.0,50.0,100.1,272.8,00:01:24,272.8,308,128,--.--,72,0001:47:08,--.--,--.--,--.--,--.--,--.--,--.--,--.--,0,--.--,--.--,--.--,--.--,--.--,--.--,--.--,0,18:59:12,2020-08-02,--.--,--.--,--.--,--.--,--.--,--.--,--.--,0.00,--.--,--.--,true,true,true,true,true,true,false,false,true,true,false,false,0.03,0.02,0.00,0.02,0.00,0.00,0.43,0.20,43.9466645,-78.8995267,17TPJ 68555 68093,0.0,0.0,308.0,3,10,--.--,--.--,--.--,0.0,0.0,0.0,0,0,0,--.--,--.--,--.--
2020-08-02 18:59:13.814,4.1,-36.0,307,1.3,-0.7,0.3,4.9,3.6,-0.0,50.0,100.1,276.8,00:01:25,277.8,308,128,--.--,71,0001:47:08,--.--,--.--,--.--,--.--,--.--,--.--,--.--,0,--.--,--.--,--.--,--.--,--.--,--.--,--.--,0,18:59:13,2020-08-02,--.--,--.--,--.--,--.--,--.--,--.--,--.--,0.00,--.--,--.--,true,true,true,true,true,true,false,false,true,true,false,false,0.03,0.02,0.00,0.01,0.00,0.00,0.42,0.20,43.9466927,-78.8995771,17TPJ 68551 68096,0.0,0.0,307.8,3,10,--.--,--.--,--.--,0.0,0.0,0.0,0,0,0,--.--,--.--,--.--
2020-08-02 18:59:14.814,3.8,-35.9,307,-0.8,-0.2,0.5,4.9,4.5,-0.0,50.0,100.1,281.8,00:01:26,282.8,308,128,--.--,71,0001:47:08,--.--,--.--,--.--,--.--,--.--,--.--,--.--,0,--.--,--.--,--.--,--.--,--.--,--.--,--.--,0,18:59:14,2020-08-02,--.--,--.--,--.--,--.--,--.--,--.--,--.--,0.00,--.--,--.--,true,true,true,true,true,true,false,false,true,true,false,false,0.03,0.02,0.01,0.01,0.00,0.00,0.42,0.20,43.9467208,-78.8996270,17TPJ 68547 68099,0.0,0.0,307.8,3,10,--.--,--.--,--.--,0.0,0.0,0.0,0,0,0,--.--,--.--,--.--
2020-08-02 18:59:15.815,3.8,-35.9,307,-0.8,0.2,-0.0,5.0,4.5,0.0,50.0,100.0,286.3,00:01:27,287.8,308,128,--.--,71,0001:47:08,--.--,--.--,--.--,--.--,--.--,--.--,--.--,0,--.--,--.--,--.--,--.--,--.--,--.--,--.--,0,18:59:15,2020-08-02,--.--,--.--,--.--,--.--,--.--,--.--,--.--,0.00,--.--,--.--,true,true,true,true,true,true,false,false,true,true,false,false,0.02,0.01,0.01,0.03,0.00,0.00,0.42,0.20,43.9467484,-78.8996767,17TPJ 68543 68102,0.0,0.0,308.0,3,10,--.--,--.--,--.--,0.0,0.0,0.0,0,0,0,--.--,--.--,--.--
2020-08-02 18:59:16.815,3.8,-35.7,307,-0.1,-1.1,0.2,5.0,5.0,0.0,50.0,100.0,291.3,00:01:28,292.7,308,128,--.--,71,0001:47:08,--.--,--.--,--.--,--.--,--.--,--.--,--.--,0,--.--,--.--,--.--,--.--,--.--,--.--,--.--,0,18:59:16,2020-08-02,--.--,--.--,--.--,--.--,--.--,--.--,--.--,0.00,--.--,--.--,true,true,true,true,true,true,false,false,true,true,false,false,0.02,0.01,0.00,0.03,0.00,0.00,0.42,0.20,43.9467762,-78.8997268,17TPJ 68539 68105,0.0,0.0,307.4,3,10,--.--,--.--,--.--,0.0,0.0,0.0,0,0,0,--.--,--.--,--.--
2020-08-02 18:59:17.808,4.0,-36.0,307,0.5,0.1,-0.5,5.0,1.7,0.0,50.0,100.0,296.2,00:01:29,297.7,308,128,--.--,71,0001:47:08,--.--,--.--,--.--,--.--,--.--,--.--,--.--,0,--.--,--.--,--.--,--.--,--.--,--.--,--.--,0,18:59:17,2020-08-02,--.--,--.--,--.--,--.--,--.--,--.--,--.--,0.00,--.--,--.--,true,true,true,true,true,true,false,false,true,true,false,false,0.03,0.00,0.00,0.01,0.00,0.00,0.41,0.20,43.9467982,-78.8997667,17TPJ 68536 68108,0.0,0.0,307.8,3,10,--.--,--.--,--.--,0.0,0.0,0.0,0,0,0,--.--,--.--,--.--
2020-08-02 18:59:18.809,3.8,-36.1,307,-1.2,0.0,0.1,5.0,4.7,0.0,50.0,100.0,301.2,00:01:30,302.6,308,128,--.--,71,0001:47:08,--.--,--.--,--.--,--.--,--.--,--.--,--.--,0,--.--,--.--,--.--,--.--,--.--,--.--,--.--,0,18:59:18,2020-08-02,--.--,--.--,--.--,--.--,--.--,--.--,--.--,0.00,--.--,--.--,true,true,true,true,true,true,false,false,true,true,false,false,0.05,0.00,0.01,0.01,0.00,0.00,0.41,0.20,43.9468259,-78.8998166,17TPJ 68532 68111,0.0,0.0,307.5,3,10,--.--,--.--,--.--,0.0,0.0,0.0,0,0,0,--.--,--.--,--.--
2020-08-02 18:59:19.808,4.1,-33.0,307,0.5,18.8,-1.2,4.9,4.9,-0.0,49.9,100.0,306.2,00:01:31,307.6,308,128,--.--,69,0001:47:08,--.--,--.--,--.--,--.--,--.--,--.--,--.--,0,--.--,--.--,--.--,--.--,--.--,--.--,--.--,0,18:59:19,2020-08-02,--.--,--.--,--.--,--.--,--.--,--.--,--.--,0.00,--.--,--.--,true,true,true,true,true,true,false,false,true,true,false,false,0.04,0.00,0.00,0.01,0.00,0.00,0.43,0.20,43.9468538,-78.8998669,17TPJ 68527 68114,0.0,0.0,307.5,3,10,--.--,--.--,--.--,0.0,0.0,0.0,0,0,0,--.--,--.--,--.--
2020-08-02 18:59:20.817,3.5,-19.9,307,-0.3,10.3,-2.0,3.5,2.3,0.1,49.9,99.9,310.8,00:01:32,311.9,308,128,--.--,63,0001:47:08,--.--,--.--,--.--,--.--,--.--,--.--,--.--,0,--.--,--.--,--.--,--.--,--.--,--.--,--.--,0,18:59:20,2020-08-02,--.--,--.--,--.--,--.--,--.--,--.--,--.--,0.00,--.--,--.--,true,true,true,true,true,true,false,false,true,true,false,false,0.04,0.01,0.01,0.02,0.00,0.00,0.43,0.20,43.9468796,-78.8999117,17TPJ 68524 68116,0.0,0.0,310.3,3,10,--.--,--.--,--.--,0.0,0.0,0.0,0,0,0,--.--,--.--,--.--
2020-08-02 18:59:21.811,-1.0,-7.8,295,-24.1,18.4,-34.7,2.1,3.2,0.1,49.9,100.0,313.0,00:01:33,314.8,192,128,--.--,59,0001:47:08,--.--,--.--,--.--,--.--,--.--,--.--,--.--,0,--.--,--.--,--.--,--.--,--.--,--.--,--.--,0,18:59:21,2020-08-02,--.--,--.--,--.--,--.--,--.--,--.--,--.--,0.00,--.--,--.--,true,true,true,true,true,true,false,false,true,true,false,false,0.06,0.01,0.00,0.03,0.00,0.00,0.43,0.20,43.9468981,-78.8999406,17TPJ 68521 68118,0.0,0.0,313.8,3,10,--.--,--.--,--.--,0.0,0.0,0.0,0,0,0,--.--,--.--,--.--
2020-08-02 18:59:22.808,-6.8,-3.9,251,-1.9,4.3,-45.5,1.0,3.1,0.1,50.0,100.0,315.0,00:01:34,316.0,192,128,--.--,57,0001:47:08,--.--,--.--,--.--,--.--,--.--,--.--,--.--,0,--.--,--.--,--.--,--.--,--.--,--.--,--.--,0,18:59:22,2020-08-02,--.--,--.--,--.--,--.--,--.--,--.--,--.--,0.00,--.--,--.--,true,true,true,true,true,true,false,false,true,true,false,false,0.09,0.02,0.01,0.04,0.00,0.00,0.42,0.20,43.9469048,-78.8999562,17TPJ 68520 68119,0.0,0.0,261.7,3,10,--.--,--.--,--.--,0.0,0.0,0.0,0,0,0,--.--,--.--,--.--
2020-08-02 18:59:23.809,-5.1,-6.9,206,-3.0,-0.8,-45.1,0.9,2.0,0.0,50.0,100.1,315.0,00:01:35,316.0,192,128,--.--,57,0001:47:08,--.--,--.--,--.--,--.--,--.--,--.--,--.--,0,--.--,--.--,--.--,--.--,--.--,--.--,--.--,0,18:59:23,2020-08-02,--.--,--.--,--.--,--.--,--.--,--.--,--.--,0.00,--.--,--.--,true,true,true,true,true,true,false,false,true,true,false,false,0.11,0.03,0.01,0.03,0.00,0.00,0.42,0.20,43.9469001,-78.8999609,17TPJ 68520 68118,0.0,0.0,185.4,3,10,--.--,--.--,--.--,0.0,0.0,0.0,0,0,0,--.--,--.--,--.--
2020-08-02 18:59:24.818,-1.4,-9.2,174,0.7,0.2,-6.1,0.9,-3.4,-0.0,50.0,100.1,315.0,00:01:36,315.4,192,128,--.--,58,0001:47:08,--.--,--.--,--.--,--.--,--.--,--.--,--.--,0,--.--,--.--,--.--,--.--,--.--,--.--,--.--,0,18:59:24,2020-08-02,--.--,--.--,--.--,--.--,--.--,--.--,--.--,0.00,--.--,--.--,true,true,true,true,true,true,false,false,true,true,false,false,0.13,0.05,0.00,0.02,0.00,0.00,0.42,0.20,43.9468919,-78.8999591,17TPJ 68520 68118,0.0,0.0,164.1,3,10,--.--,--.--,--.--,0.0,0.0,0.0,0,0,0,--.--,--.--,--.--
2020-08-02 18:59:25.818,-0.1,-11.7,174,1.8,-2.7,2.3,1.1,3.9,-0.0,50.0,100.1,317.1,00:01:37,314.6,192,127,--.--,58,0001:47:08,--.--,--.--,--.--,--.--,--.--,--.--,--.--,0,--.--,--.--,--.--,--.--,--.--,--.--,--.--,0,18:59:25,2020-08-02,--.--,--.--,--.--,--.--,--.--,--.--,--.--,0.00,--.--,--.--,true,true,true,true,true,true,false,false,true,true,false,false,0.11,0.05,0.00,0.01,0.00,0.00,0.42,0.20,43.9468822,-78.8999550,17TPJ 68520 68116,0.0,0.0,164.5,3,10,--.--,--.--,--.--,0.0,0.0,0.0,0,0,0,--.--,--.--,--.--
2020-08-02 18:59:26.813,1.0,-17.2,176,1.8,-6.2,2.2,1.6,-1.4,-0.0,50.1,100.1,317.1,00:01:38,313.5,192,127,--.--,60,0001:47:08,--.--,--.--,--.--,--.--,--.--,--.--,--.--,0,--.--,--.--,--.--,--.--,--.--,--.--,--.--,0,18:59:26,2020-08-02,--.--,--.--,--.--,--.--,--.--,--.--,--.--,0.00,--.--,--.--,true,true,true,true,true,true,false,false,true,true,false,false,0.12,0.05,0.02,0.03,0.00,0.00,0.42,0.20,43.9468723,-78.8999519,17TPJ 68521 68115,0.0,0.0,169.8,3,10,--.--,--.--,--.--,0.0,0.0,0.0,0,0,0,--.--,--.--,--.--
2020-08-02 18:59:27.819,1.5,-24.2,178,1.5,-4.7,1.8,2.5,3.0,-0.1,50.1,100.1,319.2,00:01:39,312.1,192,127,--.--,63,0001:47:08,--.--,--.--,--.--,--.--,--.--,--.--,--.--,0,--.--,--.--,--.--,--.--,--.--,--.--,--.--,0,18:59:27,2020-08-02,--.--,--.--,--.--,--.--,--.--,--.--,--.--,0.00,--.--,--.--,true,true,true,true,true,true,false,false,true,true,false,false,0.10,0.05,0.01,0.02,0.00,0.00,0.42,0.20,43.9468549,-78.8999492,17TPJ 68521 68113,0.0,0.0,176.3,3,10,--.--,--.--,--.--,0.0,0.0,0.0,0,0,0,--.--,--.--,--.--
2020-08-02 18:59:28.821,1.1,-25.4,181,0.8,-2.0,-2.9,3.2,2.5,-0.1,50.0,100.1,323.5,00:01:40,310.2,180,127,--.--,64,0001:47:08,--.--,--.--,--.--,--.--,--.--,--.--,--.--,0,--.--,--.--,--.--,--.--,--.--,--.--,--.--,0,18:59:28,2020-08-02,--.--,--.--,--.--,--.--,--.--,--.--,--.--,0.00,--.--,--.--,true,true,true,true,true,true,false,false,true,true,false,false,0.10,0.05,0.00,0.01,0.00,0.00,0.44,0.20,43.9468290,-78.8999476,17TPJ 68521 68111,0.0,0.0,178.5,3,10,--.--,--.--,--.--,0.0,0.0,0.0,0,0,0,--.--,--.--,--.--
2020-08-02 18:59:29.809,0.9,-26.9,180,1.0,-0.9,-0.2,3.6,-1.8,-0.0,50.0,100.0,325.5,00:01:41,308.0,180,126,--.--,65,0001:47:08,--.--,--.--,--.--,--.--,--.--,--.--,--.--,0,--.--,--.--,--.--,--.--,--.--,--.--,--.--,0,18:59:29,2020-08-02,--.--,--.--,--.--,--.--,--.--,--.--,--.--,0.00,--.--,--.--,true,true,true,true,true,true,false,false,true,true,false,false,0.08,0.05,0.01,0.02,0.00,0.00,0.44,0.20,43.9467977,-78.8999467,17TPJ 68521 68107,0.0,0.0,178.1,3,10,--.--,--.--,--.--,0.0,0.0,0.0,0,0,0,--.--,--.--,--.--
2020-08-02 18:59:30.814,1.6,-27.7,180,0.9,-0.8,0.3,3.9,4.3,0.0,50.0,100.0,329.9,00:01:42,305.7,180,125,--.--,66,0001:47:08,--.--,--.--,--.--,--.--,--.--,--.--,--.--,0,--.--,--.--,--.--,--.--,--.--,--.--,--.--,0,18:59:30,2020-08-02,--.--,--.--,--.--,--.--,--.--,--.--,--.--,0.00,--.--,--.--,true,true,true,true,true,true,false,false,true,true,false,false,0.04,0.04,0.00,0.03,0.00,0.00,0.43,0.20,43.9467634,-78.8999454,17TPJ 68521 68103,0.0,0.0,179.0,3,10,--.--,--.--,--.--,0.0,0.0,0.0,0,0,0,--.--,--.--,--.--
2020-08-02 18:59:31.808,2.1,-28.3,180,-1.3,0.5,0.0,4.1,2.0,0.0,50.0,100.0,334.3,00:01:43,303.3,180,125,--.--,67,0001:47:08,--.--,--.--,--.--,--.--,--.--,--.--,--.--,0,--.--,--.--,--.--,--.--,--.--,--.--,--.--,0,18:59:31,2020-08-02,--.--,--.--,--.--,--.--,--.--,--.--,--.--,0.00,--.--,--.--,true,true,true,true,true,true,false,false,true,true,false,false,0.03,0.03,0.01,0.00,0.00,0.00,0.43,0.20,43.9467268,-78.8999450,17TPJ 68522 68099,0.0,0.0,179.6,3,10,--.--,--.--,--.--,0.0,0.0,0.0,0,0,0,--.--,--.--,--.--
2020-08-02 18:59:32.809,2.5,-28.9,180,-0.4,-1.0,0.4,4.2,2.7,0.0,49.9,100.0,338.4,00:01:44,300.9,180,124,--.--,67,0001:47:08,--.--,--.--,--.--,--.--,--.--,--.--,--.--,0,--.--,--.--,--.--,--.--,--.--,--.--,--.--,0,18:59:32,2020-08-02,--.--,--.--,--.--,--.--,--.--,--.--,--.--,0.00,--.--,--.--,true,true,true,true,true,true,false,false,true,true,false,false,0.04,0.02,0.00,0.00,0.00,0.00,0.43,0.20,43.9466884,-78.8999453,17TPJ 68522 68095,0.0,0.0,180.7,3,10,--.--,--.--,--.--,0.0,0.0,0.0,0,0,0,--.--,--.--,--.--
2020-08-02 18:59:33.808,2.6,-29.4,180,0.6,0.1,-0.7,4.4,4.0,0.0,49.9,100.0,342.8,00:01:45,298.5,180,124,--.--,68,0001:47:08,--.--,--.--,--.--,--.--,--.--,--.--,--.--,0,--.--,--.--,--.--,--.--,--.--,--.--,--.--,0,18:59:33,2020-08-02,--.--,--.--,--.--,--.--,--.--,--.--,--.--,0.00,--.--,--.--,true,true,true,true,true,true,false,false,true,true,false,false,0.02,0.01,0.00,0.04,0.00,0.00,0.42,0.20,43.9466490,-78.8999461,17TPJ 68522 68091,0.0,0.0,180.7,3,10,--.--,--.--,--.--,0.0,0.0,0.0,0,0,0,--.--,--.--,--.--
2020-08-02 18:59:34.808,2.6,-29.7,180,0.5,-0.2,0.5,4.5,2.7,0.0,49.9,100.0,347.1,00:01:46,296.1,180,123,--.--,68,0001:47:08,--.--,--.--,--.--,--.--,--.--,--.--,--.--,0,--.--,--.--,--.--,--.--,--.--,--.--,--.--,0,18:59:34,2020-08-02,--.--,--.--,--.--,--.--,--.--,--.--,--.--,0.00,--.--,--.--,true,true,true,true,true,true,false,false,true,true,false,false,0.02,0.01,0.01,0.00,0.00,0.00,0.42,0.20,43.9466086,-78.8999470,17TPJ 68522 68086,0.0,0.0,180.7,3,10,--.--,--.--,--.--,0.0,0.0,0.0,0,0,0,--.--,--.--,--.--
2020-08-02 18:59:35.811,2.4,-30.2,180,-0.4,-0.1,0.1,4.5,3.1,0.0,50.0,100.0,351.7,00:01:47,293.8,180,122,--.--,68,0001:47:08,--.--,--.--,--.--,--.--,--.--,--.--,--.--,0,--.--,--.--,--.--,--.--,--.--,--.--,--.--,0,18:59:35,2020-08-02,--.--,--.--,--.--,--.--,--.--,--.--,--.--,0.00,--.--,--.--,true,true,true,true,true,true,false,false,true,true,false,false,0.01,0.01,0.01,0.01,0.00,0.00,0.42,0.20,43.9465753,-78.8999477,17TPJ 68522 68082,0.0,0.0,180.6,3,10,--.--,--.--,--.--,0.0,0.0,0.0,0,0,0,--.--,--.--,--.--
2020-08-02 18:59:36.808,2.2,-30.4,180,1.5,-1.0,-0.0,4.6,5.1,0.0,50.0,100.0,356.2,00:01:48,291.4,180,121,--.--,68,0001:47:08,--.--,--.--,--.--,--.--,--.--,--.--,--.--,0,--.--,--.--,--.--,--.--,--.--,--.--,--.--,0,18:59:36,2020-08-02,--.--,--.--,--.--,--.--,--.--,--.--,--.--,0.00,--.--,--.--,true,true,true,true,true,true,false,false,true,true,false,false,0.02,0.01,0.01,0.00,0.00,0.00,0.42,0.20,43.9465335,-78.8999484,17TPJ 68522 68078,0.0,0.0,180.6,3,10,--.--,--.--,--.--,0.0,0.0,0.0,0,0,0,--.--,--.--,--.--
2020-08-02 18:59:37.808,2.4,-30.7,180,0.1,0.5,-0.3,4.7,3.9,0.0,50.0,100.0,360.9,00:01:49,289.0,180,121,--.--,69,0001:47:08,--.--,--.--,--.--,--.--,--.--,--.--,--.--,0,--.--,--.--,--.--,--.--,--.--,--.--,--.--,0,18:59:37,2020-08-02,--.--,--.--,--.--,--.--,--.--,--.--,--.--,0.00,--.--,--.--,true,true,true,true,true,true,false,false,true,true,false,false,0.02,0.01,0.01,0.01,0.00,0.00,0.41,0.20,43.9464907,-78.8999488,17TPJ 68522 68073,0.0,0.0,180.3,3,10,--.--,--.--,--.--,0.0,0.0,0.0,0,0,0,--.--,--.--,--.--
2020-08-02 18:59:38.808,2.3,-30.8,180,0.3,-0.0,0.0,4.7,4.6,0.0,50.0,100.0,365.6,00:01:50,286.7,180,120,--.--,69,0001:47:08,--.--,--.--,--.--,--.--,--.--,--.--,--.--,0,--.--,--.--,--.--,--.--,--.--,--.--,--.--,0,18:59:38,2020-08-02,--.--,--.--,--.--,--.--,--.--,--.--,--.--,0.00,--.--,--.--,true,true,true,true,true,true,false,false,true,true,false,false,0.02,0.01,0.00,0.01,0.00,0.00,0.44,0.20,43.9464472,-78.8999491,17TPJ 68522 68068,0.0,0.0,180.2,3,10,--.--,--.--,--.--,0.0,0.0,0.0,0,0,0,--.--,--.--,--.--
2020-08-02 18:59:39.808,2.4,-31.1,180,-0.7,-0.2,-0.1,4.8,4.0,0.0,50.0,100.0,370.3,00:01:51,284.3,180,119,--.--,69,0001:47:08,--.--,--.--,--.--,--.--,--.--,--.--,--.--,0,--.--,--.--,--.--,--.--,--.--,--.--,--.--,0,18:59:39,2020-08-02,--.--,--.--,--.--,--.--,--.--,--.--,--.--,0.00,--.--,--.--,true,true,true,true,true,true,false,false,true,true,false,false,0.02,0.01,0.00,0.01,0.00,0.00,0.43,0.20,43.9464034,-78.8999493,17TPJ 68522 68063,0.0,0.0,180.2,3,10,--.--,--.--,--.--,0.0,0.0,0.0,0,0,0,--.--,--.--,--.--
2020-08-02 18:59:40.808,2.5,-31.2,180,-1.4,-0.1,0.5,4.8,4.3,0.0,50.0,100.0,375.1,00:01:52,282.1,180,118,--.--,69,0001:47:08,--.--,--.--,--.--,--.--,--.--,--.--,--.--,0,--.--,--.--,--.--,--.--,--.--,--.--,--.--,0,18:59:40,2020-08-02,--.--,--.--,--.--,--.--,--.--,--.--,--.--,0.00,--.--,--.--,true,true,true,true,true,true,false,false,true,true,false,false,0.03,0.01,0.00,0.00,0.00,0.00,0.43,0.20,43.9463593,-78.8999495,17TPJ 68522 68058,0.0,0.0,180.1,3,10,--.--,--.--,--.--,0.0,0.0,0.0,0,0,0,--.--,--.--,--.--
2020-08-02 18:59:41.811,2.4,-31.3,180,0.9,-0.7,-0.8,4.8,4.6,0.0,50.0,100.0,380.0,00:01:53,279.8,180,117,--.--,69,0001:47:08,--.--,--.--,--.--,--.--,--.--,--.--,--.--,0,--.--,--.--,--.--,--.--,--.--,--.--,--.--,0,18:59:41,2020-08-02,--.--,--.--,--.--,--.--,--.--,--.--,--.--,0.00,--.--,--.--,true,true,true,true,true,true,false,false,true,true,false,false,0.01,0.01,0.00,0.02,0.00,0.00,0.43,0.20,43.9463145,-78.8999497,17TPJ 68522 68053,0.0,0.0,180.4,3,10,--.--,--.--,--.--,0.0,0.0,0.0,0,0,0,--.--,--.--,--.--
