Timestamp,roll,pitch,heading,rollRate,pitchRate,yawRate,groundSpeed,airSpeed,climbRate,altitudeRelative,altitudeAMSL,flightDistance,flightTime,distanceToHome,headingToNextWP,headingToHome,distanceToGCS,throttlePct,hobbs,battery.voltage,battery.percentRemaining,battery.mahConsumed,battery.current,battery.temperature,battery.instantPower,battery.timeRemaining,battery.chargeState,battery2.voltage,battery2.percentRemaining,battery2.mahConsumed,battery2.current,battery2.temperature,battery2.instantPower,battery2.timeRemaining,battery2.chargeState,clock.currentTime,clock.currentDate,distanceSensor.rotationNone,distanceSensor.rotationYaw45,distanceSensor.rotationYaw90,distanceSensor.rotationYaw135,distanceSensor.rotationYaw180,distanceSensor.rotationYaw225,distanceSensor.rotationYaw270,distanceSensor.rotationYaw315,distanceSensor.rotationPitch90,distanceSensor.rotationPitch270,estimatorStatus.goodAttitudeEsimate,estimatorStatus.goodHorizVelEstimate,estimatorStatus.goodVertVelEstimate,estimatorStatus.goodHorizPosRelEstimate,estimatorStatus.goodHorizPosAbsEstimate,estimatorStatus.goodVertPosAbsEstimate,estimatorStatus.goodVertPosAGLEstimate,estimatorStatus.goodConstPosModeEstimate,estimatorStatus.goodPredHorizPosRelEstimate,estimatorStatus.goodPredHorizPosAbsEstimate,estimatorStatus.gpsGlitch,estimatorStatus.accelError,estimatorStatus.velRatio,estimatorStatus.horizPosRatio,estimatorStatus.vertPosRatio,estimatorStatus.magRatio,estimatorStatus.haglRatio,estimatorStatus.tasRatio,estimatorStatus.horizPosAccuracy,estimatorStatus.vertPosAccuracy,gps.lat,gps.lon,gps.mgrs,gps.hdop,gps.vdop,gps.courseOverGround,gps.lock,gps.count,temperature.temperature1,temperature.temperature2,temperature.temperature3,vibration.xAxis,vibration.yAxis,vibration.zAxis,vibration.clipCount1,vibration.clipCount2,vibration.clipCount3,wind.direction,wind.speed,wind.verticalSpeed
2020-08-02 19:43:29.335,10.6,4.9,104,4.0,2.0,0.9,23.0,23.5,1.8,0.6,50.7,20.3,00:00:00,29.8,341,281,--.--,100,0000:00:00,12.14,100,0,-1.00,--.--,-12.14,--.--,0,--.--,--.--,--.--,--.--,--.--,--.--,--.--,0,19:43:29,2020-08-02,--.--,--.--,--.--,--.--,--.--,--.--,--.--,0.00,--.--,--.--,true,true,true,true,true,true,true,false,true,true,true,false,1.07,0.07,0.02,0.00,0.00,0.25,0.43,0.19,43.9451550,-78.8967869,17TPJ 68779 67931,0.0,0.0,90.0,3,10,--.--,--.--,--.--,0.0,0.0,0.0,0,0,0,283.0,4.8,0.0
2020-08-02 19:43:30.357,11.5,11.2,106,0.3,9.9,2.8,22.6,23.4,4.0,4.5,54.7,41.1,00:00:00,52.4,341,277,--.--,100,0000:00:00,12.13,99,0,-1.00,--.--,-12.13,--.--,0,--.--,--.--,--.--,--.--,--.--,--.--,--.--,0,19:43:30,2020-08-02,--.--,--.--,--.--,--.--,--.--,--.--,--.--,0.00,--.--,--.--,true,true,true,true,true,true,true,false,true,true,false,false,0.60,0.53,0.09,0.02,0.00,0.30,0.52,0.24,43.9451507,-78.8965093,17TPJ 68802 67931,0.0,0.0,93.2,3,10,--.--,--.--,--.--,0.0,0.0,0.0,0,0,0,279.7,1.6,0.0
2020-08-02 19:43:31.357,-18.2,17.6,102,-40.9,0.6,-8.0,21.2,22.3,7.2,11.7,61.8,65.7,00:00:01,75.0,341,276,--.--,48,0000:00:00,12.10,98,0,-1.00,--.--,-12.10,--.--,0,--.--,--.--,--.--,--.--,--.--,--.--,--.--,0,19:43:31,2020-08-02,--.--,--.--,--.--,--.--,--.--,--.--,--.--,0.00,--.--,--.--,true,true,true,true,true,true,true,false,true,true,false,false,0.60,0.53,0.09,0.02,0.00,0.30,0.52,0.24,43.9451297,-78.8962122,17TPJ 68826 67929,0.0,0.0,98.4,3,10,--.--,--.--,--.--,0.0,0.0,0.0,0,0,0,279.7,1.6,0.0
2020-08-02 19:43:32.336,-35.6,12.7,90,-4.1,6.3,-13.7,21.0,21.4,5.6,18.4,68.6,84.1,00:00:02,95.2,341,274,--.--,66,0000:00:00,12.08,96,0,-1.00,--.--,-12.08,--.--,0,--.--,--.--,--.--,--.--,--.--,--.--,--.--,0,19:43:32,2020-08-02,--.--,--.--,--.--,--.--,--.--,--.--,--.--,0.00,--.--,--.--,true,true,true,true,true,true,false,false,true,true,false,false,0.45,0.11,0.03,0.01,0.00,0.04,0.44,0.22,43.9451019,-78.8959859,17TPJ 68844 67927,0.0,0.0,99.4,3,10,--.--,--.--,--.--,0.0,0.0,0.0,0,0,0,341.2,1.7,0.0
2020-08-02 19:43:33.360,-39.2,11.4,75,0.7,9.2,-13.3,21.3,20.8,4.7,23.3,73.4,102.9,00:00:03,113.0,341,272,--.--,62,0000:00:00,12.05,94,0,-1.00,--.--,-12.05,--.--,0,--.--,--.--,--.--,--.--,--.--,--.--,--.--,0,19:43:33,2020-08-02,--.--,--.--,--.--,--.--,--.--,--.--,--.--,0.00,--.--,--.--,true,true,true,true,true,true,false,false,true,true,false,false,0.45,0.11,0.03,0.01,0.00,0.04,0.44,0.22,43.9450851,-78.8957235,17TPJ 68865 67926,0.0,0.0,88.8,3,10,--.--,--.--,--.--,0.0,0.0,0.0,0,0,0,341.2,1.7,0.0
2020-08-02 19:43:34.342,-40.2,10.5,56,2.5,12.1,-15.9,21.2,20.3,4.3,27.9,78.1,125.1,00:00:04,131.0,341,267,--.--,63,0000:00:00,12.02,93,0,-1.00,--.--,-12.02,--.--,0,--.--,--.--,--.--,--.--,--.--,--.--,--.--,0,19:43:34,2020-08-02,--.--,--.--,--.--,--.--,--.--,--.--,--.--,0.00,--.--,--.--,true,true,true,true,true,true,false,false,true,true,false,false,0.45,0.11,0.03,0.01,0.00,0.04,0.44,0.22,43.9451159,-78.8954647,17TPJ 68886 67929,0.0,0.0,72.1,3,10,--.--,--.--,--.--,0.0,0.0,0.0,0,0,0,353.4,2.5,0.0
2020-08-02 19:43:35.314,-41.0,10.2,34,3.6,16.3,-19.0,21.0,20.4,4.2,31.8,82.0,142.2,00:00:05,144.4,341,262,--.--,63,0000:00:00,11.99,91,0,-1.00,--.--,-11.99,--.--,0,--.--,--.--,--.--,--.--,--.--,--.--,--.--,0,19:43:35,2020-08-02,--.--,--.--,--.--,--.--,--.--,--.--,--.--,0.00,--.--,--.--,true,true,true,true,true,true,false,false,true,true,false,false,0.32,0.07,0.01,0.03,0.00,0.12,0.42,0.21,43.9452010,-78.8952330,17TPJ 68904 67939,0.0,0.0,53.7,3,10,--.--,--.--,--.--,0.0,0.0,0.0,0,0,0,353.4,2.5,0.0
2020-08-02 19:43:36.344,-41.4,10.6,12,4.3,14.9,-16.9,20.9,20.4,4.2,35.6,85.8,161.7,00:00:06,154.0,341,256,--.--,61,0000:00:00,11.97,89,0,-1.00,--.--,-11.97,--.--,0,--.--,--.--,--.--,--.--,--.--,--.--,--.--,0,19:43:36,2020-08-02,--.--,--.--,--.--,--.--,--.--,--.--,--.--,0.00,--.--,--.--,true,true,true,true,true,true,false,false,true,true,false,false,0.32,0.07,0.01,0.03,0.00,0.12,0.42,0.21,43.9453350,-78.8950598,17TPJ 68918 67955,0.0,0.0,31.2,3,10,--.--,--.--,--.--,0.0,0.0,0.0,0,0,0,341.2,1.3,0.0
2020-08-02 19:43:37.358,-40.8,11.5,350,5.8,13.2,-13.6,20.5,20.5,4.1,39.5,89.6,180.1,00:00:07,159.5,341,249,--.--,60,0000:00:00,11.94,88,0,-1.00,--.--,-11.94,--.--,0,--.--,--.--,--.--,--.--,--.--,--.--,--.--,0,19:43:37,2020-08-02,--.--,--.--,--.--,--.--,--.--,--.--,--.--,0.00,--.--,--.--,true,true,true,true,true,true,false,false,true,true,false,false,0.25,0.32,0.00,0.06,0.00,0.01,0.44,0.21,43.9455093,-78.8949794,17TPJ 68923 67974,0.0,0.0,5.9,3,10,--.--,--.--,--.--,0.0,0.0,0.0,0,0,0,341.2,1.3,0.0
2020-08-02 19:43:38.323,-37.9,13.6,331,9.9,14.1,-14.0,19.6,20.2,4.2,43.1,93.3,200.7,00:00:08,160.2,341,242,--.--,63,0000:00:00,11.91,86,0,-1.00,--.--,-11.91,--.--,0,--.--,--.--,--.--,--.--,--.--,--.--,--.--,0,19:43:38,2020-08-02,--.--,--.--,--.--,--.--,--.--,--.--,--.--,0.00,--.--,--.--,true,true,true,true,true,true,false,false,true,true,false,false,0.25,0.32,0.00,0.06,0.00,0.01,0.44,0.21,43.9456951,-78.8950048,17TPJ 68921 67995,0.0,0.0,343.7,3,10,--.--,--.--,--.--,0.0,0.0,0.0,0,0,0,322.0,0.6,0.0
2020-08-02 19:43:39.334,-31.8,16.9,309,14.8,14.0,-16.0,18.6,19.7,5.1,47.3,97.5,219.5,00:00:09,156.5,341,235,--.--,64,0000:00:00,11.88,84,0,-1.00,--.--,-11.88,--.--,0,--.--,--.--,--.--,--.--,--.--,--.--,--.--,0,19:43:39,2020-08-02,--.--,--.--,--.--,--.--,--.--,--.--,--.--,0.00,--.--,--.--,true,true,true,true,true,true,false,false,true,true,false,false,0.25,0.08,0.01,0.05,0.00,0.17,0.43,0.21,43.9458601,-78.8951181,17TPJ 68911 68013,0.0,0.0,323.7,3,10,--.--,--.--,--.--,0.0,0.0,0.0,0,0,0,322.0,0.6,0.0
2020-08-02 19:43:40.332,-22.6,13.8,296,12.0,-9.1,-13.7,16.7,18.1,4.5,52.2,102.4,239.5,00:00:10,149.1,341,229,--.--,31,0000:00:00,11.86,83,0,-1.00,--.--,-11.86,--.--,0,--.--,--.--,--.--,--.--,--.--,--.--,--.--,0,19:43:40,2020-08-02,--.--,--.--,--.--,--.--,--.--,--.--,--.--,0.00,--.--,--.--,true,true,true,true,true,true,false,false,true,true,false,false,0.25,0.08,0.01,0.05,0.00,0.17,0.43,0.21,43.9459831,-78.8952989,17TPJ 68897 68026,0.0,0.0,303.0,3,10,--.--,--.--,--.--,0.0,0.0,0.0,0,0,0,328.9,0.3,0.0
2020-08-02 19:43:41.344,-14.9,1.5,288,6.3,-7.1,-9.9,15.8,16.5,0.5,54.1,104.3,256.1,00:00:11,141.3,341,223,--.--,25,0000:00:00,11.83,81,0,-1.00,--.--,-11.83,--.--,0,--.--,--.--,--.--,--.--,--.--,--.--,--.--,0,19:43:41,2020-08-02,--.--,--.--,--.--,--.--,--.--,--.--,--.--,0.00,--.--,--.--,true,true,true,true,true,true,false,false,true,true,false,false,0.26,0.20,0.00,0.06,0.00,0.23,0.42,0.21,43.9460533,-78.8955055,17TPJ 68880 68034,0.0,0.0,290.0,3,10,--.--,--.--,--.--,0.0,0.0,0.0,0,0,0,328.9,0.3,0.0
2020-08-02 19:43:42.344,-9.6,-3.8,281,4.6,-0.8,-6.1,15.6,16.5,-1.4,53.3,103.5,271.5,00:00:12,133.8,341,217,--.--,23,0000:00:00,11.80,79,0,-1.00,--.--,-11.80,--.--,0,--.--,--.--,--.--,--.--,--.--,--.--,--.--,0,19:43:42,2020-08-02,--.--,--.--,--.--,--.--,--.--,--.--,--.--,0.00,--.--,--.--,true,true,true,true,true,true,false,false,true,true,false,false,0.26,0.20,0.00,0.06,0.00,0.23,0.42,0.21,43.9460900,-78.8956681,17TPJ 68867 68037,0.0,0.0,284.9,3,10,--.--,--.--,--.--,0.0,0.0,0.0,0,0,0,356.6,0.3,0.0
2020-08-02 19:43:43.330,-5.8,-3.8,277,3.7,2.0,-3.8,15.8,16.3,-1.5,52.0,102.1,287.3,00:00:13,127.3,341,211,--.--,25,0000:00:00,11.78,78,0,-1.00,--.--,-11.78,--.--,0,--.--,--.--,--.--,--.--,--.--,--.--,--.--,0,19:43:43,2020-08-02,--.--,--.--,--.--,--.--,--.--,--.--,--.--,0.00,--.--,--.--,true,true,true,true,true,true,false,false,true,true,false,false,0.28,0.06,0.01,0.03,0.00,0.27,0.42,0.20,43.9461210,-78.8958728,17TPJ 68850 68040,0.0,0.0,278.9,3,10,--.--,--.--,--.--,0.0,0.0,0.0,0,0,0,356.6,0.3,0.0
2020-08-02 19:43:44.326,-2.8,-1.9,273,2.5,2.3,-2.2,16.1,16.7,-0.9,50.7,100.9,304.0,00:00:14,120.5,341,204,--.--,26,0000:00:00,11.75,76,0,-1.00,--.--,-11.75,--.--,0,--.--,--.--,--.--,--.--,--.--,--.--,--.--,0,19:43:44,2020-08-02,--.--,--.--,--.--,--.--,--.--,--.--,--.--,0.00,--.--,--.--,true,true,true,true,true,true,false,false,true,true,false,false,0.28,0.06,0.01,0.03,0.00,0.27,0.42,0.20,43.9461382,-78.8960815,17TPJ 68833 68042,0.0,0.0,274.5,3,10,--.--,--.--,--.--,0.0,0.0,0.0,0,0,0,10.9,0.4,0.0
2020-08-02 19:43:45.326,-8.8,-2.4,271,-14.0,1.9,-5.3,16.1,16.9,-0.6,50.0,100.2,318.3,00:00:15,115.5,283,197,--.--,28,0000:00:00,11.72,74,0,-1.00,--.--,-11.72,--.--,0,--.--,--.--,--.--,--.--,--.--,--.--,--.--,0,19:43:45,2020-08-02,--.--,--.--,--.--,--.--,--.--,--.--,--.--,0.00,--.--,--.--,true,true,true,true,true,true,false,false,true,true,false,false,0.23,0.20,0.00,0.02,0.00,0.03,0.41,0.20,43.9461466,-78.8962961,17TPJ 68816 68042,0.0,0.0,272.0,3,10,--.--,--.--,--.--,0.0,0.0,0.0,0,0,0,10.9,0.4,0.0
2020-08-02 19:43:46.330,-11.2,-0.5,264,5.1,4.7,-6.5,17.1,17.9,-0.3,49.3,99.5,335.1,00:00:16,111.3,283,189,--.--,33,0000:00:00,11.69,73,0,-1.00,--.--,-11.69,--.--,0,--.--,--.--,--.--,--.--,--.--,--.--,--.--,0,19:43:46,2020-08-02,--.--,--.--,--.--,--.--,--.--,--.--,--.--,0.00,--.--,--.--,true,true,true,true,true,true,false,false,true,true,false,false,0.23,0.20,0.00,0.02,0.00,0.03,0.41,0.20,43.9461492,-78.8965097,17TPJ 68799 68042,0.0,0.0,268.8,3,10,--.--,--.--,--.--,0.0,0.0,0.0,0,0,0,10.9,0.4,0.0
2020-08-02 19:43:47.348,-2.8,1.5,259,9.3,1.4,-2.0,17.3,17.8,0.4,49.4,99.5,352.2,00:00:17,107.3,283,180,--.--,31,0000:00:00,11.66,71,0,-1.00,--.--,-11.66,--.--,0,--.--,--.--,--.--,--.--,--.--,--.--,--.--,0,19:43:47,2020-08-02,--.--,--.--,--.--,--.--,--.--,--.--,--.--,0.00,--.--,--.--,true,true,true,true,true,true,false,false,true,true,false,false,0.11,0.22,0.02,0.05,0.00,0.12,0.41,0.19,43.9461357,-78.8967310,17TPJ 68781 68040,0.0,0.0,261.8,3,10,--.--,--.--,--.--,0.0,0.0,0.0,0,0,0,11.0,0.4,0.0
2020-08-02 19:43:48.337,4.2,1.6,260,6.3,-0.4,2.3,17.1,17.1,0.5,49.7,99.9,367.0,00:00:18,105.7,283,172,--.--,31,0000:00:00,11.64,69,0,-1.00,--.--,-11.64,--.--,0,--.--,--.--,--.--,--.--,--.--,--.--,--.--,0,19:43:48,2020-08-02,--.--,--.--,--.--,--.--,--.--,--.--,--.--,0.00,--.--,--.--,true,true,true,true,true,true,false,false,true,true,false,false,0.11,0.22,0.02,0.05,0.00,0.12,0.41,0.19,43.9461082,-78.8969512,17TPJ 68764 68037,0.0,0.0,259.5,3,10,--.--,--.--,--.--,0.0,0.0,0.0,0,0,0,11.0,0.4,0.0
2020-08-02 19:43:49.339,8.0,1.2,262,3.4,0.5,4.6,17.0,17.0,0.4,49.9,100.1,381.4,00:00:19,106.4,283,165,--.--,31,0000:00:00,11.61,68,0,-1.00,--.--,-11.61,--.--,0,--.--,--.--,--.--,--.--,--.--,--.--,--.--,0,19:43:49,2020-08-02,--.--,--.--,--.--,--.--,--.--,--.--,--.--,0.00,--.--,--.--,true,true,true,true,true,true,false,false,true,true,false,false,0.10,0.06,0.03,0.02,0.00,0.05,0.43,0.19,43.9460818,-78.8971675,17TPJ 68746 68033,0.0,0.0,261.9,3,10,--.--,--.--,--.--,0.0,0.0,0.0,0,0,0,9.6,0.4,0.0
2020-08-02 19:43:50.328,10.1,1.0,267,0.8,1.3,5.9,17.0,17.2,0.3,50.1,100.3,398.0,00:00:20,110.5,283,156,--.--,30,0000:00:00,11.61,68,0,-1.00,--.--,-11.61,--.--,0,--.--,--.--,--.--,--.--,--.--,--.--,--.--,0,19:43:50,2020-08-02,--.--,--.--,--.--,--.--,--.--,--.--,--.--,0.00,--.--,--.--,true,true,true,true,true,true,false,false,true,true,false,false,0.10,0.06,0.03,0.02,0.00,0.05,0.43,0.19,43.9460818,-78.8971675,17TPJ 68746 68033,0.0,0.0,261.9,3,10,--.--,--.--,--.--,0.0,0.0,0.0,0,0,0,9.6,0.4,0.0
2020-08-02 19:43:51.327,10.3,0.8,273,-0.6,1.3,5.9,16.9,17.3,0.3,50.2,100.4,414.6,00:00:21,118.6,283,149,--.--,30,0000:00:00,11.58,66,0,-1.00,--.--,-11.58,--.--,0,--.--,--.--,--.--,--.--,--.--,--.--,--.--,0,19:43:51,2020-08-02,--.--,--.--,--.--,--.--,--.--,--.--,--.--,0.00,--.--,--.--,true,true,true,true,true,true,false,false,true,true,false,false,0.09,0.14,0.02,0.03,0.00,0.02,0.42,0.19,43.9460660,-78.8973856,17TPJ 68729 68031,0.0,0.0,266.9,3,10,--.--,--.--,--.--,0.0,0.0,0.0,0,0,0,7.1,0.4,0.0
2020-08-02 19:43:52.348,9.3,0.7,279,-1.4,0.9,5.7,16.9,16.7,0.2,50.3,100.5,431.2,00:00:22,129.9,283,143,--.--,29,0000:00:00,11.55,64,0,-1.00,--.--,-11.55,--.--,0,--.--,--.--,--.--,--.--,--.--,--.--,--.--,0,19:43:52,2020-08-02,--.--,--.--,--.--,--.--,--.--,--.--,--.--,0.00,--.--,--.--,true,true,true,true,true,true,false,false,true,true,false,false,0.09,0.14,0.02,0.03,0.00,0.02,0.42,0.19,43.9460660,-78.8976042,17TPJ 68711 68031,0.0,0.0,273.1,3,10,--.--,--.--,--.--,0.0,0.0,0.0,0,0,0,7.1,0.4,0.0
2020-08-02 19:43:53.340,7.4,0.6,285,-2.3,0.6,5.1,16.7,16.2,0.2,50.3,100.5,448.3,00:00:23,142.7,283,138,--.--,29,0000:00:00,11.53,63,0,-1.00,--.--,-11.53,--.--,0,--.--,--.--,--.--,--.--,--.--,--.--,--.--,0,19:43:53,2020-08-02,--.--,--.--,--.--,--.--,--.--,--.--,--.--,0.00,--.--,--.--,true,true,true,true,true,true,false,false,true,true,false,false,0.09,0.09,0.01,0.03,0.00,0.01,0.42,0.19,43.9460829,-78.8978187,17TPJ 68694 68032,0.0,0.0,279.3,3,10,--.--,--.--,--.--,0.0,0.0,0.0,0,0,0,4.9,0.4,0.0
2020-08-02 19:43:54.334,5.2,0.4,289,-2.5,0.1,3.9,16.5,16.0,0.1,50.3,100.5,464.1,00:00:24,156.9,283,135,--.--,29,0000:00:00,11.50,61,0,-1.00,--.--,-11.50,--.--,0,--.--,--.--,--.--,--.--,--.--,--.--,--.--,0,19:43:54,2020-08-02,--.--,--.--,--.--,--.--,--.--,--.--,--.--,0.00,--.--,--.--,true,true,true,true,true,true,false,false,true,true,false,false,0.09,0.09,0.01,0.03,0.00,0.01,0.42,0.19,43.9461079,-78.8979879,17TPJ 68680 68035,0.0,0.0,283.7,3,10,--.--,--.--,--.--,0.0,0.0,0.0,0,0,0,4.9,0.4,0.0
2020-08-02 19:43:55.342,2.9,0.3,293,-2.4,0.1,2.9,16.3,16.0,0.1,50.2,100.4,480.3,00:00:25,172.2,283,133,--.--,29,0000:00:00,11.47,59,0,-1.00,--.--,-11.47,--.--,0,--.--,--.--,--.--,--.--,--.--,--.--,--.--,0,19:43:55,2020-08-02,--.--,--.--,--.--,--.--,--.--,--.--,--.--,0.00,--.--,--.--,true,true,true,true,true,true,false,false,true,true,false,false,0.14,0.07,0.03,0.04,0.00,0.09,0.41,0.19,43.9461506,-78.8981917,17TPJ 68664 68039,0.0,0.0,288.6,3,10,--.--,--.--,--.--,0.0,0.0,0.0,0,0,0,8.5,0.3,0.0
2020-08-02 19:43:56.346,0.9,0.3,295,-2.4,0.3,2.0,16.3,16.3,0.0,50.1,100.3,496.6,00:00:26,186.3,283,132,--.--,29,0000:00:00,11.45,58,0,-1.00,--.--,-11.45,--.--,0,--.--,--.--,--.--,--.--,--.--,--.--,--.--,0,19:43:56,2020-08-02,--.--,--.--,--.--,--.--,--.--,--.--,--.--,0.00,--.--,--.--,true,true,true,true,true,true,false,false,true,true,false,false,0.14,0.07,0.03,0.04,0.00,0.09,0.41,0.19,43.9462041,-78.8983903,17TPJ 68648 68044,0.0,0.0,292.4,3,10,--.--,--.--,--.--,0.0,0.0,0.0,0,0,0,8.5,0.3,0.0
2020-08-02 19:43:57.337,-1.0,0.3,296,-2.1,0.2,0.6,16.2,16.2,0.0,50.0,100.1,512.2,00:00:27,201.7,283,130,--.--,30,0000:00:00,11.42,56,0,-1.00,--.--,-11.42,--.--,0,--.--,--.--,--.--,--.--,--.--,--.--,--.--,0,19:43:57,2020-08-02,--.--,--.--,--.--,--.--,--.--,--.--,--.--,0.00,--.--,--.--,true,true,true,true,true,true,false,false,true,true,false,false,0.14,0.07,0.03,0.04,0.00,0.09,0.41,0.19,43.9462649,-78.8985825,17TPJ 68632 68051,0.0,0.0,294.9,3,10,--.--,--.--,--.--,0.0,0.0,0.0,0,0,0,9.4,0.3,0.0
2020-08-02 19:43:58.315,-2.2,0.3,297,-1.2,0.4,-0.2,16.3,15.8,-0.0,49.9,100.0,526.0,00:00:28,215.2,283,129,--.--,30,0000:00:00,11.39,54,0,-1.00,--.--,-11.39,--.--,0,--.--,--.--,--.--,--.--,--.--,--.--,--.--,0,19:43:58,2020-08-02,--.--,--.--,--.--,--.--,--.--,--.--,--.--,0.00,--.--,--.--,true,true,true,true,true,true,false,false,true,true,false,false,0.12,0.10,0.02,0.04,0.00,0.07,0.41,0.19,43.9463300,-78.8987696,17TPJ 68617 68058,0.0,0.0,296.4,3,10,--.--,--.--,--.--,0.0,0.0,0.0,0,0,0,9.4,0.3,0.0
2020-08-02 19:43:59.337,-3.2,0.5,296,-0.8,0.3,-1.1,16.2,16.0,0.0,49.8,99.9,541.7,00:00:29,231.1,283,129,--.--,31,0000:00:00,11.36,53,0,-1.00,--.--,-11.36,--.--,0,--.--,--.--,--.--,--.--,--.--,--.--,--.--,0,19:43:59,2020-08-02,--.--,--.--,--.--,--.--,--.--,--.--,--.--,0.00,--.--,--.--,true,true,true,true,true,true,false,false,true,true,false,false,0.12,0.10,0.02,0.04,0.00,0.07,0.41,0.19,43.9463979,-78.8989559,17TPJ 68602 68065,0.0,0.0,296.9,3,10,--.--,--.--,--.--,0.0,0.0,0.0,0,0,0,14.1,0.3,0.0
2020-08-02 19:44:00.330,-3.7,0.7,296,-0.4,0.1,-1.4,16.1,16.0,0.0,49.7,99.9,555.3,00:00:30,245.0,283,128,--.--,30,0000:00:00,11.34,51,0,-1.00,--.--,-11.34,--.--,0,--.--,--.--,--.--,--.--,--.--,--.--,--.--,0,19:44:00,2020-08-02,--.--,--.--,--.--,--.--,--.--,--.--,--.--,0.00,--.--,--.--,true,true,true,true,true,true,false,false,true,true,false,false,0.12,0.05,0.02,0.04,0.00,0.04,0.43,0.19,43.9464652,-78.8991405,17TPJ 68587 68072,0.0,0.0,296.7,3,10,--.--,--.--,--.--,0.0,0.0,0.0,0,0,0,14.1,0.3,0.0
2020-08-02 19:44:01.344,-3.8,0.8,294,0.1,0.3,-1.6,16.2,16.4,0.1,49.7,99.9,573.3,00:00:31,261.1,283,127,--.--,30,0000:00:00,11.33,51,0,-1.00,--.--,-11.33,--.--,0,--.--,--.--,--.--,--.--,--.--,--.--,--.--,0,19:44:01,2020-08-02,--.--,--.--,--.--,--.--,--.--,--.--,--.--,0.00,--.--,--.--,true,true,true,true,true,true,false,false,true,true,false,false,0.12,0.05,0.02,0.04,0.00,0.04,0.43,0.19,43.9465314,-78.8993267,17TPJ 68572 68079,0.0,0.0,295.6,3,10,--.--,--.--,--.--,0.0,0.0,0.0,0,0,0,15.8,0.3,0.0
2020-08-02 19:44:02.333,-3.5,0.8,293,0.5,-0.0,-1.5,16.2,16.4,0.1,49.7,99.9,586.7,00:00:32,275.6,283,126,--.--,30,0000:00:00,11.33,51,0,-1.00,--.--,-11.33,--.--,0,--.--,--.--,--.--,--.--,--.--,--.--,--.--,0,19:44:02,2020-08-02,--.--,--.--,--.--,--.--,--.--,--.--,--.--,0.00,--.--,--.--,true,true,true,true,true,true,false,false,true,true,false,false,0.06,0.09,0.01,0.04,0.00,0.03,0.42,0.19,43.9465950,-78.8995150,17TPJ 68556 68085,0.0,0.0,294.6,3,10,--.--,--.--,--.--,0.0,0.0,0.0,0,0,0,15.8,0.3,0.0
2020-08-02 19:44:03.352,-18.9,0.7,289,-32.0,3.1,-11.4,16.2,16.1,0.1,49.7,99.9,604.9,00:00:33,291.6,193,126,--.--,30,0000:00:00,11.33,51,0,-1.00,--.--,-11.33,--.--,0,--.--,--.--,--.--,--.--,--.--,--.--,--.--,0,19:44:03,2020-08-02,--.--,--.--,--.--,--.--,--.--,--.--,--.--,0.00,--.--,--.--,true,true,true,true,true,true,false,false,true,true,false,false,0.06,0.09,0.01,0.04,0.00,0.03,0.42,0.19,43.9466551,-78.8997034,17TPJ 68541 68092,0.0,0.0,293.2,3,10,--.--,--.--,--.--,0.0,0.0,0.0,0,0,0,15.8,0.3,0.0
2020-08-02 19:44:04.354,-33.4,0.4,271,-5.5,14.2,-19.8,16.3,16.4,-0.2,49.5,99.7,618.3,00:00:34,304.9,193,125,--.--,31,0000:00:00,11.32,51,0,-1.00,--.--,-11.32,--.--,0,--.--,--.--,--.--,--.--,--.--,--.--,--.--,0,19:44:04,2020-08-02,--.--,--.--,--.--,--.--,--.--,--.--,--.--,0.00,--.--,--.--,true,true,true,true,true,true,false,false,true,true,false,false,0.16,0.14,0.03,0.05,0.00,0.05,0.42,0.19,43.9466990,-78.8998576,17TPJ 68529 68096,0.0,0.0,287.8,3,10,--.--,--.--,--.--,0.0,0.0,0.0,0,0,0,13.3,0.3,0.0
2020-08-02 19:44:05.333,-34.7,1.1,254,0.7,16.0,-20.6,16.2,16.5,0.0,49.4,99.5,629.5,00:00:35,314.0,193,123,--.--,31,0000:00:00,11.32,51,0,-1.00,--.--,-11.32,--.--,0,--.--,--.--,--.--,--.--,--.--,--.--,--.--,0,19:44:05,2020-08-02,--.--,--.--,--.--,--.--,--.--,--.--,--.--,0.00,--.--,--.--,true,true,true,true,true,true,false,false,true,true,false,false,0.16,0.14,0.03,0.05,0.00,0.05,0.42,0.19,43.9467196,-78.9000628,17TPJ 68512 68098,0.0,0.0,266.6,3,10,--.--,--.--,--.--,0.0,0.0,0.0,0,0,0,13.3,0.3,0.0
2020-08-02 19:44:06.338,-33.4,1.8,232,3.9,16.4,-23.8,16.0,16.1,0.3,49.4,99.6,643.2,00:00:36,321.7,193,122,--.--,31,0000:00:00,11.32,51,0,-1.00,--.--,-11.32,--.--,0,--.--,--.--,--.--,--.--,--.--,--.--,--.--,0,19:44:06,2020-08-02,--.--,--.--,--.--,--.--,--.--,--.--,--.--,0.00,--.--,--.--,true,true,true,true,true,true,false,false,true,true,false,false,0.16,0.14,0.03,0.05,0.00,0.05,0.42,0.19,43.9467196,-78.9000628,17TPJ 68512 68098,0.0,0.0,266.6,3,10,--.--,--.--,--.--,0.0,0.0,0.0,0,0,0,15.2,0.3,0.0
2020-08-02 19:44:07.334,-29.1,2.2,203,7.3,14.3,-24.7,15.6,16.1,0.6,49.6,99.8,659.1,00:00:37,325.9,193,119,--.--,31,0000:00:00,11.32,51,0,-1.00,--.--,-11.32,--.--,0,--.--,--.--,--.--,--.--,--.--,--.--,--.--,0,19:44:07,2020-08-02,--.--,--.--,--.--,--.--,--.--,--.--,--.--,0.00,--.--,--.--,true,true,true,true,true,true,false,false,true,true,false,false,0.15,0.07,0.03,0.04,0.00,0.03,0.41,0.19,43.9466774,-78.9002642,17TPJ 68496 68093,0.0,0.0,240.7,3,10,--.--,--.--,--.--,0.0,0.0,0.0,0,0,0,15.2,0.3,0.0
2020-08-02 19:44:08.336,-22.5,1.8,184,10.8,6.9,-19.1,15.6,16.4,0.5,49.8,100.0,672.2,00:00:38,324.4,193,117,--.--,29,0000:00:00,11.32,51,0,-1.00,--.--,-11.32,--.--,0,--.--,--.--,--.--,--.--,--.--,--.--,--.--,0,19:44:08,2020-08-02,--.--,--.--,--.--,--.--,--.--,--.--,--.--,0.00,--.--,--.--,true,true,true,true,true,true,false,false,true,true,false,false,0.15,0.07,0.03,0.04,0.00,0.03,0.41,0.19,43.9465768,-78.9004145,17TPJ 68484 68082,0.0,0.0,213.0,3,10,--.--,--.--,--.--,0.0,0.0,0.0,0,0,0,11.2,0.2,0.0
2020-08-02 19:44:09.336,-12.4,0.8,168,10.1,1.9,-11.7,15.9,15.7,0.1,49.8,99.9,688.3,00:00:39,318.1,193,114,--.--,28,0000:00:00,11.32,51,0,-1.00,--.--,-11.32,--.--,0,--.--,--.--,--.--,--.--,--.--,--.--,--.--,0,19:44:09,2020-08-02,--.--,--.--,--.--,--.--,--.--,--.--,--.--,0.00,--.--,--.--,true,true,true,true,true,true,false,false,true,true,false,false,0.16,0.09,0.03,0.04,0.00,0.08,0.41,0.19,43.9464397,-78.9004834,17TPJ 68479 68066,0.0,0.0,188.2,3,10,--.--,--.--,--.--,0.0,0.0,0.0,0,0,0,11.2,0.2,0.0
2020-08-02 19:44:10.336,-4.7,0.7,160,7.6,1.1,-6.7,16.2,16.9,-0.1,49.5,99.6,701.9,00:00:40,310.2,193,112,--.--,26,0000:00:00,11.32,51,0,-1.00,--.--,-11.32,--.--,0,--.--,--.--,--.--,--.--,--.--,--.--,--.--,0,19:44:10,2020-08-02,--.--,--.--,--.--,--.--,--.--,--.--,--.--,0.00,--.--,--.--,true,true,true,true,true,true,false,false,true,true,false,false,0.16,0.09,0.03,0.04,0.00,0.08,0.41,0.19,43.9462899,-78.9004809,17TPJ 68480 68050,0.0,0.0,172.1,3,10,--.--,--.--,--.--,0.0,0.0,0.0,0,0,0,8.4,0.2,0.0
2020-08-02 19:44:11.358,1.7,0.9,156,5.4,0.4,-2.7,16.5,17.4,-0.2,49.0,99.2,719.2,00:00:41,300.0,193,109,--.--,27,0000:00:00,11.32,51,0,-1.00,--.--,-11.32,--.--,0,--.--,--.--,--.--,--.--,--.--,--.--,--.--,0,19:44:11,2020-08-02,--.--,--.--,--.--,--.--,--.--,--.--,--.--,0.00,--.--,--.--,true,true,true,true,true,true,false,false,true,true,false,false,0.14,0.01,0.02,0.02,0.00,0.11,0.43,0.19,43.9461412,-78.9004337,17TPJ 68484 68033,0.0,0.0,163.2,3,10,--.--,--.--,--.--,0.0,0.0,0.0,0,0,0,8.4,0.2,0.0
2020-08-02 19:44:12.338,-4.4,1.3,154,-40.1,1.2,-6.0,16.7,17.5,-0.1,48.7,98.9,735.6,00:00:42,290.3,8,107,--.--,27,0000:00:00,11.32,51,0,-1.00,--.--,-11.32,--.--,0,--.--,--.--,--.--,--.--,--.--,--.--,--.--,0,19:44:12,2020-08-02,--.--,--.--,--.--,--.--,--.--,--.--,--.--,0.00,--.--,--.--,true,true,true,true,true,true,false,false,true,true,false,false,0.14,0.01,0.02,0.02,0.00,0.11,0.43,0.19,43.9459954,-78.9003635,17TPJ 68490 68017,0.0,0.0,159.2,3,10,--.--,--.--,--.--,0.0,0.0,0.0,0,0,0,8.4,0.2,0.0
2020-08-02 19:44:13.336,-33.9,4.0,135,-9.9,17.6,-22.0,16.6,16.6,0.7,48.9,99.0,752.0,00:00:43,278.1,8,104,--.--,29,0000:00:00,11.32,51,0,-1.00,--.--,-11.32,--.--,0,--.--,--.--,--.--,--.--,--.--,--.--,--.--,0,19:44:13,2020-08-02,--.--,--.--,--.--,--.--,--.--,--.--,--.--,0.00,--.--,--.--,true,true,true,true,true,true,false,false,true,true,false,false,0.11,0.11,0.03,0.03,0.00,0.00,0.42,0.19,43.9458502,-78.9002801,17TPJ 68497 68001,0.0,0.0,153.4,3,10,--.--,--.--,--.--,0.0,0.0,0.0,0,0,0,7.3,0.2,0.0
2020-08-02 19:44:14.350,-38.9,4.4,106,1.5,16.6,-22.5,16.3,16.6,0.9,49.6,99.8,768.4,00:00:44,262.7,8,103,--.--,30,0000:00:00,11.32,51,0,-1.00,--.--,-11.32,--.--,0,--.--,--.--,--.--,--.--,--.--,--.--,--.--,0,19:44:14,2020-08-02,--.--,--.--,--.--,--.--,--.--,--.--,--.--,0.00,--.--,--.--,true,true,true,true,true,true,false,false,true,true,false,false,0.11,0.11,0.03,0.03,0.00,0.00,0.42,0.19,43.9457308,-78.9001492,17TPJ 68508 67988,0.0,0.0,127.6,3,10,--.--,--.--,--.--,0.0,0.0,0.0,0,0,0,7.3,0.2,0.0
2020-08-02 19:44:15.328,-38.7,3.3,83,1.5,13.1,-18.2,16.4,16.4,0.4,50.2,100.3,783.7,00:00:45,248.3,8,104,--.--,28,0000:00:00,11.32,51,0,-1.00,--.--,-11.32,--.--,0,--.--,--.--,--.--,--.--,--.--,--.--,--.--,0,19:44:15,2020-08-02,--.--,--.--,--.--,--.--,--.--,--.--,--.--,0.00,--.--,--.--,true,true,true,true,true,true,false,false,true,true,false,false,0.28,0.17,0.01,0.03,0.00,0.04,0.42,0.19,43.9456802,-78.8999978,17TPJ 68520 67983,0.0,0.0,102.7,3,10,--.--,--.--,--.--,0.0,0.0,0.0,0,0,0,12.4,0.2,0.0
2020-08-02 19:44:16.359,-38.4,2.3,62,1.1,13.3,-17.1,16.5,17.1,-0.1,50.2,100.4,799.6,00:00:46,234.3,8,105,--.--,27,0000:00:00,11.32,51,0,-1.00,--.--,-11.32,--.--,0,--.--,--.--,--.--,--.--,--.--,--.--,--.--,0,19:44:16,2020-08-02,--.--,--.--,--.--,--.--,--.--,--.--,--.--,0.00,--.--,--.--,true,true,true,true,true,true,false,false,true,true,false,false,0.28,0.17,0.01,0.03,0.00,0.04,0.42,0.19,43.9456830,-78.8997899,17TPJ 68537 67984,0.0,0.0,76.4,3,10,--.--,--.--,--.--,0.0,0.0,0.0,0,0,0,12.4,0.2,0.0
2020-08-02 19:44:17.335,-38.3,1.8,40,1.0,14.0,-18.0,16.6,16.5,-0.4,49.7,99.9,816.7,00:00:47,225.0,8,109,--.--,28,0000:00:00,11.32,51,0,-1.00,--.--,-11.32,--.--,0,--.--,--.--,--.--,--.--,--.--,--.--,--.--,0,19:44:17,2020-08-02,--.--,--.--,--.--,--.--,--.--,--.--,--.--,0.00,--.--,--.--,true,true,true,true,true,true,false,false,true,true,false,false,0.07,0.03,0.02,0.03,0.00,0.01,0.41,0.19,43.9457484,-78.8995985,17TPJ 68552 67991,0.0,0.0,53.3,3,10,--.--,--.--,--.--,0.0,0.0,0.0,0,0,0,10.7,0.1,0.0
2020-08-02 19:44:18.337,-37.0,2.1,17,3.5,13.1,-16.4,16.7,16.4,-0.4,49.2,99.4,832.9,00:00:48,222.9,8,113,--.--,28,0000:00:00,11.32,51,0,-1.00,--.--,-11.32,--.--,0,--.--,--.--,--.--,--.--,--.--,--.--,--.--,0,19:44:18,2020-08-02,--.--,--.--,--.--,--.--,--.--,--.--,--.--,0.00,--.--,--.--,true,true,true,true,true,true,false,false,true,true,false,false,0.07,0.03,0.02,0.03,0.00,0.01,0.41,0.19,43.9458627,-78.8994568,17TPJ 68563 68004,0.0,0.0,30.1,3,10,--.--,--.--,--.--,0.0,0.0,0.0,0,0,0,10.7,0.1,0.0
2020-08-02 19:44:19.345,-32.8,2.9,1,6.8,9.6,-12.6,16.8,16.2,-0.2,48.8,99.0,849.3,00:00:49,227.5,8,117,--.--,28,0000:00:00,11.32,51,0,-1.00,--.--,-11.32,--.--,0,--.--,--.--,--.--,--.--,--.--,--.--,--.--,0,19:44:19,2020-08-02,--.--,--.--,--.--,--.--,--.--,--.--,--.--,0.00,--.--,--.--,true,true,true,true,true,true,false,false,true,true,false,false,0.06,0.08,0.02,0.04,0.00,0.04,0.41,0.19,43.9460075,-78.8993891,17TPJ 68568 68020,0.0,0.0,7.6,3,10,--.--,--.--,--.--,0.0,0.0,0.0,0,0,0,11.7,0.1,0.0
2020-08-02 19:44:20.344,-25.5,4.3,348,8.4,5.6,-8.5,16.7,16.3,0.2,48.7,98.9,864.1,00:00:50,237.6,8,120,--.--,28,0000:00:00,11.32,51,0,-1.00,--.--,-11.32,--.--,0,--.--,--.--,--.--,--.--,--.--,--.--,--.--,0,19:44:20,2020-08-02,--.--,--.--,--.--,--.--,--.--,--.--,--.--,0.00,--.--,--.--,true,true,true,true,true,true,false,false,true,true,false,false,0.06,0.08,0.02,0.04,0.00,0.04,0.41,0.19,43.9461621,-78.8993952,17TPJ 68567 68038,0.0,0.0,350.1,3,10,--.--,--.--,--.--,0.0,0.0,0.0,0,0,0,11.7,0.1,0.0
2020-08-02 19:44:21.341,-18.3,5.2,341,6.6,2.0,-4.7,16.1,16.0,0.6,49.2,99.3,882.2,00:00:51,250.1,8,123,--.--,28,0000:00:00,11.32,51,0,-1.00,--.--,-11.32,--.--,0,--.--,--.--,--.--,--.--,--.--,--.--,--.--,0,19:44:21,2020-08-02,--.--,--.--,--.--,--.--,--.--,--.--,--.--,0.00,--.--,--.--,true,true,true,true,true,true,false,false,true,true,false,false,0.06,0.08,0.01,0.03,0.00,0.01,0.42,0.20,43.9463085,-78.8994527,17TPJ 68562 68054,0.0,0.0,339.1,3,10,--.--,--.--,--.--,0.0,0.0,0.0,0,0,0,13.5,0.1,0.0
2020-08-02 19:44:22.358,-13.4,5.1,339,6.1,-0.6,-1.5,15.5,15.4,0.7,49.7,99.9,895.4,00:00:52,261.9,343,124,--.--,28,0000:00:00,11.32,51,0,-1.00,--.--,-11.32,--.--,0,--.--,--.--,--.--,--.--,--.--,--.--,--.--,0,19:44:22,2020-08-02,--.--,--.--,--.--,--.--,--.--,--.--,--.--,0.00,--.--,--.--,true,true,true,true,true,true,false,false,true,true,false,false,0.06,0.08,0.01,0.03,0.00,0.01,0.42,0.20,43.9464424,-78.8995353,17TPJ 68555 68068,0.0,0.0,333.7,3,10,--.--,--.--,--.--,0.0,0.0,0.0,0,0,0,13.5,0.1,0.0
2020-08-02 19:44:23.346,-15.5,4.7,339,-29.4,0.7,-2.5,15.2,15.1,0.6,50.2,100.3,906.1,00:00:53,271.7,184,125,--.--,28,0000:00:00,11.32,51,0,-1.00,--.--,-11.32,--.--,0,--.--,--.--,--.--,--.--,--.--,--.--,--.--,0,19:44:23,2020-08-02,--.--,--.--,--.--,--.--,--.--,--.--,--.--,0.00,--.--,--.--,true,true,true,true,true,true,false,false,true,true,false,false,0.06,0.08,0.01,0.03,0.00,0.01,0.42,0.20,43.9464424,-78.8995353,17TPJ 68555 68068,0.0,0.0,333.7,3,10,--.--,--.--,--.--,0.0,0.0,0.0,0,0,0,11.2,0.1,0.0
2020-08-02 19:44:24.341,-30.6,2.5,329,-7.2,6.0,-14.9,15.3,14.9,-0.1,50.2,100.4,919.1,00:00:54,284.3,184,126,--.--,29,0000:00:00,11.32,51,0,-1.00,--.--,-11.32,--.--,0,--.--,--.--,--.--,--.--,--.--,--.--,--.--,0,19:44:24,2020-08-02,--.--,--.--,--.--,--.--,--.--,--.--,--.--,0.00,--.--,--.--,true,true,true,true,true,true,false,false,true,true,false,false,0.05,0.06,0.01,0.02,0.00,0.02,0.42,0.19,43.9465692,-78.8996256,17TPJ 68548 68082,0.0,0.0,332.7,3,10,--.--,--.--,--.--,0.0,0.0,0.0,0,0,0,11.2,0.1,0.0
2020-08-02 19:44:25.359,-35.0,1.3,311,-2.5,13.8,-20.2,15.6,15.4,-0.7,49.6,99.8,934.5,00:00:55,298.2,184,127,--.--,30,0000:00:00,11.32,51,0,-1.00,--.--,-11.32,--.--,0,--.--,--.--,--.--,--.--,--.--,--.--,--.--,0,19:44:25,2020-08-02,--.--,--.--,--.--,--.--,--.--,--.--,--.--,0.00,--.--,--.--,true,true,true,true,true,true,false,false,true,true,false,false,0.05,0.06,0.01,0.02,0.00,0.02,0.42,0.19,43.9466894,-78.8997245,17TPJ 68539 68096,0.0,0.0,324.0,3,10,--.--,--.--,--.--,0.0,0.0,0.0,0,0,0,7.4,0.1,0.0
2020-08-02 19:44:26.344,-36.7,1.9,288,-0.5,19.0,-22.7,15.8,15.7,-0.5,49.2,99.4,947.3,00:00:56,310.5,184,127,--.--,30,0000:00:00,11.32,51,0,-1.00,--.--,-11.32,--.--,0,--.--,--.--,--.--,--.--,--.--,--.--,--.--,0,19:44:26,2020-08-02,--.--,--.--,--.--,--.--,--.--,--.--,--.--,0.00,--.--,--.--,true,true,true,true,true,true,false,false,true,true,false,false,0.19,0.17,0.02,0.03,0.00,0.01,0.41,0.19,43.9467724,-78.8998312,17TPJ 68531 68105,0.0,0.0,309.3,3,10,--.--,--.--,--.--,0.0,0.0,0.0,0,0,0,7.4,0.1,0.0
2020-08-02 19:44:27.344,-37.6,3.9,261,1.2,20.2,-22.7,15.7,15.0,0.2,49.1,99.3,960.2,00:00:57,322.7,184,126,--.--,30,0000:00:00,11.32,51,0,-1.00,--.--,-11.32,--.--,0,--.--,--.--,--.--,--.--,--.--,--.--,--.--,0,19:44:27,2020-08-02,--.--,--.--,--.--,--.--,--.--,--.--,--.--,0.00,--.--,--.--,true,true,true,true,true,true,false,false,true,true,false,false,0.19,0.17,0.02,0.03,0.00,0.01,0.41,0.19,43.9468365,-78.9000066,17TPJ 68516 68111,0.0,0.0,283.4,3,10,--.--,--.--,--.--,0.0,0.0,0.0,0,0,0,7.4,0.1,0.0
2020-08-02 19:44:28.363,-38.1,5.3,230,3.0,22.9,-27.9,15.3,14.8,0.7,49.5,99.7,975.3,00:00:58,331.5,184,123,--.--,31,0000:00:00,11.32,51,0,-1.00,--.--,-11.32,--.--,0,--.--,--.--,--.--,--.--,--.--,--.--,--.--,0,19:44:28,2020-08-02,--.--,--.--,--.--,--.--,--.--,--.--,--.--,0.00,--.--,--.--,true,true,true,true,true,true,false,false,true,true,false,false,0.12,0.03,0.01,0.04,0.00,0.09,0.41,0.19,43.9468329,-78.9002044,17TPJ 68500 68111,0.0,0.0,253.6,3,10,--.--,--.--,--.--,0.0,0.0,0.0,0,0,0,7.6,0.1,0.0
2020-08-02 19:44:29.345,-38.0,5.3,191,6.0,21.8,-29.2,14.8,15.1,0.9,50.2,100.4,990.2,00:00:59,332.7,184,121,--.--,30,0000:00:00,11.32,51,0,-1.00,--.--,-11.32,--.--,0,--.--,--.--,--.--,--.--,--.--,--.--,--.--,0,19:44:29,2020-08-02,--.--,--.--,--.--,--.--,--.--,--.--,--.--,0.00,--.--,--.--,true,true,true,true,true,true,false,false,true,true,false,false,0.12,0.03,0.01,0.04,0.00,0.09,0.41,0.19,43.9467584,-78.9003684,17TPJ 68488 68102,0.0,0.0,220.8,3,10,--.--,--.--,--.--,0.0,0.0,0.0,0,0,0,7.6,0.1,0.0
2020-08-02 19:44:30.349,-32.1,3.5,164,11.9,11.5,-23.0,14.8,14.5,0.6,50.8,101.0,1004.8,00:01:00,326.8,184,119,--.--,28,0000:00:00,11.32,51,0,-1.00,--.--,-11.32,--.--,0,--.--,--.--,--.--,--.--,--.--,--.--,--.--,0,19:44:30,2020-08-02,--.--,--.--,--.--,--.--,--.--,--.--,--.--,0.00,--.--,--.--,true,true,true,true,true,true,false,false,true,true,false,false,0.05,0.04,0.01,0.03,0.00,0.04,0.40,0.19,43.9466344,-78.9004387,17TPJ 68482 68088,0.0,0.0,184.0,3,10,--.--,--.--,--.--,0.0,0.0,0.0,0,0,0,347.6,0.1,0.0
2020-08-02 19:44:31.363,-18.3,1.2,143,17.0,3.1,-15.1,15.0,14.9,-0.0,50.9,101.0,1019.4,00:01:01,315.4,184,117,--.--,26,0000:00:00,11.32,51,0,-1.00,--.--,-11.32,--.--,0,--.--,--.--,--.--,--.--,--.--,--.--,--.--,0,19:44:31,2020-08-02,--.--,--.--,--.--,--.--,--.--,--.--,--.--,0.00,--.--,--.--,true,true,true,true,true,true,false,false,true,true,false,false,0.05,0.04,0.01,0.03,0.00,0.04,0.40,0.19,43.9465017,-78.9004028,17TPJ 68485 68073,0.0,0.0,156.2,3,10,--.--,--.--,--.--,0.0,0.0,0.0,0,0,0,347.6,0.1,0.0
2020-08-02 19:44:32.345,-1.7,0.4,133,14.9,-0.4,-4.4,15.3,15.4,-0.5,50.4,100.6,1034.4,00:01:02,302.1,184,116,--.--,25,0000:00:00,11.32,51,0,-1.00,--.--,-11.32,--.--,0,--.--,--.--,--.--,--.--,--.--,--.--,--.--,0,19:44:32,2020-08-02,--.--,--.--,--.--,--.--,--.--,--.--,--.--,0.00,--.--,--.--,true,true,true,true,true,true,false,false,true,true,false,false,0.03,0.08,0.02,0.02,0.00,0.01,0.42,0.20,43.9463850,-78.9002977,17TPJ 68494 68061,0.0,0.0,139.9,3,10,--.--,--.--,--.--,0.0,0.0,0.0,0,0,0,342.4,0.1,0.0
2020-08-02 19:44:33.345,8.9,0.2,132,11.0,0.4,1.8,15.7,15.8,-0.7,49.8,100.0,1047.4,00:01:03,290.4,184,115,--.--,25,0000:00:00,11.32,51,0,-1.00,--.--,-11.32,--.--,0,--.--,--.--,--.--,--.--,--.--,--.--,--.--,0,19:44:33,2020-08-02,--.--,--.--,--.--,--.--,--.--,--.--,--.--,0.00,--.--,--.--,true,true,true,true,true,true,false,false,true,true,false,false,0.03,0.08,0.02,0.02,0.00,0.01,0.42,0.20,43.9462823,-78.9001620,17TPJ 68505 68049,0.0,0.0,134.6,3,10,--.--,--.--,--.--,0.0,0.0,0.0,0,0,0,342.4,0.1,0.0
2020-08-02 19:44:34.361,17.0,1.0,137,5.3,3.2,6.7,16.2,16.9,-0.7,49.0,99.2,1063.2,00:01:04,275.4,184,114,--.--,26,0000:00:00,11.32,51,0,-1.00,--.--,-11.32,--.--,0,--.--,--.--,--.--,--.--,--.--,--.--,--.--,0,19:44:34,2020-08-02,--.--,--.--,--.--,--.--,--.--,--.--,--.--,0.00,--.--,--.--,true,true,true,true,true,true,false,false,true,true,false,false,0.05,0.07,0.01,0.03,0.00,0.08,0.42,0.19,43.9461771,-78.9000188,17TPJ 68517 68038,0.0,0.0,137.6,3,10,--.--,--.--,--.--,0.0,0.0,0.0,0,0,0,343.3,0.1,0.0
2020-08-02 19:44:35.345,20.0,2.1,146,0.9,4.3,8.4,16.5,16.4,-0.4,48.4,98.6,1078.4,00:01:05,261.0,184,112,--.--,27,0000:00:00,11.32,51,0,-1.00,--.--,-11.32,--.--,0,--.--,--.--,--.--,--.--,--.--,--.--,--.--,0,19:44:35,2020-08-02,--.--,--.--,--.--,--.--,--.--,--.--,--.--,0.00,--.--,--.--,true,true,true,true,true,true,false,false,true,true,false,false,0.05,0.07,0.01,0.03,0.00,0.08,0.42,0.19,43.9460600,-78.8998882,17TPJ 68528 68025,0.0,0.0,145.4,3,10,--.--,--.--,--.--,0.0,0.0,0.0,0,0,0,343.3,0.1,0.0
2020-08-02 19:44:36.350,19.9,3.1,154,-1.8,3.8,7.7,16.6,16.1,-0.1,48.1,98.3,1094.5,00:01:06,249.4,184,110,--.--,27,0000:00:00,11.32,51,0,-1.00,--.--,-11.32,--.--,0,--.--,--.--,--.--,--.--,--.--,--.--,--.--,0,19:44:36,2020-08-02,--.--,--.--,--.--,--.--,--.--,--.--,--.--,0.00,--.--,--.--,true,true,true,true,true,true,false,false,true,true,false,false,0.10,0.20,0.02,0.02,0.00,0.10,0.42,0.19,43.9460600,-78.8998882,17TPJ 68528 68025,0.0,0.0,145.4,3,10,--.--,--.--,--.--,0.0,0.0,0.0,0,0,0,351.3,0.0,0.0
2020-08-02 19:44:37.345,17.8,3.9,162,-2.6,2.5,6.5,16.4,16.7,0.2,48.1,98.3,1110.5,00:01:07,239.2,184,107,--.--,27,0000:00:00,11.32,51,0,-1.00,--.--,-11.32,--.--,0,--.--,--.--,--.--,--.--,--.--,--.--,--.--,0,19:44:37,2020-08-02,--.--,--.--,--.--,--.--,--.--,--.--,--.--,0.00,--.--,--.--,true,true,true,true,true,true,false,false,true,true,false,false,0.10,0.20,0.02,0.02,0.00,0.10,0.42,0.19,43.9459555,-78.8998016,17TPJ 68535 68014,0.0,0.0,153.0,3,10,--.--,--.--,--.--,0.0,0.0,0.0,0,0,0,351.3,0.0,0.0
2020-08-02 19:44:38.348,15.5,4.2,167,-3.0,1.5,4.6,16.3,16.2,0.3,48.3,98.4,1124.2,00:01:08,232.0,184,104,--.--,26,0000:00:00,11.32,51,0,-1.00,--.--,-11.32,--.--,0,--.--,--.--,--.--,--.--,--.--,--.--,--.--,0,19:44:38,2020-08-02,--.--,--.--,--.--,--.--,--.--,--.--,--.--,0.00,--.--,--.--,true,true,true,true,true,true,false,false,true,true,false,false,0.10,0.20,0.02,0.02,0.00,0.10,0.42,0.19,43.9458146,-78.8997211,17TPJ 68542 67998,0.0,0.0,162.0,3,10,--.--,--.--,--.--,0.0,0.0,0.0,0,0,0,349.5,0.1,0.0
2020-08-02 19:44:39.335,13.1,4.5,171,-2.2,0.9,2.9,16.3,16.2,0.4,48.5,98.7,1142.4,00:01:09,226.3,184,100,--.--,26,0000:00:00,11.32,51,0,-1.00,--.--,-11.32,--.--,0,--.--,--.--,--.--,--.--,--.--,--.--,--.--,0,19:44:39,2020-08-02,--.--,--.--,--.--,--.--,--.--,--.--,--.--,0.00,--.--,--.--,true,true,true,true,true,true,false,false,true,true,false,false,0.09,0.02,0.02,0.01,0.00,0.04,0.41,0.19,43.9456680,-78.8996687,17TPJ 68547 67982,0.0,0.0,168.8,3,10,--.--,--.--,--.--,0.0,0.0,0.0,0,0,0,349.5,0.1,0.0
2020-08-02 19:44:40.332,11.4,4.6,173,-1.9,0.4,1.8,16.2,16.2,0.4,48.7,98.9,1155.9,00:01:10,223.0,184,96,--.--,26,0000:00:00,11.32,51,0,-1.00,--.--,-11.32,--.--,0,--.--,--.--,--.--,--.--,--.--,--.--,--.--,0,19:44:40,2020-08-02,--.--,--.--,--.--,--.--,--.--,--.--,--.--,0.00,--.--,--.--,true,true,true,true,true,true,false,false,true,true,false,false,0.09,0.02,0.02,0.01,0.00,0.04,0.41,0.19,43.9455179,-78.8996372,17TPJ 68550 67966,0.0,0.0,173.5,3,10,--.--,--.--,--.--,0.0,0.0,0.0,0,0,0,346.2,0.0,0.0
2020-08-02 19:44:41.337,10.1,4.6,174,-1.2,-0.1,1.0,16.2,16.1,0.4,49.0,99.2,1172.0,00:01:11,221.1,184,93,--.--,26,0000:00:00,11.32,51,0,-1.00,--.--,-11.32,--.--,0,--.--,--.--,--.--,--.--,--.--,--.--,--.--,0,19:44:41,2020-08-02,--.--,--.--,--.--,--.--,--.--,--.--,--.--,0.00,--.--,--.--,true,true,true,true,true,true,false,false,true,true,false,false,0.07,0.11,0.02,0.03,0.00,0.10,0.41,0.19,43.9453692,-78.8996200,17TPJ 68551 67949,0.0,0.0,176.5,3,10,--.--,--.--,--.--,0.0,0.0,0.0,0,0,0,346.2,0.0,0.0
2020-08-02 19:44:42.349,9.3,4.5,175,-0.8,-0.2,0.5,16.1,15.8,0.4,49.2,99.4,1188.0,00:01:12,220.5,184,88,--.--,26,0000:00:00,11.32,51,0,-1.00,--.--,-11.32,--.--,0,--.--,--.--,--.--,--.--,--.--,--.--,--.--,0,19:44:42,2020-08-02,--.--,--.--,--.--,--.--,--.--,--.--,--.--,0.00,--.--,--.--,true,true,true,true,true,true,false,false,true,true,false,false,0.07,0.11,0.02,0.03,0.00,0.10,0.41,0.19,43.9452209,-78.8996104,17TPJ 68553 67933,0.0,0.0,178.0,3,10,--.--,--.--,--.--,0.0,0.0,0.0,0,0,0,291.6,0.0,0.0
2020-08-02 19:44:43.343,8.8,4.4,175,-0.3,-0.2,0.0,15.9,15.5,0.3,49.4,99.6,1203.2,00:01:13,221.2,191,84,--.--,25,0000:00:00,11.32,51,0,-1.00,--.--,-11.32,--.--,0,--.--,--.--,--.--,--.--,--.--,--.--,--.--,0,19:44:43,2020-08-02,--.--,--.--,--.--,--.--,--.--,--.--,--.--,0.00,--.--,--.--,true,true,true,true,true,true,false,false,true,true,false,false,0.07,0.12,0.03,0.04,0.00,0.01,0.43,0.19,43.9450740,-78.8996048,17TPJ 68554 67916,0.0,0.0,178.6,3,10,--.--,--.--,--.--,0.0,0.0,0.0,0,0,0,291.6,0.0,0.0
2020-08-02 19:44:44.337,8.1,4.4,175,-1.9,-0.0,-0.4,15.8,15.3,0.2,49.6,99.7,1218.2,00:01:14,222.8,175,81,--.--,25,0000:00:00,11.32,51,0,-1.00,--.--,-11.32,--.--,0,--.--,--.--,--.--,--.--,--.--,--.--,--.--,0,19:44:44,2020-08-02,--.--,--.--,--.--,--.--,--.--,--.--,--.--,0.00,--.--,--.--,true,true,true,true,true,true,false,false,true,true,false,false,0.07,0.12,0.03,0.04,0.00,0.01,0.43,0.19,43.9449276,-78.8996006,17TPJ 68554 67900,0.0,0.0,178.9,3,10,--.--,--.--,--.--,0.0,0.0,0.0,0,0,0,277.1,0.0,0.0
2020-08-02 19:44:45.337,6.3,4.6,174,-1.7,0.3,-1.3,15.7,15.8,0.3,49.7,99.9,1231.4,00:01:15,225.2,175,77,--.--,25,0000:00:00,11.32,51,0,-1.00,--.--,-11.32,--.--,0,--.--,--.--,--.--,--.--,--.--,--.--,--.--,0,19:44:45,2020-08-02,--.--,--.--,--.--,--.--,--.--,--.--,--.--,0.00,--.--,--.--,true,true,true,true,true,true,false,false,true,true,false,false,0.03,0.01,0.01,0.01,0.00,0.01,0.42,0.19,43.9447831,-78.8995966,17TPJ 68555 67884,0.0,0.0,178.7,3,10,--.--,--.--,--.--,0.0,0.0,0.0,0,0,0,277.1,0.0,0.0
2020-08-02 19:44:46.337,5.1,4.8,172,-0.9,-0.3,-2.1,15.6,15.0,0.3,49.9,100.1,1244.6,00:01:16,228.2,175,74,--.--,25,0000:00:00,11.32,51,0,-1.00,--.--,-11.32,--.--,0,--.--,--.--,--.--,--.--,--.--,--.--,--.--,0,19:44:46,2020-08-02,--.--,--.--,--.--,--.--,--.--,--.--,--.--,0.00,--.--,--.--,true,true,true,true,true,true,false,false,true,true,false,false,0.03,0.01,0.01,0.01,0.00,0.01,0.42,0.19,43.9446388,-78.8995902,17TPJ 68556 67868,0.0,0.0,177.4,3,10,--.--,--.--,--.--,0.0,0.0,0.0,0,0,0,277.1,0.0,0.0
2020-08-02 19:44:47.356,4.5,4.7,170,0.0,-0.4,-2.4,15.5,15.1,0.3,50.1,100.3,1262.1,00:01:17,231.9,175,70,--.--,24,0000:00:00,11.32,51,0,-1.00,--.--,-11.32,--.--,0,--.--,--.--,--.--,--.--,--.--,--.--,--.--,0,19:44:47,2020-08-02,--.--,--.--,--.--,--.--,--.--,--.--,--.--,0.00,--.--,--.--,true,true,true,true,true,true,false,false,true,true,false,false,0.03,0.06,0.02,0.04,0.00,0.01,0.42,0.19,43.9444957,-78.8995777,17TPJ 68557 67852,0.0,0.0,175.3,3,10,--.--,--.--,--.--,0.0,0.0,0.0,0,0,0,237.6,0.0,0.0
2020-08-02 19:44:48.337,4.6,4.5,168,0.6,-0.7,-1.9,15.5,15.5,0.3,50.3,100.5,1275.1,00:01:18,235.5,175,67,--.--,24,0000:00:00,11.32,51,0,-1.00,--.--,-11.32,--.--,0,--.--,--.--,--.--,--.--,--.--,--.--,--.--,0,19:44:48,2020-08-02,--.--,--.--,--.--,--.--,--.--,--.--,--.--,0.00,--.--,--.--,true,true,true,true,true,true,false,false,true,true,false,false,0.03,0.06,0.02,0.04,0.00,0.01,0.42,0.19,43.9443547,-78.8995573,17TPJ 68559 67837,0.0,0.0,173.0,3,10,--.--,--.--,--.--,0.0,0.0,0.0,0,0,0,237.6,0.0,0.0
2020-08-02 19:44:49.337,5.0,4.3,166,0.6,-0.3,-1.9,15.4,15.3,0.2,50.4,100.6,1290.4,00:01:19,239.9,175,63,--.--,24,0000:00:00,11.32,51,0,-1.00,--.--,-11.32,--.--,0,--.--,--.--,--.--,--.--,--.--,--.--,--.--,0,19:44:49,2020-08-02,--.--,--.--,--.--,--.--,--.--,--.--,--.--,0.00,--.--,--.--,true,true,true,true,true,true,false,false,true,true,false,false,0.06,0.05,0.02,0.02,0.00,0.15,0.42,0.19,43.9442159,-78.8995294,17TPJ 68562 67821,0.0,0.0,170.7,3,10,--.--,--.--,--.--,0.0,0.0,0.0,0,0,0,209.7,0.0,0.0
2020-08-02 19:44:50.337,5.5,4.2,164,0.8,-0.2,-1.5,15.4,15.5,0.1,50.5,100.6,1305.4,00:01:20,244.2,175,60,--.--,24,0000:00:00,11.32,51,0,-1.00,--.--,-11.32,--.--,0,--.--,--.--,--.--,--.--,--.--,--.--,--.--,0,19:44:50,2020-08-02,--.--,--.--,--.--,--.--,--.--,--.--,--.--,0.00,--.--,--.--,true,true,true,true,true,true,false,false,true,true,false,false,0.06,0.05,0.02,0.02,0.00,0.15,0.42,0.19,43.9441049,-78.8995021,17TPJ 68565 67809,0.0,0.0,169.3,3,10,--.--,--.--,--.--,0.0,0.0,0.0,0,0,0,209.7,0.0,0.0
2020-08-02 19:44:51.353,6.0,4.2,163,0.5,0.2,-1.0,15.4,14.8,0.1,50.5,100.6,1318.4,00:01:21,248.9,175,57,--.--,24,0000:00:00,11.32,51,0,-1.00,--.--,-11.32,--.--,0,--.--,--.--,--.--,--.--,--.--,--.--,--.--,0,19:44:51,2020-08-02,--.--,--.--,--.--,--.--,--.--,--.--,--.--,0.00,--.--,--.--,true,true,true,true,true,true,false,false,true,true,false,false,0.06,0.05,0.02,0.03,0.00,0.01,0.41,0.19,43.9439683,-78.8994634,17TPJ 68568 67794,0.0,0.0,167.9,3,10,--.--,--.--,--.--,0.0,0.0,0.0,0,0,0,197.9,0.1,0.0
2020-08-02 19:44:52.355,-13.5,4.4,159,-39.5,5.0,-12.7,15.3,15.0,0.3,50.5,100.7,1331.3,00:01:22,253.9,0,54,--.--,24,0000:00:00,11.32,51,0,-1.00,--.--,-11.32,--.--,0,--.--,--.--,--.--,--.--,--.--,--.--,--.--,0,19:44:52,2020-08-02,--.--,--.--,--.--,--.--,--.--,--.--,--.--,0.00,--.--,--.--,true,true,true,true,true,true,false,false,true,true,false,false,0.06,0.05,0.02,0.03,0.00,0.01,0.41,0.19,43.9439683,-78.8994634,17TPJ 68568 67794,0.0,0.0,167.9,3,10,--.--,--.--,--.--,0.0,0.0,0.0,0,0,0,197.9,0.1,0.0
2020-08-02 19:44:53.348,-33.5,7.2,134,-2.8,17.8,-25.0,14.7,13.6,1.0,51.2,101.3,1346.2,00:01:23,256.7,0,51,--.--,26,0000:00:00,11.32,51,0,-1.00,--.--,-11.32,--.--,0,--.--,--.--,--.--,--.--,--.--,--.--,--.--,0,19:44:53,2020-08-02,--.--,--.--,--.--,--.--,--.--,--.--,--.--,0.00,--.--,--.--,true,true,true,true,true,true,false,false,true,true,false,false,0.06,0.05,0.02,0.03,0.00,0.01,0.41,0.19,43.9438315,-78.8994200,17TPJ 68572 67779,0.0,0.0,165.7,3,10,--.--,--.--,--.--,0.0,0.0,0.0,0,0,0,191.9,0.1,0.0
2020-08-02 19:44:54.316,-35.4,6.3,107,3.1,14.2,-23.4,14.1,14.2,0.8,52.0,102.2,1359.2,00:01:24,254.0,0,48,--.--,25,0000:00:00,11.32,51,0,-1.00,--.--,-11.32,--.--,0,--.--,--.--,--.--,--.--,--.--,--.--,--.--,0,19:44:54,2020-08-02,--.--,--.--,--.--,--.--,--.--,--.--,--.--,0.00,--.--,--.--,true,true,true,true,true,true,false,false,true,true,false,false,0.19,0.15,0.03,0.02,0.00,0.11,0.43,0.19,43.9437061,-78.8993454,17TPJ 68578 67765,0.0,0.0,144.1,3,10,--.--,--.--,--.--,0.0,0.0,0.0,0,0,0,191.9,0.1,0.0
2020-08-02 19:44:55.339,-34.6,4.8,85,2.9,12.1,-18.7,14.2,14.9,0.4,52.3,102.5,1372.8,00:01:25,246.4,0,46,--.--,24,0000:00:00,11.32,51,0,-1.00,--.--,-11.32,--.--,0,--.--,--.--,--.--,--.--,--.--,--.--,--.--,0,19:44:55,2020-08-02,--.--,--.--,--.--,--.--,--.--,--.--,--.--,0.00,--.--,--.--,true,true,true,true,true,true,false,false,true,true,false,false,0.19,0.15,0.03,0.02,0.00,0.11,0.43,0.19,43.9436250,-78.8992041,17TPJ 68590 67756,0.0,0.0,112.7,3,10,--.--,--.--,--.--,0.0,0.0,0.0,0,0,0,187.1,0.1,0.0
2020-08-02 19:44:56.338,-34.1,4.3,66,1.8,11.4,-16.8,14.5,14.4,-0.0,52.3,102.5,1383.9,00:01:26,235.5,0,44,--.--,23,0000:00:00,11.32,51,0,-1.00,--.--,-11.32,--.--,0,--.--,--.--,--.--,--.--,--.--,--.--,--.--,0,19:44:56,2020-08-02,--.--,--.--,--.--,--.--,--.--,--.--,--.--,0.00,--.--,--.--,true,true,true,true,true,true,false,false,true,true,false,false,0.09,0.01,0.02,0.02,0.00,0.04,0.42,0.19,43.9436064,-78.8990238,17TPJ 68604 67755,0.0,0.0,84.8,3,10,--.--,--.--,--.--,0.0,0.0,0.0,0,0,0,187.1,0.1,0.0
2020-08-02 19:44:57.356,-34.0,4.1,46,1.6,11.5,-17.4,14.6,14.9,-0.2,52.0,102.2,1399.2,00:01:27,221.2,0,43,--.--,24,0000:00:00,11.32,51,0,-1.00,--.--,-11.32,--.--,0,--.--,--.--,--.--,--.--,--.--,--.--,--.--,0,19:44:57,2020-08-02,--.--,--.--,--.--,--.--,--.--,--.--,--.--,0.00,--.--,--.--,true,true,true,true,true,true,false,false,true,true,false,false,0.09,0.01,0.02,0.02,0.00,0.04,0.42,0.19,43.9436458,-78.8988470,17TPJ 68618 67759,0.0,0.0,61.5,3,10,--.--,--.--,--.--,0.0,0.0,0.0,0,0,0,189.3,0.1,0.0
2020-08-02 19:44:58.339,-33.4,4.1,26,3.0,11.2,-16.5,14.7,14.4,-0.3,51.7,101.9,1413.6,00:01:28,206.7,0,44,--.--,25,0000:00:00,11.32,51,0,-1.00,--.--,-11.32,--.--,0,--.--,--.--,--.--,--.--,--.--,--.--,--.--,0,19:44:58,2020-08-02,--.--,--.--,--.--,--.--,--.--,--.--,--.--,0.00,--.--,--.--,true,true,true,true,true,true,false,false,true,true,false,false,0.05,0.05,0.01,0.02,0.00,0.04,0.42,0.19,43.9437306,-78.8987033,17TPJ 68630 67769,0.0,0.0,40.0,3,10,--.--,--.--,--.--,0.0,0.0,0.0,0,0,0,189.3,0.1,0.0
2020-08-02 19:44:59.346,-30.7,4.5,9,5.4,8.7,-13.4,14.8,14.5,-0.2,51.5,101.6,1428.3,00:01:29,194.9,0,46,--.--,24,0000:00:00,11.32,51,0,-1.00,--.--,-11.32,--.--,0,--.--,--.--,--.--,--.--,--.--,--.--,--.--,0,19:44:59,2020-08-02,--.--,--.--,--.--,--.--,--.--,--.--,--.--,0.00,--.--,--.--,true,true,true,true,true,true,false,false,true,true,false,false,0.05,0.05,0.01,0.02,0.00,0.04,0.42,0.19,43.9438485,-78.8986118,17TPJ 68637 67782,0.0,0.0,18.7,3,10,--.--,--.--,--.--,0.0,0.0,0.0,0,0,0,189.3,0.1,0.0
2020-08-02 19:45:00.341,-25.9,5.0,357,6.8,5.4,-9.9,14.8,14.5,-0.0,51.4,101.5,1440.8,00:01:30,185.9,0,48,--.--,24,0000:00:00,11.32,51,0,-1.00,--.--,-11.32,--.--,0,--.--,--.--,--.--,--.--,--.--,--.--,--.--,0,19:45:00,2020-08-02,--.--,--.--,--.--,--.--,--.--,--.--,--.--,0.00,--.--,--.--,true,true,true,true,true,true,false,false,true,true,false,false,0.03,0.04,0.01,0.01,0.00,0.05,0.41,0.20,43.9439819,-78.8985824,17TPJ 68639 67797,0.0,0.0,0.2,3,10,--.--,--.--,--.--,0.0,0.0,0.0,0,0,0,175.4,0.1,0.0
2020-08-02 19:45:01.336,-20.5,5.3,349,6.3,2.5,-6.0,14.6,13.9,0.2,51.5,101.6,1455.5,00:01:31,179.6,0,52,--.--,24,0000:00:00,11.32,51,0,-1.00,--.--,-11.32,--.--,0,--.--,--.--,--.--,--.--,--.--,--.--,--.--,0,19:45:01,2020-08-02,--.--,--.--,--.--,--.--,--.--,--.--,--.--,0.00,--.--,--.--,true,true,true,true,true,true,false,false,true,true,false,false,0.03,0.04,0.01,0.01,0.00,0.05,0.41,0.20,43.9441151,-78.8986039,17TPJ 68637 67812,0.0,0.0,347.4,3,10,--.--,--.--,--.--,0.0,0.0,0.0,0,0,0,175.4,0.1,0.0
2020-08-02 19:45:02.340,-15.7,5.2,345,4.8,-0.0,-2.8,14.2,13.4,0.2,51.7,101.9,1469.4,00:01:32,175.6,0,56,--.--,25,0000:00:00,11.32,51,0,-1.00,--.--,-11.32,--.--,0,--.--,--.--,--.--,--.--,--.--,--.--,--.--,0,19:45:02,2020-08-02,--.--,--.--,--.--,--.--,--.--,--.--,--.--,0.00,--.--,--.--,true,true,true,true,true,true,false,false,true,true,false,false,0.07,0.07,0.00,0.03,0.00,0.03,0.41,0.19,43.9442175,-78.8986449,17TPJ 68633 67823,0.0,0.0,340.9,3,10,--.--,--.--,--.--,0.0,0.0,0.0,0,0,0,181.9,0.0,0.0
2020-08-02 19:45:03.337,-12.9,4.5,343,1.9,-0.5,-1.8,14.0,13.6,0.1,51.9,102.0,1480.0,00:01:33,173.8,0,60,--.--,24,0000:00:00,11.32,51,0,-1.00,--.--,-11.32,--.--,0,--.--,--.--,--.--,--.--,--.--,--.--,--.--,0,19:45:03,2020-08-02,--.--,--.--,--.--,--.--,--.--,--.--,--.--,0.00,--.--,--.--,true,true,true,true,true,true,false,false,true,true,false,false,0.07,0.07,0.00,0.03,0.00,0.03,0.41,0.19,43.9443375,-78.8987102,17TPJ 68627 67836,0.0,0.0,336.9,3,10,--.--,--.--,--.--,0.0,0.0,0.0,0,0,0,181.9,0.0,0.0
2020-08-02 19:45:04.337,-11.3,3.5,342,1.0,-0.9,-0.5,13.7,13.2,-0.0,51.9,102.1,1492.9,00:01:34,173.1,0,65,--.--,24,0000:00:00,11.32,51,0,-1.00,--.--,-11.32,--.--,0,--.--,--.--,--.--,--.--,--.--,--.--,--.--,0,19:45:04,2020-08-02,--.--,--.--,--.--,--.--,--.--,--.--,--.--,0.00,--.--,--.--,true,true,true,true,true,true,false,false,true,true,false,false,0.02,0.11,0.01,0.02,0.00,0.05,0.43,0.19,43.9444534,-78.8987822,17TPJ 68621 67849,0.0,0.0,335.2,3,10,--.--,--.--,--.--,0.0,0.0,0.0,0,0,0,239.7,0.0,0.0
2020-08-02 19:45:05.361,-10.4,3.0,342,2.0,-0.3,0.0,13.6,13.1,-0.2,51.8,102.0,1505.8,00:01:35,173.5,0,69,--.--,24,0000:00:00,11.32,51,0,-1.00,--.--,-11.32,--.--,0,--.--,--.--,--.--,--.--,--.--,--.--,--.--,0,19:45:05,2020-08-02,--.--,--.--,--.--,--.--,--.--,--.--,--.--,0.00,--.--,--.--,true,true,true,true,true,true,false,false,true,true,false,false,0.02,0.11,0.01,0.02,0.00,0.05,0.43,0.19,43.9445678,-78.8988562,17TPJ 68615 67862,0.0,0.0,334.9,3,10,--.--,--.--,--.--,0.0,0.0,0.0,0,0,0,239.7,0.0,0.0
2020-08-02 19:45:06.340,-7.5,3.0,343,2.9,-0.1,2.3,13.6,14.2,-0.1,51.6,101.8,1518.8,00:01:36,174.8,0,73,--.--,24,0000:00:00,11.32,51,0,-1.00,--.--,-11.32,--.--,0,--.--,--.--,--.--,--.--,--.--,--.--,--.--,0,19:45:06,2020-08-02,--.--,--.--,--.--,--.--,--.--,--.--,--.--,0.00,--.--,--.--,true,true,true,true,true,true,false,false,true,true,false,false,0.02,0.02,0.02,0.02,0.00,0.15,0.42,0.19,43.9446815,-78.8989295,17TPJ 68609 67874,0.0,0.0,335.6,3,10,--.--,--.--,--.--,0.0,0.0,0.0,0,0,0,248.7,0.0,0.0
2020-08-02 19:45:07.361,-5.2,3.1,346,2.0,-0.4,4.0,13.6,13.5,-0.0,51.5,101.7,1532.0,00:01:37,176.5,0,77,--.--,24,0000:00:00,11.32,51,0,-1.00,--.--,-11.32,--.--,0,--.--,--.--,--.--,--.--,--.--,--.--,--.--,0,19:45:07,2020-08-02,--.--,--.--,--.--,--.--,--.--,--.--,--.--,0.00,--.--,--.--,true,true,true,true,true,true,false,false,true,true,false,false,0.02,0.02,0.02,0.02,0.00,0.15,0.42,0.19,43.9446815,-78.8989295,17TPJ 68609 67874,0.0,0.0,335.6,3,10,--.--,--.--,--.--,0.0,0.0,0.0,0,0,0,248.7,0.0,0.0
2020-08-02 19:45:08.361,-4.1,3.0,350,0.9,-0.7,4.8,13.6,13.4,0.0,51.5,101.7,1543.0,00:01:38,178.2,0,81,--.--,24,0000:00:00,11.32,51,0,-1.00,--.--,-11.32,--.--,0,--.--,--.--,--.--,--.--,--.--,--.--,--.--,0,19:45:08,2020-08-02,--.--,--.--,--.--,--.--,--.--,--.--,--.--,0.00,--.--,--.--,true,true,true,true,true,true,false,false,true,true,false,false,0.02,0.02,0.02,0.02,0.00,0.15,0.42,0.19,43.9447972,-78.8989987,17TPJ 68603 67887,0.0,0.0,338.2,3,10,--.--,--.--,--.--,0.0,0.0,0.0,0,0,0,269.6,0.0,0.0
2020-08-02 19:45:09.342,-4.0,2.8,353,-0.5,-0.2,4.4,13.7,13.8,0.0,51.5,101.7,1554.0,00:01:39,179.9,0,84,--.--,24,0000:00:00,11.32,51,0,-1.00,--.--,-11.32,--.--,0,--.--,--.--,--.--,--.--,--.--,--.--,--.--,0,19:45:09,2020-08-02,--.--,--.--,--.--,--.--,--.--,--.--,--.--,0.00,--.--,--.--,true,true,true,true,true,true,false,false,true,true,false,false,0.01,0.04,0.01,0.02,0.00,0.08,0.42,0.19,43.9449160,-78.8990575,17TPJ 68598 67900,0.0,0.0,342.6,3,10,--.--,--.--,--.--,0.0,0.0,0.0,0,0,0,269.6,0.0,0.0
2020-08-02 19:45:10.334,-4.5,2.6,357,-0.9,-0.3,3.8,13.8,13.8,-0.0,51.5,101.6,1565.2,00:01:40,181.7,0,88,--.--,25,0000:00:00,11.32,51,0,-1.00,--.--,-11.32,--.--,0,--.--,--.--,--.--,--.--,--.--,--.--,--.--,0,19:45:10,2020-08-02,--.--,--.--,--.--,--.--,--.--,--.--,--.--,0.00,--.--,--.--,true,true,true,true,true,true,false,false,true,true,false,false,0.01,0.04,0.01,0.02,0.00,0.08,0.42,0.19,43.9450379,-78.8991025,17TPJ 68594 67913,0.0,0.0,347.4,3,10,--.--,--.--,--.--,0.0,0.0,0.0,0,0,0,269.6,0.0,0.0
2020-08-02 19:45:11.361,-5.5,2.6,0,-1.0,-0.6,2.7,14.0,13.9,-0.1,51.4,101.5,1581.1,00:01:41,183.9,0,93,--.--,24,0000:00:00,11.32,51,0,-1.00,--.--,-11.32,--.--,0,--.--,--.--,--.--,--.--,--.--,--.--,--.--,0,19:45:11,2020-08-02,--.--,--.--,--.--,--.--,--.--,--.--,--.--,0.00,--.--,--.--,true,true,true,true,true,true,false,false,true,true,false,false,0.03,0.11,0.00,0.02,0.00,0.06,0.42,0.19,43.9451627,-78.8991343,17TPJ 68591 67927,0.0,0.0,351.6,3,10,--.--,--.--,--.--,0.0,0.0,0.0,0,0,0,288.5,0.0,0.0
2020-08-02 19:45:12.360,-6.6,2.5,3,-0.8,0.3,1.7,14.2,13.8,-0.1,51.2,101.4,1594.4,00:01:42,186.4,0,97,--.--,24,0000:00:00,11.32,51,0,-1.00,--.--,-11.32,--.--,0,--.--,--.--,--.--,--.--,--.--,--.--,--.--,0,19:45:12,2020-08-02,--.--,--.--,--.--,--.--,--.--,--.--,--.--,0.00,--.--,--.--,true,true,true,true,true,true,false,false,true,true,false,false,0.03,0.11,0.00,0.02,0.00,0.06,0.42,0.19,43.9452646,-78.8991519,17TPJ 68589 67938,0.0,0.0,354.0,3,10,--.--,--.--,--.--,0.0,0.0,0.0,0,0,0,288.5,0.0,0.0
2020-08-02 19:45:13.345,-7.5,2.6,4,-0.9,-0.3,0.8,14.3,13.9,-0.1,51.1,101.3,1608.0,00:01:43,189.4,0,101,--.--,24,0000:00:00,11.32,51,0,-1.00,--.--,-11.32,--.--,0,--.--,--.--,--.--,--.--,--.--,--.--,--.--,0,19:45:13,2020-08-02,--.--,--.--,--.--,--.--,--.--,--.--,--.--,0.00,--.--,--.--,true,true,true,true,true,true,false,false,true,true,false,false,0.03,0.02,0.01,0.02,0.00,0.02,0.44,0.19,43.9453942,-78.8991666,17TPJ 68588 67953,0.0,0.0,356.4,3,10,--.--,--.--,--.--,0.0,0.0,0.0,0,0,0,300.1,0.0,0.0
2020-08-02 19:45:14.363,-8.1,2.7,5,-0.8,0.2,0.7,14.4,14.1,-0.1,51.0,101.2,1624.1,00:01:44,193.1,0,105,--.--,24,0000:00:00,11.32,51,0,-1.00,--.--,-11.32,--.--,0,--.--,--.--,--.--,--.--,--.--,--.--,--.--,0,19:45:14,2020-08-02,--.--,--.--,--.--,--.--,--.--,--.--,--.--,0.00,--.--,--.--,true,true,true,true,true,true,false,false,true,true,false,false,0.03,0.02,0.01,0.02,0.00,0.02,0.44,0.19,43.9455259,-78.8991758,17TPJ 68587 67967,0.0,0.0,357.7,3,10,--.--,--.--,--.--,0.0,0.0,0.0,0,0,0,300.1,0.0,0.0
2020-08-02 19:45:15.346,-8.4,2.7,5,-0.1,-0.4,0.2,14.5,14.5,-0.1,51.0,101.2,1634.9,00:01:45,196.8,0,108,--.--,24,0000:00:00,11.32,51,0,-1.00,--.--,-11.32,--.--,0,--.--,--.--,--.--,--.--,--.--,--.--,--.--,0,19:45:15,2020-08-02,--.--,--.--,--.--,--.--,--.--,--.--,--.--,0.00,--.--,--.--,true,true,true,true,true,true,false,false,true,true,false,false,0.02,0.07,0.00,0.02,0.00,0.12,0.43,0.19,43.9456584,-78.8991820,17TPJ 68586 67982,0.0,0.0,358.4,3,10,--.--,--.--,--.--,0.0,0.0,0.0,0,0,0,309.3,0.1,0.0
2020-08-02 19:45:16.339,-8.6,2.7,5,-0.3,-0.3,0.2,14.7,14.2,-0.0,50.9,101.1,1647.5,00:01:46,201.7,0,112,--.--,24,0000:00:00,11.32,51,0,-1.00,--.--,-11.32,--.--,0,--.--,--.--,--.--,--.--,--.--,--.--,--.--,0,19:45:16,2020-08-02,--.--,--.--,--.--,--.--,--.--,--.--,--.--,0.00,--.--,--.--,true,true,true,true,true,true,false,false,true,true,false,false,0.02,0.07,0.00,0.02,0.00,0.12,0.43,0.19,43.9457913,-78.8991866,17TPJ 68585 67997,0.0,0.0,358.7,3,10,--.--,--.--,--.--,0.0,0.0,0.0,0,0,0,309.3,0.1,0.0
2020-08-02 19:45:17.339,-8.6,2.7,5,0.0,-0.2,0.1,14.7,14.2,-0.0,50.9,101.0,1662.8,00:01:47,207.8,0,116,--.--,24,0000:00:00,11.32,51,0,-1.00,--.--,-11.32,--.--,0,--.--,--.--,--.--,--.--,--.--,--.--,--.--,0,19:45:17,2020-08-02,--.--,--.--,--.--,--.--,--.--,--.--,--.--,0.00,--.--,--.--,true,true,true,true,true,true,false,false,true,true,false,false,0.03,0.13,0.00,0.02,0.00,0.10,0.43,0.19,43.9459253,-78.8991903,17TPJ 68584 68012,0.0,0.0,358.9,3,10,--.--,--.--,--.--,0.0,0.0,0.0,0,0,0,317.1,0.1,0.0
2020-08-02 19:45:18.340,-8.6,2.7,5,0.0,-0.2,0.0,14.7,14.2,-0.0,50.8,101.0,1674.3,00:01:48,213.1,0,118,--.--,24,0000:00:00,11.32,51,0,-1.00,--.--,-11.32,--.--,0,--.--,--.--,--.--,--.--,--.--,--.--,--.--,0,19:45:18,2020-08-02,--.--,--.--,--.--,--.--,--.--,--.--,--.--,0.00,--.--,--.--,true,true,true,true,true,true,false,false,true,true,false,false,0.03,0.13,0.00,0.02,0.00,0.10,0.43,0.19,43.9459253,-78.8991903,17TPJ 68584 68012,0.0,0.0,358.9,3,10,--.--,--.--,--.--,0.0,0.0,0.0,0,0,0,317.1,0.1,0.0
2020-08-02 19:45:19.348,-8.7,2.7,5,0.1,-0.0,0.1,14.7,14.4,-0.1,50.8,100.9,1689.2,00:01:49,220.8,0,122,--.--,24,0000:00:00,11.32,51,0,-1.00,--.--,-11.32,--.--,0,--.--,--.--,--.--,--.--,--.--,--.--,--.--,0,19:45:19,2020-08-02,--.--,--.--,--.--,--.--,--.--,--.--,--.--,0.00,--.--,--.--,true,true,true,true,true,true,false,false,true,true,false,false,0.02,0.04,0.01,0.01,0.00,0.02,0.42,0.19,43.9460605,-78.8991935,17TPJ 68584 68027,0.0,0.0,359.0,3,10,--.--,--.--,--.--,0.0,0.0,0.0,0,0,0,314.0,0.1,0.0
2020-08-02 19:45:20.337,-8.7,2.6,6,0.2,0.2,0.0,14.8,14.8,-0.1,50.7,100.9,1701.7,00:01:50,228.1,0,125,--.--,24,0000:00:00,11.32,51,0,-1.00,--.--,-11.32,--.--,0,--.--,--.--,--.--,--.--,--.--,--.--,--.--,0,19:45:20,2020-08-02,--.--,--.--,--.--,--.--,--.--,--.--,--.--,0.00,--.--,--.--,true,true,true,true,true,true,false,false,true,true,false,false,0.02,0.04,0.01,0.01,0.00,0.02,0.42,0.19,43.9461957,-78.8991963,17TPJ 68583 68042,0.0,0.0,359.2,3,10,--.--,--.--,--.--,0.0,0.0,0.0,0,0,0,314.0,0.1,0.0
2020-08-02 19:45:21.346,-8.7,2.5,6,-0.5,-0.4,-0.2,14.9,14.3,-0.1,50.6,100.8,1716.5,00:01:51,237.2,348,128,--.--,24,0000:00:00,11.32,51,0,-1.00,--.--,-11.32,--.--,0,--.--,--.--,--.--,--.--,--.--,--.--,--.--,0,19:45:21,2020-08-02,--.--,--.--,--.--,--.--,--.--,--.--,--.--,0.00,--.--,--.--,true,true,true,true,true,true,false,false,true,true,false,false,0.02,0.04,0.01,0.01,0.00,0.02,0.42,0.19,43.9463312,-78.8991986,17TPJ 68583 68057,0.0,0.0,359.3,3,10,--.--,--.--,--.--,0.0,0.0,0.0,0,0,0,320.1,0.1,0.0
2020-08-02 19:45:22.349,-0.8,2.3,7,31.2,-0.6,4.6,14.9,14.6,-0.1,50.6,100.8,1731.1,00:01:52,245.7,10,130,--.--,25,0000:00:00,11.32,51,0,-1.00,--.--,-11.32,--.--,0,--.--,--.--,--.--,--.--,--.--,--.--,--.--,0,19:45:22,2020-08-02,--.--,--.--,--.--,--.--,--.--,--.--,--.--,0.00,--.--,--.--,true,true,true,true,true,true,false,false,true,true,false,false,0.04,0.09,0.00,0.01,0.00,0.04,0.42,0.19,43.9464665,-78.8992006,17TPJ 68582 68072,0.0,0.0,359.5,3,10,--.--,--.--,--.--,0.0,0.0,0.0,0,0,0,320.1,0.1,0.0
2020-08-02 19:45:23.339,9.7,3.1,11,22.0,3.9,12.1,14.8,14.4,0.2,50.7,100.8,1737.9,00:01:53,250.4,178,131,--.--,24,0000:00:00,11.32,51,0,-1.00,--.--,-11.32,--.--,0,--.--,--.--,--.--,--.--,--.--,--.--,--.--,0,19:45:23,2020-08-02,--.--,--.--,--.--,--.--,--.--,--.--,--.--,0.00,--.--,--.--,true,true,true,true,true,true,false,false,true,true,false,false,0.04,0.09,0.00,0.01,0.00,0.04,0.42,0.19,43.9465755,-78.8992018,17TPJ 68582 68084,0.0,0.0,359.9,3,10,--.--,--.--,--.--,0.0,0.0,0.0,0,0,0,320.1,0.1,0.0
2020-08-02 19:45:24.342,30.0,4.7,29,8.5,14.2,23.3,14.3,14.1,0.7,51.1,101.3,1751.6,00:01:54,256.8,178,134,--.--,25,0000:00:00,11.32,51,0,-1.00,--.--,-11.32,--.--,0,--.--,--.--,--.--,--.--,--.--,--.--,--.--,0,19:45:24,2020-08-02,--.--,--.--,--.--,--.--,--.--,--.--,--.--,0.00,--.--,--.--,true,true,true,true,true,true,false,false,true,true,false,false,0.15,0.04,0.00,0.01,0.00,0.04,0.43,0.19,43.9467107,-78.8991860,17TPJ 68583 68099,0.0,0.0,12.7,3,10,--.--,--.--,--.--,0.0,0.0,0.0,0,0,0,323.0,0.1,0.0
