Timestamp,roll,pitch,heading,rollRate,pitchRate,yawRate,groundSpeed,airSpeed,climbRate,altitudeRelative,altitudeAMSL,flightDistance,flightTime,distanceToHome,headingToNextWP,headingToHome,distanceToGCS,throttlePct,hobbs,battery.voltage,battery.percentRemaining,battery.mahConsumed,battery.current,battery.temperature,battery.instantPower,battery.timeRemaining,battery.chargeState,battery2.voltage,battery2.percentRemaining,battery2.mahConsumed,battery2.current,battery2.temperature,battery2.instantPower,battery2.timeRemaining,battery2.chargeState,clock.currentTime,clock.currentDate,distanceSensor.rotationNone,distanceSensor.rotationYaw45,distanceSensor.rotationYaw90,distanceSensor.rotationYaw135,distanceSensor.rotationYaw180,distanceSensor.rotationYaw225,distanceSensor.rotationYaw270,distanceSensor.rotationYaw315,distanceSensor.rotationPitch90,distanceSensor.rotationPitch270,estimatorStatus.goodAttitudeEsimate,estimatorStatus.goodHorizVelEstimate,estimatorStatus.goodVertVelEstimate,estimatorStatus.goodHorizPosRelEstimate,estimatorStatus.goodHorizPosAbsEstimate,estimatorStatus.goodVertPosAbsEstimate,estimatorStatus.goodVertPosAGLEstimate,estimatorStatus.goodConstPosModeEstimate,estimatorStatus.goodPredHorizPosRelEstimate,estimatorStatus.goodPredHorizPosAbsEstimate,estimatorStatus.gpsGlitch,estimatorStatus.accelError,estimatorStatus.velRatio,estimatorStatus.horizPosRatio,estimatorStatus.vertPosRatio,estimatorStatus.magRatio,estimatorStatus.haglRatio,estimatorStatus.tasRatio,estimatorStatus.horizPosAccuracy,estimatorStatus.vertPosAccuracy,gps.lat,gps.lon,gps.mgrs,gps.hdop,gps.vdop,gps.courseOverGround,gps.lock,gps.count,temperature.temperature1,temperature.temperature2,temperature.temperature3,vibration.xAxis,vibration.yAxis,vibration.zAxis,vibration.clipCount1,vibration.clipCount2,vibration.clipCount3,wind.direction,wind.speed,wind.verticalSpeed
2020-08-01 21:01:35.805,-1.1,-1.2,30,0.0,0.2,-0.1,0.0,1.3,-0.0,-0.0,50.1,0.0,00:00:00,0.0,308,--.--,--.--,0,0002:41:26,12.14,100,0,-1.00,--.--,-12.14,--.--,0,--.--,--.--,--.--,--.--,--.--,--.--,--.--,0,21:01:35,2020-08-01,--.--,--.--,--.--,--.--,--.--,--.--,--.--,0.00,--.--,--.--,true,true,true,true,true,true,true,false,true,true,false,false,0.00,0.00,0.00,0.00,0.00,0.00,0.45,0.21,43.9451638,-78.8968383,17TPJ 68775 67932,0.0,0.0,24.2,3,10,--.--,--.--,--.--,0.0,0.0,0.0,0,0,0,--.--,--.--,--.--
2020-08-01 21:01:36.805,0.3,0.7,30,-0.6,-0.9,0.3,0.0,-2.9,0.0,0.0,50.1,0.0,00:00:01,0.0,308,--.--,--.--,60,0002:41:26,12.12,99,0,-1.00,--.--,-12.12,--.--,0,--.--,--.--,--.--,--.--,--.--,--.--,--.--,0,21:01:36,2020-08-01,--.--,--.--,--.--,--.--,--.--,--.--,--.--,0.00,--.--,--.--,true,true,true,true,true,true,true,false,true,true,false,false,0.00,0.00,0.00,0.00,0.00,0.00,0.45,0.21,43.9451638,-78.8968383,17TPJ 68775 67932,0.0,0.0,83.8,3,10,--.--,--.--,--.--,0.0,0.0,0.0,0,0,0,--.--,--.--,--.--
2020-08-01 21:01:37.804,-0.7,-0.8,30,-0.7,-0.5,-0.1,0.0,-1.5,1.3,1.0,51.1,0.0,00:00:02,0.1,308,--.--,--.--,62,0002:41:26,12.10,98,0,-1.00,--.--,-12.10,--.--,0,--.--,--.--,--.--,--.--,--.--,--.--,--.--,0,21:01:37,2020-08-01,--.--,--.--,--.--,--.--,--.--,--.--,--.--,0.00,--.--,--.--,true,true,true,true,true,true,true,false,true,true,false,false,0.01,0.01,0.00,0.02,0.00,0.00,0.44,0.21,43.9451633,-78.8968381,17TPJ 68775 67932,0.0,0.0,182.9,3,10,--.--,--.--,--.--,0.0,0.0,0.0,0,0,0,--.--,--.--,--.--
2020-08-01 21:01:38.804,-1.1,-1.1,29,-0.8,0.0,0.3,0.0,-3.7,2.4,3.1,53.2,0.0,00:00:03,0.1,308,--.--,--.--,54,0002:41:26,12.07,96,0,-1.00,--.--,-12.07,--.--,0,--.--,--.--,--.--,--.--,--.--,--.--,--.--,0,21:01:38,2020-08-01,--.--,--.--,--.--,--.--,--.--,--.--,--.--,0.00,--.--,--.--,true,true,true,true,true,true,true,false,true,true,false,false,0.01,0.01,0.00,0.02,0.00,0.00,0.44,0.21,43.9451626,-78.8968378,17TPJ 68775 67932,0.0,0.0,158.5,3,10,--.--,--.--,--.--,0.0,0.0,0.0,0,0,0,--.--,--.--,--.--
2020-08-01 21:01:39.804,-1.3,-1.3,30,0.2,0.4,0.3,0.0,1.3,1.7,5.1,55.2,0.0,00:00:04,0.1,308,--.--,--.--,57,0002:41:26,12.05,94,0,-1.00,--.--,-12.05,--.--,0,--.--,--.--,--.--,--.--,--.--,--.--,--.--,0,21:01:39,2020-08-01,--.--,--.--,--.--,--.--,--.--,--.--,--.--,0.00,--.--,--.--,true,true,true,true,true,true,true,false,true,true,false,false,0.03,0.01,0.02,0.01,0.00,0.00,0.43,0.21,43.9451623,-78.8968376,17TPJ 68775 67932,0.0,0.0,169.8,3,10,--.--,--.--,--.--,0.0,0.0,0.0,0,0,0,--.--,--.--,--.--
2020-08-01 21:01:40.804,-1.3,-1.3,30,-0.2,-0.3,-0.1,0.0,2.1,1.6,6.7,56.8,0.0,00:00:05,0.1,308,--.--,--.--,58,0002:41:26,12.02,93,0,-1.00,--.--,-12.02,--.--,0,--.--,--.--,--.--,--.--,--.--,--.--,--.--,0,21:01:40,2020-08-01,--.--,--.--,--.--,--.--,--.--,--.--,--.--,0.00,--.--,--.--,true,true,true,true,true,true,true,false,true,true,false,false,0.03,0.01,0.02,0.01,0.00,0.00,0.43,0.21,43.9451623,-78.8968376,17TPJ 68775 67932,0.0,0.0,338.3,3,10,--.--,--.--,--.--,0.0,0.0,0.0,0,0,0,--.--,--.--,--.--
2020-08-01 21:01:41.804,-1.3,-1.2,30,0.2,-0.2,0.1,0.0,-1.5,1.5,8.3,58.4,0.0,00:00:06,0.1,308,--.--,--.--,58,0002:41:26,11.99,91,0,-1.00,--.--,-11.99,--.--,0,--.--,--.--,--.--,--.--,--.--,--.--,--.--,0,21:01:41,2020-08-01,--.--,--.--,--.--,--.--,--.--,--.--,--.--,0.00,--.--,--.--,true,true,true,true,true,true,false,false,true,true,false,false,0.01,0.00,0.01,0.01,0.00,0.00,0.43,0.20,43.9451627,-78.8968377,17TPJ 68775 67932,0.0,0.0,337.5,3,10,--.--,--.--,--.--,0.0,0.0,0.0,0,0,0,--.--,--.--,--.--
2020-08-01 21:01:42.804,-1.2,-1.2,30,-0.1,-0.4,0.1,0.0,-0.3,1.5,9.8,59.9,0.0,00:00:07,0.1,308,--.--,--.--,58,0002:41:26,11.97,89,0,-1.00,--.--,-11.97,--.--,0,--.--,--.--,--.--,--.--,--.--,--.--,--.--,0,21:01:42,2020-08-01,--.--,--.--,--.--,--.--,--.--,--.--,--.--,0.00,--.--,--.--,true,true,true,true,true,true,false,false,true,true,false,false,0.01,0.00,0.01,0.01,0.00,0.00,0.43,0.20,43.9451631,-78.8968379,17TPJ 68775 67932,0.0,0.0,348.8,3,10,--.--,--.--,--.--,0.0,0.0,0.0,0,0,0,--.--,--.--,--.--
2020-08-01 21:01:43.804,-0.9,-0.8,30,-0.6,-0.9,-0.1,0.0,1.0,2.8,11.9,62.0,0.0,00:00:08,0.1,308,--.--,--.--,66,0002:41:26,11.94,88,0,-1.00,--.--,-11.94,--.--,0,--.--,--.--,--.--,--.--,--.--,--.--,--.--,0,21:01:43,2020-08-01,--.--,--.--,--.--,--.--,--.--,--.--,--.--,0.00,--.--,--.--,true,true,true,true,true,true,false,false,true,true,false,false,0.09,0.00,0.01,0.00,0.00,0.00,0.46,0.21,43.9451634,-78.8968380,17TPJ 68775 67932,0.0,0.0,357.8,3,10,--.--,--.--,--.--,0.0,0.0,0.0,0,0,0,--.--,--.--,--.--
2020-08-01 21:01:44.805,-1.0,-1.1,30,-0.1,-0.2,0.2,0.0,-1.2,3.0,14.9,64.9,0.0,00:00:09,0.1,308,--.--,--.--,60,0002:41:26,11.91,86,0,-1.00,--.--,-11.91,--.--,0,--.--,--.--,--.--,--.--,--.--,--.--,--.--,0,21:01:44,2020-08-01,--.--,--.--,--.--,--.--,--.--,--.--,--.--,0.00,--.--,--.--,true,true,true,true,true,true,false,false,true,true,false,false,0.09,0.00,0.01,0.00,0.00,0.00,0.46,0.21,43.9451634,-78.8968379,17TPJ 68775 67932,0.0,0.0,141.5,3,10,--.--,--.--,--.--,0.0,0.0,0.0,0,0,0,--.--,--.--,--.--
2020-08-01 21:01:45.806,-1.1,-1.2,30,-0.0,0.0,-0.1,0.0,3.2,2.9,17.9,67.9,0.0,00:00:10,0.1,308,--.--,--.--,60,0002:41:26,11.88,84,0,-1.00,--.--,-11.88,--.--,0,--.--,--.--,--.--,--.--,--.--,--.--,--.--,0,21:01:45,2020-08-01,--.--,--.--,--.--,--.--,--.--,--.--,--.--,0.00,--.--,--.--,true,true,true,true,true,true,false,false,true,true,false,false,0.00,0.00,0.00,0.01,0.00,0.00,0.44,0.21,43.9451634,-78.8968377,17TPJ 68775 67932,0.0,0.0,35.4,3,10,--.--,--.--,--.--,0.0,0.0,0.0,0,0,0,--.--,--.--,--.--
2020-08-01 21:01:46.807,-1.2,-1.2,30,0.1,0.3,-0.1,0.0,2.2,2.9,20.8,70.9,0.0,00:00:11,0.1,308,--.--,--.--,60,0002:41:26,11.86,83,0,-1.00,--.--,-11.86,--.--,0,--.--,--.--,--.--,--.--,--.--,--.--,--.--,0,21:01:46,2020-08-01,--.--,--.--,--.--,--.--,--.--,--.--,--.--,0.00,--.--,--.--,true,true,true,true,true,true,false,false,true,true,false,false,0.00,0.00,0.00,0.01,0.00,0.00,0.44,0.21,43.9451635,-78.8968375,17TPJ 68775 67932,0.0,0.0,75.9,3,10,--.--,--.--,--.--,0.0,0.0,0.0,0,0,0,--.--,--.--,--.--
2020-08-01 21:01:47.806,-1.4,-1.1,30,-0.2,-0.5,0.0,0.0,2.1,2.9,23.8,73.9,0.0,00:00:12,0.1,308,--.--,--.--,60,0002:41:26,11.83,81,0,-1.00,--.--,-11.83,--.--,0,--.--,--.--,--.--,--.--,--.--,--.--,--.--,0,21:01:47,2020-08-01,--.--,--.--,--.--,--.--,--.--,--.--,--.--,0.00,--.--,--.--,true,true,true,true,true,true,false,false,true,true,false,false,0.01,0.00,0.00,0.02,0.00,0.00,0.43,0.21,43.9451638,-78.8968374,17TPJ 68775 67932,0.0,0.0,15.4,3,10,--.--,--.--,--.--,0.0,0.0,0.0,0,0,0,--.--,--.--,--.--
2020-08-01 21:01:48.807,-1.3,-1.1,30,0.2,-0.5,-0.1,0.0,1.4,3.0,26.8,76.9,0.0,00:00:13,0.0,308,--.--,--.--,60,0002:41:26,11.80,79,0,-1.00,--.--,-11.80,--.--,0,--.--,--.--,--.--,--.--,--.--,--.--,--.--,0,21:01:48,2020-08-01,--.--,--.--,--.--,--.--,--.--,--.--,--.--,0.00,--.--,--.--,true,true,true,true,true,true,false,false,true,true,false,false,0.01,0.00,0.00,0.02,0.00,0.00,0.43,0.21,43.9451639,-78.8968375,17TPJ 68775 67932,0.0,0.0,329.9,3,10,--.--,--.--,--.--,0.0,0.0,0.0,0,0,0,--.--,--.--,--.--
2020-08-01 21:01:49.804,-1.2,-1.1,30,0.9,0.4,0.0,0.0,2.8,3.0,29.8,79.9,0.0,00:00:14,0.0,308,--.--,--.--,60,0002:41:26,11.77,78,0,-1.00,--.--,-11.77,--.--,0,--.--,--.--,--.--,--.--,--.--,--.--,--.--,0,21:01:49,2020-08-01,--.--,--.--,--.--,--.--,--.--,--.--,--.--,0.00,--.--,--.--,true,true,true,true,true,true,false,false,true,true,false,false,0.02,0.01,0.00,0.02,0.00,0.00,0.42,0.21,43.9451642,-78.8968377,17TPJ 68775 67932,0.0,0.0,334.6,3,10,--.--,--.--,--.--,0.0,0.0,0.0,0,0,0,--.--,--.--,--.--
2020-08-01 21:01:50.805,-1.1,-1.1,30,0.2,-0.2,-0.0,0.0,-2.5,3.0,32.8,82.9,0.0,00:00:15,0.0,308,--.--,--.--,60,0002:41:26,11.75,76,0,-1.00,--.--,-11.75,--.--,0,--.--,--.--,--.--,--.--,--.--,--.--,--.--,0,21:01:50,2020-08-01,--.--,--.--,--.--,--.--,--.--,--.--,--.--,0.00,--.--,--.--,true,true,true,true,true,true,false,false,true,true,false,false,0.02,0.01,0.00,0.02,0.00,0.00,0.42,0.21,43.9451644,-78.8968379,17TPJ 68775 67932,0.0,0.0,276.5,3,10,--.--,--.--,--.--,0.0,0.0,0.0,0,0,0,--.--,--.--,--.--
2020-08-01 21:01:51.804,-1.0,-1.1,30,0.6,0.1,0.1,0.0,2.0,2.9,35.8,85.9,0.0,00:00:16,0.0,308,--.--,--.--,60,0002:41:26,11.72,74,0,-1.00,--.--,-11.72,--.--,0,--.--,--.--,--.--,--.--,--.--,--.--,--.--,0,21:01:51,2020-08-01,--.--,--.--,--.--,--.--,--.--,--.--,--.--,0.00,--.--,--.--,true,true,true,true,true,true,false,false,true,true,false,false,0.02,0.01,0.01,0.01,0.00,0.00,0.42,0.20,43.9451646,-78.8968378,17TPJ 68775 67932,0.0,0.0,257.7,3,10,--.--,--.--,--.--,0.0,0.0,0.0,0,0,0,--.--,--.--,--.--
2020-08-01 21:01:52.804,-1.0,-1.1,30,0.8,-0.3,0.1,0.0,1.9,3.0,38.8,88.9,0.0,00:00:17,0.0,308,--.--,--.--,60,0002:41:26,11.69,73,0,-1.00,--.--,-11.69,--.--,0,--.--,--.--,--.--,--.--,--.--,--.--,--.--,0,21:01:52,2020-08-01,--.--,--.--,--.--,--.--,--.--,--.--,--.--,0.00,--.--,--.--,true,true,true,true,true,true,false,false,true,true,false,false,0.02,0.01,0.01,0.01,0.00,0.00,0.42,0.20,43.9451645,-78.8968377,17TPJ 68775 67932,0.0,0.0,106.6,3,10,--.--,--.--,--.--,0.0,0.0,0.0,0,0,0,--.--,--.--,--.--
2020-08-01 21:01:53.804,-1.1,-1.3,30,0.2,0.2,-0.1,0.0,1.5,2.7,41.7,91.8,0.0,00:00:18,0.0,308,--.--,--.--,57,0002:41:26,11.66,71,0,-1.00,--.--,-11.66,--.--,0,--.--,--.--,--.--,--.--,--.--,--.--,--.--,0,21:01:53,2020-08-01,--.--,--.--,--.--,--.--,--.--,--.--,--.--,0.00,--.--,--.--,true,true,true,true,true,true,false,false,true,true,false,false,0.02,0.01,0.02,0.01,0.00,0.00,0.44,0.21,43.9451643,-78.8968374,17TPJ 68775 67932,0.0,0.0,131.7,3,10,--.--,--.--,--.--,0.0,0.0,0.0,0,0,0,--.--,--.--,--.--
2020-08-01 21:01:54.805,-1.3,-1.3,30,-0.4,0.3,-0.2,0.0,2.9,1.9,43.9,94.0,0.0,00:00:19,0.0,308,--.--,--.--,56,0002:41:26,11.64,69,0,-1.00,--.--,-11.64,--.--,0,--.--,--.--,--.--,--.--,--.--,--.--,--.--,0,21:01:54,2020-08-01,--.--,--.--,--.--,--.--,--.--,--.--,--.--,0.00,--.--,--.--,true,true,true,true,true,true,false,false,true,true,false,false,0.02,0.01,0.02,0.01,0.00,0.00,0.44,0.21,43.9451642,-78.8968372,17TPJ 68775 67932,0.0,0.0,108.1,3,10,--.--,--.--,--.--,0.0,0.0,0.0,0,0,0,--.--,--.--,--.--
2020-08-01 21:01:55.805,-1.3,-1.3,30,-0.1,0.1,-0.0,0.0,-1.9,1.4,45.5,95.6,0.0,00:00:20,0.1,308,--.--,--.--,56,0002:41:26,11.61,68,0,-1.00,--.--,-11.61,--.--,0,--.--,--.--,--.--,--.--,--.--,--.--,--.--,0,21:01:55,2020-08-01,--.--,--.--,--.--,--.--,--.--,--.--,--.--,0.00,--.--,--.--,true,true,true,true,true,true,false,false,true,true,false,false,0.01,0.01,0.00,0.02,0.00,0.00,0.43,0.21,43.9451642,-78.8968371,17TPJ 68775 67932,0.0,0.0,59.0,3,10,--.--,--.--,--.--,0.0,0.0,0.0,0,0,0,--.--,--.--,--.--
2020-08-01 21:01:56.805,-1.3,-1.3,30,-0.1,-0.1,0.1,0.1,2.6,1.1,46.7,96.7,0.0,00:00:21,0.1,308,--.--,--.--,56,0002:41:26,11.58,66,0,-1.00,--.--,-11.58,--.--,0,--.--,--.--,--.--,--.--,--.--,--.--,--.--,0,21:01:56,2020-08-01,--.--,--.--,--.--,--.--,--.--,--.--,--.--,0.00,--.--,--.--,true,true,true,true,true,true,false,false,true,true,false,false,0.01,0.01,0.00,0.02,0.00,0.00,0.43,0.21,43.9451643,-78.8968372,17TPJ 68775 67932,0.0,0.0,284.8,3,10,--.--,--.--,--.--,0.0,0.0,0.0,0,0,0,--.--,--.--,--.--
2020-08-01 21:01:57.804,-1.3,-1.3,30,-0.1,0.3,0.2,0.0,-2.4,0.8,47.5,97.6,0.0,00:00:22,0.0,308,--.--,--.--,56,0002:41:26,11.55,64,0,-1.00,--.--,-11.55,--.--,0,--.--,--.--,--.--,--.--,--.--,--.--,--.--,0,21:01:57,2020-08-01,--.--,--.--,--.--,--.--,--.--,--.--,--.--,0.00,--.--,--.--,true,true,true,true,true,true,false,false,true,true,false,false,0.01,0.00,0.00,0.01,0.00,0.00,0.43,0.20,43.9451643,-78.8968372,17TPJ 68775 67932,0.0,0.0,351.4,3,10,--.--,--.--,--.--,0.0,0.0,0.0,0,0,0,--.--,--.--,--.--
2020-08-01 21:01:58.804,-1.3,-1.2,30,0.3,0.5,-0.2,0.0,1.7,0.6,48.2,98.3,0.0,00:00:23,0.1,308,--.--,--.--,56,0002:41:26,11.53,63,0,-1.00,--.--,-11.53,--.--,0,--.--,--.--,--.--,--.--,--.--,--.--,--.--,0,21:01:58,2020-08-01,--.--,--.--,--.--,--.--,--.--,--.--,--.--,0.00,--.--,--.--,true,true,true,true,true,true,false,false,true,true,false,false,0.01,0.00,0.00,0.01,0.00,0.00,0.43,0.20,43.9451644,-78.8968372,17TPJ 68775 67932,0.0,0.0,314.5,3,10,--.--,--.--,--.--,0.0,0.0,0.0,0,0,0,--.--,--.--,--.--
2020-08-01 21:01:59.805,-1.0,-1.1,30,0.3,-0.0,-0.0,0.0,2.3,0.4,48.7,98.8,0.0,00:00:24,0.0,308,--.--,--.--,56,0002:41:26,11.50,61,0,-1.00,--.--,-11.50,--.--,0,--.--,--.--,--.--,--.--,--.--,--.--,--.--,0,21:01:59,2020-08-01,--.--,--.--,--.--,--.--,--.--,--.--,--.--,0.00,--.--,--.--,true,true,true,true,true,true,false,false,true,true,false,false,0.03,0.01,0.00,0.00,0.00,0.00,0.42,0.20,43.9451644,-78.8968372,17TPJ 68775 67932,0.0,0.0,287.3,3,10,--.--,--.--,--.--,0.0,0.0,0.0,0,0,0,--.--,--.--,--.--
2020-08-01 21:02:00.809,-1.2,-1.1,30,0.3,0.3,-0.2,0.0,-2.5,0.3,49.0,99.1,0.0,00:00:25,0.1,308,--.--,--.--,56,0002:41:26,11.47,59,0,-1.00,--.--,-11.47,--.--,0,--.--,--.--,--.--,--.--,--.--,--.--,--.--,0,21:02:00,2020-08-01,--.--,--.--,--.--,--.--,--.--,--.--,--.--,0.00,--.--,--.--,true,true,true,true,true,true,false,false,true,true,false,false,0.03,0.01,0.00,0.00,0.00,0.00,0.42,0.20,43.9451642,-78.8968372,17TPJ 68775 67932,0.0,0.0,301.5,3,10,--.--,--.--,--.--,0.0,0.0,0.0,0,0,0,--.--,--.--,--.--
2020-08-01 21:02:01.810,-2.8,-1.6,29,-20.0,-5.7,-12.9,0.0,2.8,0.2,49.3,99.4,0.0,00:00:26,0.0,308,--.--,--.--,55,0002:41:26,11.44,58,0,-1.00,--.--,-11.44,--.--,0,--.--,--.--,--.--,--.--,--.--,--.--,--.--,0,21:02:01,2020-08-01,--.--,--.--,--.--,--.--,--.--,--.--,--.--,0.00,--.--,--.--,true,true,true,true,true,true,false,false,true,true,false,false,0.04,0.01,0.00,0.01,0.00,0.00,0.42,0.20,43.9451640,-78.8968372,17TPJ 68775 67932,0.0,0.0,177.6,3,10,--.--,--.--,--.--,0.0,0.0,0.0,0,0,0,--.--,--.--,--.--
2020-08-01 21:02:02.814,-20.8,-22.2,353,-6.3,-7.0,-46.9,1.7,4.1,0.1,49.5,99.6,0.0,00:00:27,0.8,308,--.--,--.--,62,0002:41:26,11.42,56,0,-1.00,--.--,-11.42,--.--,0,--.--,--.--,--.--,--.--,--.--,--.--,--.--,0,21:02:02,2020-08-01,--.--,--.--,--.--,--.--,--.--,--.--,--.--,0.00,--.--,--.--,true,true,true,true,true,true,false,false,true,true,false,false,0.04,0.01,0.00,0.01,0.00,0.00,0.42,0.20,43.9451648,-78.8968392,17TPJ 68775 67932,0.0,0.0,304.0,3,10,--.--,--.--,--.--,0.0,0.0,0.0,0,0,0,--.--,--.--,--.--
2020-08-01 21:02:03.804,-0.1,-34.0,311,-0.3,11.6,-14.9,3.8,4.0,0.0,49.6,99.7,2.0,00:00:28,3.9,308,125,--.--,68,0002:41:26,11.39,54,0,-1.00,--.--,-11.39,--.--,0,--.--,--.--,--.--,--.--,--.--,--.--,--.--,0,21:02:03,2020-08-01,--.--,--.--,--.--,--.--,--.--,--.--,--.--,0.00,--.--,--.--,true,true,true,true,true,true,false,false,true,true,false,false,0.13,0.02,0.00,0.01,0.00,0.00,0.41,0.20,43.9451752,-78.8968639,17TPJ 68773 67933,0.0,0.0,299.3,3,10,--.--,--.--,--.--,0.0,0.0,0.0,0,0,0,--.--,--.--,--.--
2020-08-01 21:02:04.804,3.4,-31.0,306,5.2,0.7,-0.5,4.0,3.5,0.1,49.6,99.7,6.1,00:00:29,7.9,308,124,--.--,67,0002:41:26,11.36,53,0,-1.00,--.--,-11.36,--.--,0,--.--,--.--,--.--,--.--,--.--,--.--,--.--,0,21:02:04,2020-08-01,--.--,--.--,--.--,--.--,--.--,--.--,--.--,0.00,--.--,--.--,true,true,true,true,true,true,false,false,true,true,false,false,0.13,0.02,0.00,0.01,0.00,0.00,0.41,0.20,43.9451935,-78.8969075,17TPJ 68770 67935,0.0,0.0,301.8,3,10,--.--,--.--,--.--,0.0,0.0,0.0,0,0,0,--.--,--.--,--.--
2020-08-01 21:02:05.804,5.3,-31.0,307,2.2,1.4,0.2,3.9,4.4,0.1,49.7,99.7,10.1,00:00:30,11.9,308,124,--.--,68,0002:41:26,11.34,51,0,-1.00,--.--,-11.34,--.--,0,--.--,--.--,--.--,--.--,--.--,--.--,--.--,0,21:02:05,2020-08-01,--.--,--.--,--.--,--.--,--.--,--.--,--.--,0.00,--.--,--.--,true,true,true,true,true,true,false,false,true,true,false,false,0.14,0.05,0.00,0.01,0.00,0.00,0.44,0.21,43.9452141,-78.8969511,17TPJ 68766 67937,0.0,0.0,306.0,3,10,--.--,--.--,--.--,0.0,0.0,0.0,0,0,0,--.--,--.--,--.--
2020-08-01 21:02:06.804,5.1,-31.2,307,0.3,-0.3,0.3,4.0,3.9,0.1,49.7,99.8,14.2,00:00:31,15.9,308,125,--.--,68,0002:41:26,11.33,51,0,-1.00,--.--,-11.33,--.--,0,--.--,--.--,--.--,--.--,--.--,--.--,--.--,0,21:02:06,2020-08-01,--.--,--.--,--.--,--.--,--.--,--.--,--.--,0.00,--.--,--.--,true,true,true,true,true,true,false,false,true,true,false,false,0.14,0.05,0.00,0.01,0.00,0.00,0.44,0.21,43.9452373,-78.8969915,17TPJ 68763 67940,0.0,0.0,310.1,3,10,--.--,--.--,--.--,0.0,0.0,0.0,0,0,0,--.--,--.--,--.--
2020-08-01 21:02:07.804,4.5,-31.4,307,-0.1,0.2,-0.3,4.1,3.9,0.1,49.8,99.9,18.3,00:00:32,20.1,308,126,--.--,68,0002:41:26,11.33,51,0,-1.00,--.--,-11.33,--.--,0,--.--,--.--,--.--,--.--,--.--,--.--,--.--,0,21:02:07,2020-08-01,--.--,--.--,--.--,--.--,--.--,--.--,--.--,0.00,--.--,--.--,true,true,true,true,true,true,false,false,true,true,false,false,0.05,0.04,0.00,0.01,0.00,0.00,0.44,0.21,43.9452625,-78.8970314,17TPJ 68760 67943,0.0,0.0,311.6,3,10,--.--,--.--,--.--,0.0,0.0,0.0,0,0,0,--.--,--.--,--.--
2020-08-01 21:02:08.804,4.1,-31.7,307,-0.0,-0.5,0.2,4.2,4.2,0.0,49.9,99.9,22.4,00:00:33,24.3,308,127,--.--,68,0002:41:26,11.33,51,0,-1.00,--.--,-11.33,--.--,0,--.--,--.--,--.--,--.--,--.--,--.--,--.--,0,21:02:08,2020-08-01,--.--,--.--,--.--,--.--,--.--,--.--,--.--,0.00,--.--,--.--,true,true,true,true,true,true,false,false,true,true,false,false,0.05,0.04,0.00,0.01,0.00,0.00,0.44,0.21,43.9452880,-78.8970716,17TPJ 68756 67945,0.0,0.0,310.6,3,10,--.--,--.--,--.--,0.0,0.0,0.0,0,0,0,--.--,--.--,--.--
2020-08-01 21:02:09.807,3.9,-32.0,307,-0.5,-1.7,0.0,4.3,4.0,-0.0,49.9,100.0,28.6,00:00:34,28.6,308,127,--.--,69,0002:41:26,11.32,51,0,-1.00,--.--,-11.32,--.--,0,--.--,--.--,--.--,--.--,--.--,--.--,--.--,0,21:02:09,2020-08-01,--.--,--.--,--.--,--.--,--.--,--.--,--.--,0.00,--.--,--.--,true,true,true,true,true,true,false,false,true,true,false,false,0.01,0.04,0.00,0.00,0.00,0.00,0.44,0.21,43.9453081,-78.8971044,17TPJ 68754 67947,0.0,0.0,310.2,3,10,--.--,--.--,--.--,0.0,0.0,0.0,0,0,0,--.--,--.--,--.--
2020-08-01 21:02:10.804,3.7,-33.1,307,0.1,-0.7,0.1,4.4,3.3,-0.0,49.9,100.0,32.7,00:00:35,32.9,308,127,--.--,69,0002:41:26,11.32,51,0,-1.00,--.--,-11.32,--.--,0,--.--,--.--,--.--,--.--,--.--,--.--,--.--,0,21:02:10,2020-08-01,--.--,--.--,--.--,--.--,--.--,--.--,--.--,0.00,--.--,--.--,true,true,true,true,true,true,false,false,true,true,false,false,0.01,0.04,0.00,0.00,0.00,0.00,0.44,0.21,43.9453334,-78.8971467,17TPJ 68750 67950,0.0,0.0,309.1,3,10,--.--,--.--,--.--,0.0,0.0,0.0,0,0,0,--.--,--.--,--.--
2020-08-01 21:02:11.809,3.8,-33.5,307,0.6,-0.4,-0.1,4.5,4.3,-0.0,50.0,100.1,36.7,00:00:36,37.3,308,128,--.--,69,0002:41:26,11.32,51,0,-1.00,--.--,-11.32,--.--,0,--.--,--.--,--.--,--.--,--.--,--.--,--.--,0,21:02:11,2020-08-01,--.--,--.--,--.--,--.--,--.--,--.--,--.--,0.00,--.--,--.--,true,true,true,true,true,true,false,false,true,true,false,false,0.03,0.02,0.00,0.02,0.00,0.00,0.42,0.20,43.9453588,-78.8971909,17TPJ 68746 67953,0.0,0.0,308.4,3,10,--.--,--.--,--.--,0.0,0.0,0.0,0,0,0,--.--,--.--,--.--
2020-08-01 21:02:12.804,3.8,-33.5,307,0.7,-0.3,0.0,4.5,4.6,-0.0,50.0,100.1,40.9,00:00:37,41.9,308,128,--.--,70,0002:41:26,11.32,51,0,-1.00,--.--,-11.32,--.--,0,--.--,--.--,--.--,--.--,--.--,--.--,--.--,0,21:02:12,2020-08-01,--.--,--.--,--.--,--.--,--.--,--.--,--.--,0.00,--.--,--.--,true,true,true,true,true,true,false,false,true,true,false,false,0.03,0.02,0.00,0.02,0.00,0.00,0.42,0.20,43.9453846,-78.8972363,17TPJ 68743 67956,0.0,0.0,308.0,3,10,--.--,--.--,--.--,0.0,0.0,0.0,0,0,0,--.--,--.--,--.--
2020-08-01 21:02:13.804,3.8,-33.7,307,-0.0,0.6,0.0,4.5,3.9,-0.0,50.0,100.1,45.0,00:00:38,46.5,308,128,--.--,70,0002:41:26,11.32,51,0,-1.00,--.--,-11.32,--.--,0,--.--,--.--,--.--,--.--,--.--,--.--,--.--,0,21:02:13,2020-08-01,--.--,--.--,--.--,--.--,--.--,--.--,--.--,0.00,--.--,--.--,true,true,true,true,true,true,false,false,true,true,false,false,0.01,0.03,0.01,0.01,0.00,0.00,0.42,0.20,43.9454105,-78.8972822,17TPJ 68739 67958,0.0,0.0,308.1,3,10,--.--,--.--,--.--,0.0,0.0,0.0,0,0,0,--.--,--.--,--.--
2020-08-01 21:02:14.804,3.7,-33.8,307,-0.1,-0.5,0.3,4.6,5.2,-0.0,50.0,100.1,51.1,00:00:39,51.2,308,128,--.--,70,0002:41:26,11.32,51,0,-1.00,--.--,-11.32,--.--,0,--.--,--.--,--.--,--.--,--.--,--.--,--.--,0,21:02:14,2020-08-01,--.--,--.--,--.--,--.--,--.--,--.--,--.--,0.00,--.--,--.--,true,true,true,true,true,true,false,false,true,true,false,false,0.01,0.03,0.01,0.01,0.00,0.00,0.42,0.20,43.9454365,-78.8973282,17TPJ 68735 67961,0.0,0.0,308.3,3,10,--.--,--.--,--.--,0.0,0.0,0.0,0,0,0,--.--,--.--,--.--
2020-08-01 21:02:15.804,3.7,-34.6,307,0.3,-0.4,0.1,4.6,4.7,-0.0,50.0,100.1,55.2,00:00:40,55.8,308,128,--.--,70,0002:41:26,11.32,51,0,-1.00,--.--,-11.32,--.--,0,--.--,--.--,--.--,--.--,--.--,--.--,--.--,0,21:02:15,2020-08-01,--.--,--.--,--.--,--.--,--.--,--.--,--.--,0.00,--.--,--.--,true,true,true,true,true,true,false,false,true,true,false,false,0.01,0.02,0.01,0.00,0.00,0.00,0.44,0.20,43.9454627,-78.8973747,17TPJ 68731 67964,0.0,0.0,307.6,3,10,--.--,--.--,--.--,0.0,0.0,0.0,0,0,0,--.--,--.--,--.--
2020-08-01 21:02:16.804,3.9,-34.6,307,0.1,0.4,-0.1,4.7,4.3,-0.0,50.0,100.1,59.3,00:00:41,60.4,308,128,--.--,71,0002:41:26,11.32,51,0,-1.00,--.--,-11.32,--.--,0,--.--,--.--,--.--,--.--,--.--,--.--,--.--,0,21:02:16,2020-08-01,--.--,--.--,--.--,--.--,--.--,--.--,--.--,0.00,--.--,--.--,true,true,true,true,true,true,false,false,true,true,false,false,0.01,0.02,0.01,0.00,0.00,0.00,0.44,0.20,43.9454892,-78.8974222,17TPJ 68728 67967,0.0,0.0,307.7,3,10,--.--,--.--,--.--,0.0,0.0,0.0,0,0,0,--.--,--.--,--.--
2020-08-01 21:02:17.806,3.9,-34.6,307,0.3,0.7,-0.3,4.7,3.4,-0.0,50.0,100.1,63.4,00:00:42,65.2,308,128,--.--,71,0002:41:26,11.32,51,0,-1.00,--.--,-11.32,--.--,0,--.--,--.--,--.--,--.--,--.--,--.--,--.--,0,21:02:17,2020-08-01,--.--,--.--,--.--,--.--,--.--,--.--,--.--,0.00,--.--,--.--,true,true,true,true,true,true,false,false,true,true,false,false,0.02,0.02,0.00,0.00,0.00,0.00,0.43,0.20,43.9455159,-78.8974701,17TPJ 68724 67970,0.0,0.0,307.5,3,10,--.--,--.--,--.--,0.0,0.0,0.0,0,0,0,--.--,--.--,--.--
2020-08-01 21:02:18.804,3.9,-34.6,307,0.1,-0.5,0.1,4.7,-2.0,-0.0,50.0,100.1,69.6,00:00:43,70.0,308,128,--.--,71,0002:41:26,11.32,51,0,-1.00,--.--,-11.32,--.--,0,--.--,--.--,--.--,--.--,--.--,--.--,--.--,0,21:02:18,2020-08-01,--.--,--.--,--.--,--.--,--.--,--.--,--.--,0.00,--.--,--.--,true,true,true,true,true,true,false,false,true,true,false,false,0.02,0.02,0.00,0.00,0.00,0.00,0.43,0.20,43.9455427,-78.8975180,17TPJ 68720 67973,0.0,0.0,307.7,3,10,--.--,--.--,--.--,0.0,0.0,0.0,0,0,0,--.--,--.--,--.--
2020-08-01 21:02:19.804,3.9,-34.7,307,0.5,-0.7,-0.0,4.7,5.2,-0.0,50.0,100.1,73.7,00:00:44,74.9,308,128,--.--,71,0002:41:26,11.32,51,0,-1.00,--.--,-11.32,--.--,0,--.--,--.--,--.--,--.--,--.--,--.--,--.--,0,21:02:19,2020-08-01,--.--,--.--,--.--,--.--,--.--,--.--,--.--,0.00,--.--,--.--,true,true,true,true,true,true,false,false,true,true,false,false,0.01,0.04,0.01,0.03,0.00,0.00,0.43,0.20,43.9455697,-78.8975661,17TPJ 68716 67976,0.0,0.0,307.7,3,10,--.--,--.--,--.--,0.0,0.0,0.0,0,0,0,--.--,--.--,--.--
2020-08-01 21:02:20.804,4.0,-35.2,307,0.3,-0.6,-0.1,4.8,4.0,-0.0,50.0,100.1,77.7,00:00:45,79.6,308,128,--.--,71,0002:41:26,11.32,51,0,-1.00,--.--,-11.32,--.--,0,--.--,--.--,--.--,--.--,--.--,--.--,--.--,0,21:02:20,2020-08-01,--.--,--.--,--.--,--.--,--.--,--.--,--.--,0.00,--.--,--.--,true,true,true,true,true,true,false,false,true,true,false,false,0.01,0.04,0.01,0.03,0.00,0.00,0.43,0.20,43.9455910,-78.8976043,17TPJ 68713 67978,0.0,0.0,307.8,3,10,--.--,--.--,--.--,0.0,0.0,0.0,0,0,0,--.--,--.--,--.--
2020-08-01 21:02:21.804,4.0,-35.3,307,-0.0,-0.5,0.0,4.8,4.4,-0.0,50.0,100.1,83.8,00:00:46,84.4,308,128,--.--,71,0002:41:26,11.32,51,0,-1.00,--.--,-11.32,--.--,0,--.--,--.--,--.--,--.--,--.--,--.--,--.--,0,21:02:21,2020-08-01,--.--,--.--,--.--,--.--,--.--,--.--,--.--,0.00,--.--,--.--,true,true,true,true,true,true,false,false,true,true,false,false,0.02,0.01,0.00,0.02,0.00,0.00,0.42,0.20,43.9456182,-78.8976527,17TPJ 68709 67981,0.0,0.0,308.0,3,10,--.--,--.--,--.--,0.0,0.0,0.0,0,0,0,--.--,--.--,--.--
2020-08-01 21:02:22.804,4.1,-35.2,307,-0.5,0.6,0.0,4.8,5.1,-0.0,50.0,100.1,87.8,00:00:47,89.2,308,128,--.--,71,0002:41:26,11.32,51,0,-1.00,--.--,-11.32,--.--,0,--.--,--.--,--.--,--.--,--.--,--.--,--.--,0,21:02:22,2020-08-01,--.--,--.--,--.--,--.--,--.--,--.--,--.--,0.00,--.--,--.--,true,true,true,true,true,true,false,false,true,true,false,false,0.02,0.01,0.00,0.02,0.00,0.00,0.42,0.20,43.9456455,-78.8977016,17TPJ 68705 67984,0.0,0.0,308.2,3,10,--.--,--.--,--.--,0.0,0.0,0.0,0,0,0,--.--,--.--,--.--
2020-08-01 21:02:23.804,4.1,-35.2,307,0.1,0.5,-0.0,4.8,3.2,-0.0,50.0,100.1,94.0,00:00:48,94.1,308,128,--.--,71,0002:41:26,11.32,51,0,-1.00,--.--,-11.32,--.--,0,--.--,--.--,--.--,--.--,--.--,--.--,--.--,0,21:02:23,2020-08-01,--.--,--.--,--.--,--.--,--.--,--.--,--.--,0.00,--.--,--.--,true,true,true,true,true,true,false,false,true,true,false,false,0.02,0.03,0.00,0.00,0.00,0.00,0.41,0.20,43.9456729,-78.8977504,17TPJ 68701 67987,0.0,0.0,308.1,3,10,--.--,--.--,--.--,0.0,0.0,0.0,0,0,0,--.--,--.--,--.--
2020-08-01 21:02:24.804,4.0,-35.2,307,-0.2,0.0,0.1,4.8,2.7,-0.0,50.0,100.1,98.1,00:00:49,99.0,308,128,--.--,71,0002:41:26,11.32,51,0,-1.00,--.--,-11.32,--.--,0,--.--,--.--,--.--,--.--,--.--,--.--,--.--,0,21:02:24,2020-08-01,--.--,--.--,--.--,--.--,--.--,--.--,--.--,0.00,--.--,--.--,true,true,true,true,true,true,false,false,true,true,false,false,0.02,0.03,0.00,0.00,0.00,0.00,0.41,0.20,43.9457006,-78.8977994,17TPJ 68697 67990,0.0,0.0,308.1,3,10,--.--,--.--,--.--,0.0,0.0,0.0,0,0,0,--.--,--.--,--.--
2020-08-01 21:02:25.805,4.1,-35.7,307,0.4,0.5,-0.2,4.9,2.8,-0.0,50.0,100.1,102.4,00:00:50,103.8,308,128,--.--,71,0002:41:26,11.32,51,0,-1.00,--.--,-11.32,--.--,0,--.--,--.--,--.--,--.--,--.--,--.--,--.--,0,21:02:25,2020-08-01,--.--,--.--,--.--,--.--,--.--,--.--,--.--,0.00,--.--,--.--,true,true,true,true,true,true,false,false,true,true,false,false,0.02,0.04,0.00,0.00,0.00,0.00,0.43,0.20,43.9457281,-78.8978482,17TPJ 68693 67993,0.0,0.0,308.1,3,10,--.--,--.--,--.--,0.0,0.0,0.0,0,0,0,--.--,--.--,--.--
2020-08-01 21:02:26.804,4.0,-35.3,307,-0.3,0.4,0.2,4.9,4.5,-0.0,50.0,100.1,108.6,00:00:51,108.8,308,128,--.--,71,0002:41:26,11.32,51,0,-1.00,--.--,-11.32,--.--,0,--.--,--.--,--.--,--.--,--.--,--.--,--.--,0,21:02:26,2020-08-01,--.--,--.--,--.--,--.--,--.--,--.--,--.--,0.00,--.--,--.--,true,true,true,true,true,true,false,false,true,true,false,false,0.02,0.04,0.00,0.00,0.00,0.00,0.43,0.20,43.9457557,-78.8978974,17TPJ 68689 67996,0.0,0.0,307.9,3,10,--.--,--.--,--.--,0.0,0.0,0.0,0,0,0,--.--,--.--,--.--
2020-08-01 21:02:27.804,3.9,-35.4,307,0.1,0.1,-0.2,4.9,5.0,-0.0,50.0,100.1,112.8,00:00:52,113.8,308,128,--.--,71,0002:41:26,11.32,51,0,-1.00,--.--,-11.32,--.--,0,--.--,--.--,--.--,--.--,--.--,--.--,--.--,0,21:02:27,2020-08-01,--.--,--.--,--.--,--.--,--.--,--.--,--.--,0.00,--.--,--.--,true,true,true,true,true,true,false,false,true,true,false,false,0.02,0.03,0.00,0.01,0.00,0.00,0.43,0.20,43.9457834,-78.8979470,17TPJ 68685 67999,0.0,0.0,307.9,3,10,--.--,--.--,--.--,0.0,0.0,0.0,0,0,0,--.--,--.--,--.--
2020-08-01 21:02:28.804,4.0,-35.8,307,0.0,-0.4,-0.2,4.9,3.5,-0.0,50.0,100.1,116.9,00:00:53,118.6,308,128,--.--,71,0002:41:26,11.32,51,0,-1.00,--.--,-11.32,--.--,0,--.--,--.--,--.--,--.--,--.--,--.--,--.--,0,21:02:28,2020-08-01,--.--,--.--,--.--,--.--,--.--,--.--,--.--,0.00,--.--,--.--,true,true,true,true,true,true,false,false,true,true,false,false,0.02,0.03,0.00,0.01,0.00,0.00,0.43,0.20,43.9458052,-78.8979862,17TPJ 68681 68001,0.0,0.0,307.6,3,10,--.--,--.--,--.--,0.0,0.0,0.0,0,0,0,--.--,--.--,--.--
2020-08-01 21:02:29.804,4.1,-35.7,307,-0.3,-0.5,-0.1,4.9,-1.4,-0.0,50.0,100.1,123.1,00:00:54,123.5,308,128,--.--,72,0002:41:26,11.32,51,0,-1.00,--.--,-11.32,--.--,0,--.--,--.--,--.--,--.--,--.--,--.--,--.--,0,21:02:29,2020-08-01,--.--,--.--,--.--,--.--,--.--,--.--,--.--,0.00,--.--,--.--,true,true,true,true,true,true,false,false,true,true,false,false,0.02,0.01,0.00,0.01,0.00,0.00,0.42,0.20,43.9458327,-78.8980362,17TPJ 68677 68004,0.0,0.0,307.5,3,10,--.--,--.--,--.--,0.0,0.0,0.0,0,0,0,--.--,--.--,--.--
2020-08-01 21:02:30.804,4.1,-35.6,307,-0.2,-0.0,0.0,4.9,5.5,-0.0,50.0,100.1,127.2,00:00:55,128.4,308,128,--.--,72,0002:41:26,11.32,51,0,-1.00,--.--,-11.32,--.--,0,--.--,--.--,--.--,--.--,--.--,--.--,--.--,0,21:02:30,2020-08-01,--.--,--.--,--.--,--.--,--.--,--.--,--.--,0.00,--.--,--.--,true,true,true,true,true,true,false,false,true,true,false,false,0.02,0.01,0.00,0.01,0.00,0.00,0.42,0.20,43.9458604,-78.8980861,17TPJ 68673 68007,0.0,0.0,307.7,3,10,--.--,--.--,--.--,0.0,0.0,0.0,0,0,0,--.--,--.--,--.--
2020-08-01 21:02:31.804,4.2,-35.6,307,0.2,0.3,0.1,4.9,4.1,0.0,50.0,100.1,133.3,00:00:56,133.4,308,128,--.--,72,0002:41:26,11.32,51,0,-1.00,--.--,-11.32,--.--,0,--.--,--.--,--.--,--.--,--.--,--.--,--.--,0,21:02:31,2020-08-01,--.--,--.--,--.--,--.--,--.--,--.--,--.--,0.00,--.--,--.--,true,true,true,true,true,true,false,false,true,true,false,false,0.00,0.02,0.01,0.02,0.00,0.00,0.42,0.20,43.9458882,-78.8981364,17TPJ 68669 68010,0.0,0.0,307.3,3,10,--.--,--.--,--.--,0.0,0.0,0.0,0,0,0,--.--,--.--,--.--
2020-08-01 21:02:32.806,4.2,-35.5,307,0.3,0.3,-0.1,5.0,0.3,0.0,50.0,100.1,137.3,00:00:57,138.4,308,128,--.--,72,0002:41:26,11.32,51,0,-1.00,--.--,-11.32,--.--,0,--.--,--.--,--.--,--.--,--.--,--.--,--.--,0,21:02:32,2020-08-01,--.--,--.--,--.--,--.--,--.--,--.--,--.--,0.00,--.--,--.--,true,true,true,true,true,true,false,false,true,true,false,false,0.00,0.02,0.01,0.02,0.00,0.00,0.42,0.20,43.9459158,-78.8981862,17TPJ 68665 68013,0.0,0.0,307.6,3,10,--.--,--.--,--.--,0.0,0.0,0.0,0,0,0,--.--,--.--,--.--
2020-08-01 21:02:33.804,4.3,-35.6,307,-0.5,-1.0,-0.0,5.0,3.0,0.0,50.0,100.1,141.5,00:00:58,143.4,308,128,--.--,71,0002:41:26,11.32,51,0,-1.00,--.--,-11.32,--.--,0,--.--,--.--,--.--,--.--,--.--,--.--,--.--,0,21:02:33,2020-08-01,--.--,--.--,--.--,--.--,--.--,--.--,--.--,0.00,--.--,--.--,true,true,true,true,true,true,false,false,true,true,false,false,0.02,0.03,0.00,0.01,0.00,0.00,0.44,0.20,43.9459434,-78.8982362,17TPJ 68661 68016,0.0,0.0,307.8,3,10,--.--,--.--,--.--,0.0,0.0,0.0,0,0,0,--.--,--.--,--.--
2020-08-01 21:02:34.804,4.4,-36.1,307,0.2,0.9,0.0,5.0,5.5,0.0,50.0,100.1,147.6,00:00:59,148.3,308,128,--.--,72,0002:41:26,11.32,51,0,-1.00,--.--,-11.32,--.--,0,--.--,--.--,--.--,--.--,--.--,--.--,--.--,0,21:02:34,2020-08-01,--.--,--.--,--.--,--.--,--.--,--.--,--.--,0.00,--.--,--.--,true,true,true,true,true,true,false,false,true,true,false,false,0.02,0.03,0.00,0.01,0.00,0.00,0.44,0.20,43.9459713,-78.8982863,17TPJ 68657 68019,0.0,0.0,307.5,3,10,--.--,--.--,--.--,0.0,0.0,0.0,0,0,0,--.--,--.--,--.--
2020-08-01 21:02:35.804,4.5,-36.0,307,0.4,-1.1,0.1,5.0,2.4,0.0,50.0,100.1,151.7,00:01:00,153.2,308,128,--.--,72,0002:41:26,11.32,51,0,-1.00,--.--,-11.32,--.--,0,--.--,--.--,--.--,--.--,--.--,--.--,--.--,0,21:02:35,2020-08-01,--.--,--.--,--.--,--.--,--.--,--.--,--.--,0.00,--.--,--.--,true,true,true,true,true,true,false,false,true,true,false,false,0.01,0.01,0.01,0.01,0.00,0.00,0.43,0.20,43.9459993,-78.8983367,17TPJ 68653 68022,0.0,0.0,307.7,3,10,--.--,--.--,--.--,0.0,0.0,0.0,0,0,0,--.--,--.--,--.--
2020-08-01 21:02:36.804,4.4,-35.8,307,-0.2,0.2,0.1,5.0,2.0,0.0,50.0,100.1,157.8,00:01:01,158.3,308,128,--.--,72,0002:41:26,11.32,51,0,-1.00,--.--,-11.32,--.--,0,--.--,--.--,--.--,--.--,--.--,--.--,--.--,0,21:02:36,2020-08-01,--.--,--.--,--.--,--.--,--.--,--.--,--.--,0.00,--.--,--.--,true,true,true,true,true,true,false,false,true,true,false,false,0.01,0.01,0.01,0.01,0.00,0.00,0.43,0.20,43.9460276,-78.8983873,17TPJ 68649 68025,0.0,0.0,307.8,3,10,--.--,--.--,--.--,0.0,0.0,0.0,0,0,0,--.--,--.--,--.--
2020-08-01 21:02:37.804,4.3,-35.7,307,0.0,0.9,-0.4,5.0,3.2,0.0,50.0,100.1,161.9,00:01:02,163.3,308,128,--.--,72,0002:41:26,11.32,51,0,-1.00,--.--,-11.32,--.--,0,--.--,--.--,--.--,--.--,--.--,--.--,--.--,0,21:02:37,2020-08-01,--.--,--.--,--.--,--.--,--.--,--.--,--.--,0.00,--.--,--.--,true,true,true,true,true,true,false,false,true,true,false,false,0.01,0.03,0.01,0.02,0.00,0.00,0.43,0.20,43.9460556,-78.8984376,17TPJ 68644 68028,0.0,0.0,308.0,3,10,--.--,--.--,--.--,0.0,0.0,0.0,0,0,0,--.--,--.--,--.--
2020-08-01 21:02:38.805,4.3,-35.7,307,0.2,-1.7,-0.0,4.9,3.8,0.0,50.0,100.1,168.1,00:01:03,168.2,308,128,--.--,72,0002:41:26,11.32,51,0,-1.00,--.--,-11.32,--.--,0,--.--,--.--,--.--,--.--,--.--,--.--,--.--,0,21:02:38,2020-08-01,--.--,--.--,--.--,--.--,--.--,--.--,--.--,0.00,--.--,--.--,true,true,true,true,true,true,false,false,true,true,false,false,0.01,0.03,0.01,0.02,0.00,0.00,0.43,0.20,43.9460781,-78.8984780,17TPJ 68641 68030,0.0,0.0,307.4,3,10,--.--,--.--,--.--,0.0,0.0,0.0,0,0,0,--.--,--.--,--.--
2020-08-01 21:02:39.804,4.3,-36.3,307,0.2,0.5,0.3,5.0,4.1,0.0,50.0,100.1,172.1,00:01:04,173.1,308,128,--.--,72,0002:41:26,11.32,51,0,-1.00,--.--,-11.32,--.--,0,--.--,--.--,--.--,--.--,--.--,--.--,--.--,0,21:02:39,2020-08-01,--.--,--.--,--.--,--.--,--.--,--.--,--.--,0.00,--.--,--.--,true,true,true,true,true,true,false,false,true,true,false,false,0.01,0.01,0.00,0.01,0.00,0.00,0.42,0.20,43.9461057,-78.8985280,17TPJ 68637 68033,0.0,0.0,307.4,3,10,--.--,--.--,--.--,0.0,0.0,0.0,0,0,0,--.--,--.--,--.--
2020-08-01 21:02:40.804,4.5,-36.0,307,-0.2,-0.1,-0.2,5.0,4.9,0.0,50.0,100.1,176.3,00:01:05,178.1,308,128,--.--,72,0002:41:26,11.32,51,0,-1.00,--.--,-11.32,--.--,0,--.--,--.--,--.--,--.--,--.--,--.--,--.--,0,21:02:40,2020-08-01,--.--,--.--,--.--,--.--,--.--,--.--,--.--,0.00,--.--,--.--,true,true,true,true,true,true,false,false,true,true,false,false,0.01,0.01,0.00,0.01,0.00,0.00,0.42,0.20,43.9461337,-78.8985792,17TPJ 68633 68036,0.0,0.0,307.2,3,10,--.--,--.--,--.--,0.0,0.0,0.0,0,0,0,--.--,--.--,--.--
2020-08-01 21:02:41.804,4.6,-35.9,307,0.4,-0.2,0.1,5.0,2.8,-0.0,50.0,100.1,182.3,00:01:06,183.2,308,128,--.--,72,0002:41:26,11.32,51,0,-1.00,--.--,-11.32,--.--,0,--.--,--.--,--.--,--.--,--.--,--.--,--.--,0,21:02:41,2020-08-01,--.--,--.--,--.--,--.--,--.--,--.--,--.--,0.00,--.--,--.--,true,true,true,true,true,true,false,false,true,true,false,false,0.02,0.02,0.00,0.00,0.00,0.00,0.42,0.20,43.9461617,-78.8986298,17TPJ 68629 68039,0.0,0.0,307.6,3,10,--.--,--.--,--.--,0.0,0.0,0.0,0,0,0,--.--,--.--,--.--
2020-08-01 21:02:42.804,4.6,-35.6,307,0.2,0.4,-0.1,5.0,5.0,-0.0,50.0,100.1,186.4,00:01:07,188.2,308,128,--.--,72,0002:41:26,11.32,51,0,-1.00,--.--,-11.32,--.--,0,--.--,--.--,--.--,--.--,--.--,--.--,--.--,0,21:02:42,2020-08-01,--.--,--.--,--.--,--.--,--.--,--.--,--.--,0.00,--.--,--.--,true,true,true,true,true,true,false,false,true,true,false,false,0.02,0.02,0.00,0.00,0.00,0.00,0.42,0.20,43.9461900,-78.8986804,17TPJ 68625 68042,0.0,0.0,308.1,3,10,--.--,--.--,--.--,0.0,0.0,0.0,0,0,0,--.--,--.--,--.--
2020-08-01 21:02:43.808,4.5,-35.5,307,-0.5,-1.6,0.3,4.9,4.0,-0.0,50.0,100.1,192.4,00:01:08,193.3,308,128,--.--,71,0002:41:26,11.32,51,0,-1.00,--.--,-11.32,--.--,0,--.--,--.--,--.--,--.--,--.--,--.--,--.--,0,21:02:43,2020-08-01,--.--,--.--,--.--,--.--,--.--,--.--,--.--,0.00,--.--,--.--,true,true,true,true,true,true,false,false,true,true,false,false,0.01,0.04,0.00,0.00,0.00,0.00,0.44,0.20,43.9462180,-78.8987298,17TPJ 68621 68045,0.0,0.0,308.2,3,10,--.--,--.--,--.--,0.0,0.0,0.0,0,0,0,--.--,--.--,--.--
2020-08-01 21:02:44.804,4.5,-36.4,307,0.0,-0.1,0.3,5.0,4.3,-0.0,50.0,100.1,196.5,00:01:09,198.1,308,128,--.--,72,0002:41:26,11.32,51,0,-1.00,--.--,-11.32,--.--,0,--.--,--.--,--.--,--.--,--.--,--.--,--.--,0,21:02:44,2020-08-01,--.--,--.--,--.--,--.--,--.--,--.--,--.--,0.00,--.--,--.--,true,true,true,true,true,true,false,false,true,true,false,false,0.01,0.04,0.00,0.00,0.00,0.00,0.44,0.20,43.9462460,-78.8987796,17TPJ 68616 68048,0.0,0.0,307.7,3,10,--.--,--.--,--.--,0.0,0.0,0.0,0,0,0,--.--,--.--,--.--
2020-08-01 21:02:45.804,4.4,-36.3,307,-0.4,1.0,0.1,5.0,3.9,-0.0,50.0,100.1,202.6,00:01:10,203.1,308,128,--.--,72,0002:41:26,11.32,51,0,-1.00,--.--,-11.32,--.--,0,--.--,--.--,--.--,--.--,--.--,--.--,--.--,0,21:02:45,2020-08-01,--.--,--.--,--.--,--.--,--.--,--.--,--.--,0.00,--.--,--.--,true,true,true,true,true,true,false,false,true,true,false,false,0.01,0.00,0.00,0.00,0.00,0.00,0.43,0.20,43.9462741,-78.8988299,17TPJ 68612 68051,0.0,0.0,307.9,3,10,--.--,--.--,--.--,0.0,0.0,0.0,0,0,0,--.--,--.--,--.--
2020-08-01 21:02:46.806,4.6,-36.0,307,0.5,0.7,0.1,5.0,4.5,-0.0,50.0,100.1,206.7,00:01:11,208.2,308,128,--.--,72,0002:41:26,11.32,51,0,-1.00,--.--,-11.32,--.--,0,--.--,--.--,--.--,--.--,--.--,--.--,--.--,0,21:02:46,2020-08-01,--.--,--.--,--.--,--.--,--.--,--.--,--.--,0.00,--.--,--.--,true,true,true,true,true,true,false,false,true,true,false,false,0.01,0.00,0.00,0.00,0.00,0.00,0.43,0.20,43.9463025,-78.8988810,17TPJ 68608 68054,0.0,0.0,307.4,3,10,--.--,--.--,--.--,0.0,0.0,0.0,0,0,0,--.--,--.--,--.--
2020-08-01 21:02:47.804,4.6,-35.8,307,0.2,-0.1,-0.0,5.0,3.9,-0.0,50.0,100.1,212.7,00:01:12,213.2,308,128,--.--,72,0002:41:26,11.32,51,0,-1.00,--.--,-11.32,--.--,0,--.--,--.--,--.--,--.--,--.--,--.--,--.--,0,21:02:47,2020-08-01,--.--,--.--,--.--,--.--,--.--,--.--,--.--,0.00,--.--,--.--,true,true,true,true,true,true,false,false,true,true,false,false,0.01,0.03,0.00,0.00,0.00,0.00,0.43,0.20,43.9463308,-78.8989316,17TPJ 68604 68057,0.0,0.0,308.2,3,10,--.--,--.--,--.--,0.0,0.0,0.0,0,0,0,--.--,--.--,--.--
2020-08-01 21:02:48.805,4.5,-35.6,307,-0.1,-0.3,0.0,5.0,4.6,-0.0,50.0,100.1,216.8,00:01:13,218.2,308,128,--.--,71,0002:41:26,11.32,51,0,-1.00,--.--,-11.32,--.--,0,--.--,--.--,--.--,--.--,--.--,--.--,--.--,0,21:02:48,2020-08-01,--.--,--.--,--.--,--.--,--.--,--.--,--.--,0.00,--.--,--.--,true,true,true,true,true,true,false,false,true,true,false,false,0.01,0.03,0.00,0.00,0.00,0.00,0.43,0.20,43.9463588,-78.8989813,17TPJ 68600 68060,0.0,0.0,308.1,3,10,--.--,--.--,--.--,0.0,0.0,0.0,0,0,0,--.--,--.--,--.--
2020-08-01 21:02:49.804,4.5,-36.3,307,0.1,0.1,0.1,5.0,3.1,-0.0,50.0,100.1,222.9,00:01:14,223.2,308,128,--.--,72,0002:41:26,11.32,51,0,-1.00,--.--,-11.32,--.--,0,--.--,--.--,--.--,--.--,--.--,--.--,--.--,0,21:02:49,2020-08-01,--.--,--.--,--.--,--.--,--.--,--.--,--.--,0.00,--.--,--.--,true,true,true,true,true,true,false,false,true,true,false,false,0.01,0.02,0.01,0.01,0.00,0.00,0.42,0.20,43.9463811,-78.8990209,17TPJ 68597 68063,0.0,0.0,307.9,3,10,--.--,--.--,--.--,0.0,0.0,0.0,0,0,0,--.--,--.--,--.--
2020-08-01 21:02:50.804,4.6,-36.4,307,0.3,0.1,-0.1,5.0,3.8,-0.0,50.0,100.1,227.0,00:01:15,228.1,308,128,--.--,72,0002:41:26,11.32,51,0,-1.00,--.--,-11.32,--.--,0,--.--,--.--,--.--,--.--,--.--,--.--,--.--,0,21:02:50,2020-08-01,--.--,--.--,--.--,--.--,--.--,--.--,--.--,0.00,--.--,--.--,true,true,true,true,true,true,false,false,true,true,false,false,0.01,0.02,0.01,0.01,0.00,0.00,0.42,0.20,43.9464093,-78.8990713,17TPJ 68593 68066,0.0,0.0,307.7,3,10,--.--,--.--,--.--,0.0,0.0,0.0,0,0,0,--.--,--.--,--.--
2020-08-01 21:02:51.804,4.7,-36.1,307,0.3,0.2,-0.1,5.0,2.8,-0.0,50.0,100.1,233.1,00:01:16,233.1,308,128,--.--,72,0002:41:26,11.32,51,0,-1.00,--.--,-11.32,--.--,0,--.--,--.--,--.--,--.--,--.--,--.--,--.--,0,21:02:51,2020-08-01,--.--,--.--,--.--,--.--,--.--,--.--,--.--,0.00,--.--,--.--,true,true,true,true,true,true,false,false,true,true,false,false,0.01,0.02,0.00,0.00,0.00,0.00,0.42,0.20,43.9464375,-78.8991219,17TPJ 68588 68069,0.0,0.0,307.9,3,10,--.--,--.--,--.--,0.0,0.0,0.0,0,0,0,--.--,--.--,--.--
2020-08-01 21:02:52.804,4.6,-35.8,307,-1.0,-0.9,0.2,5.0,0.3,-0.0,50.0,100.1,237.1,00:01:17,238.1,308,128,--.--,71,0002:41:26,11.32,51,0,-1.00,--.--,-11.32,--.--,0,--.--,--.--,--.--,--.--,--.--,--.--,--.--,0,21:02:52,2020-08-01,--.--,--.--,--.--,--.--,--.--,--.--,--.--,0.00,--.--,--.--,true,true,true,true,true,true,false,false,true,true,false,false,0.01,0.02,0.00,0.00,0.00,0.00,0.42,0.20,43.9464660,-78.8991722,17TPJ 68584 68072,0.0,0.0,308.2,3,10,--.--,--.--,--.--,0.0,0.0,0.0,0,0,0,--.--,--.--,--.--
2020-08-01 21:02:53.804,4.6,-35.6,307,-0.2,-0.0,-0.2,5.0,5.2,-0.0,50.0,100.1,243.2,00:01:18,243.2,308,128,--.--,71,0002:41:26,11.32,51,0,-1.00,--.--,-11.32,--.--,0,--.--,--.--,--.--,--.--,--.--,--.--,--.--,0,21:02:53,2020-08-01,--.--,--.--,--.--,--.--,--.--,--.--,--.--,0.00,--.--,--.--,true,true,true,true,true,true,false,false,true,true,false,false,0.03,0.03,0.00,0.00,0.00,0.00,0.42,0.20,43.9464943,-78.8992222,17TPJ 68580 68075,0.0,0.0,308.2,3,10,--.--,--.--,--.--,0.0,0.0,0.0,0,0,0,--.--,--.--,--.--
2020-08-01 21:02:54.804,4.6,-36.3,307,0.3,-0.7,-0.2,5.0,5.2,0.0,50.0,100.1,247.3,00:01:19,248.0,308,128,--.--,72,0002:41:26,11.32,51,0,-1.00,--.--,-11.32,--.--,0,--.--,--.--,--.--,--.--,--.--,--.--,--.--,0,21:02:54,2020-08-01,--.--,--.--,--.--,--.--,--.--,--.--,--.--,0.00,--.--,--.--,true,true,true,true,true,true,false,false,true,true,false,false,0.03,0.03,0.00,0.00,0.00,0.00,0.42,0.20,43.9465221,-78.8992714,17TPJ 68576 68078,0.0,0.0,308.0,3,10,--.--,--.--,--.--,0.0,0.0,0.0,0,0,0,--.--,--.--,--.--
2020-08-01 21:02:55.804,4.5,-36.5,307,0.3,0.6,-0.3,5.0,4.3,0.0,50.0,100.1,251.4,00:01:20,253.0,308,128,--.--,72,0002:41:26,11.32,51,0,-1.00,--.--,-11.32,--.--,0,--.--,--.--,--.--,--.--,--.--,--.--,--.--,0,21:02:55,2020-08-01,--.--,--.--,--.--,--.--,--.--,--.--,--.--,0.00,--.--,--.--,true,true,true,true,true,true,false,false,true,true,false,false,0.02,0.01,0.00,0.01,0.00,0.00,0.43,0.20,43.9465504,-78.8993217,17TPJ 68572 68081,0.0,0.0,307.8,3,10,--.--,--.--,--.--,0.0,0.0,0.0,0,0,0,--.--,--.--,--.--
2020-08-01 21:02:56.804,4.6,-36.2,307,-0.1,0.5,-0.2,5.0,5.5,0.0,50.0,100.1,257.7,00:01:21,258.0,308,128,--.--,72,0002:41:26,11.32,51,0,-1.00,--.--,-11.32,--.--,0,--.--,--.--,--.--,--.--,--.--,--.--,--.--,0,21:02:56,2020-08-01,--.--,--.--,--.--,--.--,--.--,--.--,--.--,0.00,--.--,--.--,true,true,true,true,true,true,false,false,true,true,false,false,0.02,0.01,0.00,0.01,0.00,0.00,0.43,0.20,43.9465786,-78.8993726,17TPJ 68568 68084,0.0,0.0,307.8,3,10,--.--,--.--,--.--,0.0,0.0,0.0,0,0,0,--.--,--.--,--.--
2020-08-01 21:02:57.804,4.5,-35.9,307,-0.2,0.9,0.3,5.0,3.9,0.0,50.0,100.1,261.7,00:01:22,263.1,308,128,--.--,72,0002:41:26,11.32,51,0,-1.00,--.--,-11.32,--.--,0,--.--,--.--,--.--,--.--,--.--,--.--,--.--,0,21:02:57,2020-08-01,--.--,--.--,--.--,--.--,--.--,--.--,--.--,0.00,--.--,--.--,true,true,true,true,true,true,false,false,true,true,false,false,0.02,0.02,0.01,0.00,0.00,0.00,0.43,0.20,43.9466069,-78.8994237,17TPJ 68564 68087,0.0,0.0,307.6,3,10,--.--,--.--,--.--,0.0,0.0,0.0,0,0,0,--.--,--.--,--.--
2020-08-01 21:02:58.804,4.4,-35.6,307,0.5,0.2,0.1,5.0,4.3,0.0,50.0,100.1,267.8,00:01:23,268.1,308,128,--.--,72,0002:41:26,11.32,51,0,-1.00,--.--,-11.32,--.--,0,--.--,--.--,--.--,--.--,--.--,--.--,--.--,0,21:02:58,2020-08-01,--.--,--.--,--.--,--.--,--.--,--.--,--.--,0.00,--.--,--.--,true,true,true,true,true,true,false,false,true,true,false,false,0.02,0.02,0.01,0.00,0.00,0.00,0.43,0.20,43.9466346,-78.8994741,17TPJ 68560 68090,0.0,0.0,307.0,3,10,--.--,--.--,--.--,0.0,0.0,0.0,0,0,0,--.--,--.--,--.--
2020-08-01 21:02:59.804,4.4,-36.2,307,0.1,-0.7,-0.2,5.0,3.9,0.0,50.0,100.1,271.8,00:01:24,273.1,308,128,--.--,72,0002:41:26,11.32,51,0,-1.00,--.--,-11.32,--.--,0,--.--,--.--,--.--,--.--,--.--,--.--,--.--,0,21:02:59,2020-08-01,--.--,--.--,--.--,--.--,--.--,--.--,--.--,0.00,--.--,--.--,true,true,true,true,true,true,false,false,true,true,false,false,0.02,0.03,0.01,0.03,0.00,0.00,0.42,0.20,43.9466567,-78.8995146,17TPJ 68556 68092,0.0,0.0,306.9,3,10,--.--,--.--,--.--,0.0,0.0,0.0,0,0,0,--.--,--.--,--.--
2020-08-01 21:03:00.805,4.5,-36.3,307,0.4,-0.2,-0.1,5.0,-1.6,0.0,50.0,100.1,278.1,00:01:25,278.0,308,128,--.--,72,0002:41:26,11.32,51,0,-1.00,--.--,-11.32,--.--,0,--.--,--.--,--.--,--.--,--.--,--.--,--.--,0,21:03:00,2020-08-01,--.--,--.--,--.--,--.--,--.--,--.--,--.--,0.00,--.--,--.--,true,true,true,true,true,true,false,false,true,true,false,false,0.02,0.03,0.01,0.03,0.00,0.00,0.42,0.20,43.9466841,-78.8995653,17TPJ 68552 68095,0.0,0.0,306.9,3,10,--.--,--.--,--.--,0.0,0.0,0.0,0,0,0,--.--,--.--,--.--
2020-08-01 21:03:01.804,4.5,-36.0,307,0.2,0.8,0.1,5.0,4.8,0.0,50.0,100.1,282.1,00:01:26,283.1,308,128,--.--,72,0002:41:26,11.32,51,0,-1.00,--.--,-11.32,--.--,0,--.--,--.--,--.--,--.--,--.--,--.--,--.--,0,21:03:01,2020-08-01,--.--,--.--,--.--,--.--,--.--,--.--,--.--,0.00,--.--,--.--,true,true,true,true,true,true,false,false,true,true,false,false,0.03,0.02,0.01,0.00,0.00,0.00,0.42,0.20,43.9467119,-78.8996169,17TPJ 68548 68098,0.0,0.0,307.2,3,10,--.--,--.--,--.--,0.0,0.0,0.0,0,0,0,--.--,--.--,--.--
2020-08-01 21:03:02.804,4.6,-35.8,308,-0.2,0.6,0.1,5.0,4.0,0.0,50.0,100.1,288.2,00:01:27,288.1,308,128,--.--,72,0002:41:26,11.32,51,0,-1.00,--.--,-11.32,--.--,0,--.--,--.--,--.--,--.--,--.--,--.--,--.--,0,21:03:02,2020-08-01,--.--,--.--,--.--,--.--,--.--,--.--,--.--,0.00,--.--,--.--,true,true,true,true,true,true,false,false,true,true,false,false,0.03,0.02,0.01,0.00,0.00,0.00,0.42,0.20,43.9467398,-78.8996679,17TPJ 68544 68101,0.0,0.0,307.4,3,10,--.--,--.--,--.--,0.0,0.0,0.0,0,0,0,--.--,--.--,--.--
2020-08-01 21:03:03.804,4.6,-35.7,308,0.4,-0.9,0.2,5.0,2.8,0.0,50.0,100.1,292.2,00:01:28,293.2,308,128,--.--,71,0002:41:26,11.32,51,0,-1.00,--.--,-11.32,--.--,0,--.--,--.--,--.--,--.--,--.--,--.--,--.--,0,21:03:03,2020-08-01,--.--,--.--,--.--,--.--,--.--,--.--,--.--,0.00,--.--,--.--,true,true,true,true,true,true,false,false,true,true,false,false,0.04,0.04,0.00,0.02,0.00,0.00,0.42,0.20,43.9467678,-78.8997187,17TPJ 68540 68104,0.0,0.0,307.7,3,10,--.--,--.--,--.--,0.0,0.0,0.0,0,0,0,--.--,--.--,--.--
2020-08-01 21:03:04.804,4.5,-36.2,308,-0.0,-1.1,0.1,4.9,3.4,0.0,50.0,100.1,296.3,00:01:29,298.1,308,128,--.--,72,0002:41:26,11.32,51,0,-1.00,--.--,-11.32,--.--,0,--.--,--.--,--.--,--.--,--.--,--.--,--.--,0,21:03:04,2020-08-01,--.--,--.--,--.--,--.--,--.--,--.--,--.--,0.00,--.--,--.--,true,true,true,true,true,true,false,false,true,true,false,false,0.04,0.04,0.00,0.02,0.00,0.00,0.42,0.20,43.9467955,-78.8997684,17TPJ 68536 68107,0.0,0.0,307.7,3,10,--.--,--.--,--.--,0.0,0.0,0.0,0,0,0,--.--,--.--,--.--
2020-08-01 21:03:05.804,4.5,-36.6,308,-0.1,0.6,0.1,5.0,4.8,0.0,50.0,100.1,302.5,00:01:30,303.0,308,128,--.--,72,0002:41:26,11.32,51,0,-1.00,--.--,-11.32,--.--,0,--.--,--.--,--.--,--.--,--.--,--.--,--.--,0,21:03:05,2020-08-01,--.--,--.--,--.--,--.--,--.--,--.--,--.--,0.00,--.--,--.--,true,true,true,true,true,true,false,false,true,true,false,false,0.03,0.02,0.01,0.00,0.00,0.00,0.43,0.20,43.9468234,-78.8998188,17TPJ 68531 68110,0.0,0.0,307.5,3,10,--.--,--.--,--.--,0.0,0.0,0.0,0,0,0,--.--,--.--,--.--
2020-08-01 21:03:06.804,4.8,-28.9,309,0.5,27.5,-0.7,4.9,5.0,-0.0,50.0,100.1,306.5,00:01:31,308.1,308,128,--.--,69,0002:41:26,11.32,51,0,-1.00,--.--,-11.32,--.--,0,--.--,--.--,--.--,--.--,--.--,--.--,--.--,0,21:03:06,2020-08-01,--.--,--.--,--.--,--.--,--.--,--.--,--.--,0.00,--.--,--.--,true,true,true,true,true,true,false,false,true,true,false,false,0.03,0.02,0.01,0.00,0.00,0.00,0.43,0.20,43.9468520,-78.8998701,17TPJ 68527 68113,0.0,0.0,307.7,3,10,--.--,--.--,--.--,0.0,0.0,0.0,0,0,0,--.--,--.--,--.--
2020-08-01 21:03:07.804,3.7,-15.8,309,0.1,9.4,-0.4,3.1,3.1,0.0,50.0,100.0,310.6,00:01:32,311.9,308,128,--.--,62,0002:41:26,11.32,51,0,-1.00,--.--,-11.32,--.--,0,--.--,--.--,--.--,--.--,--.--,--.--,--.--,0,21:03:07,2020-08-01,--.--,--.--,--.--,--.--,--.--,--.--,--.--,0.00,--.--,--.--,true,true,true,true,true,true,false,false,true,true,false,false,0.03,0.04,0.00,0.03,0.00,0.00,0.43,0.20,43.9468775,-78.8999137,17TPJ 68524 68116,0.0,0.0,311.2,3,10,--.--,--.--,--.--,0.0,0.0,0.0,0,0,0,--.--,--.--,--.--
2020-08-01 21:03:08.804,-2.4,-4.5,303,-31.4,26.8,-25.7,1.7,4.8,0.0,50.0,100.0,312.6,00:01:33,314.4,190,128,--.--,58,0002:41:26,11.32,51,0,-1.00,--.--,-11.32,--.--,0,--.--,--.--,--.--,--.--,--.--,--.--,--.--,0,21:03:08,2020-08-01,--.--,--.--,--.--,--.--,--.--,--.--,--.--,0.00,--.--,--.--,true,true,true,true,true,true,false,false,true,true,false,false,0.03,0.04,0.00,0.03,0.00,0.00,0.43,0.20,43.9468943,-78.8999389,17TPJ 68522 68118,0.0,0.0,316.0,3,10,--.--,--.--,--.--,0.0,0.0,0.0,0,0,0,--.--,--.--,--.--
2020-08-01 21:03:09.809,-7.9,-2.9,263,0.8,1.5,-45.5,1.0,1.9,0.0,50.0,100.1,314.7,00:01:34,315.2,190,128,--.--,57,0002:41:26,11.32,51,0,-1.00,--.--,-11.32,--.--,0,--.--,--.--,--.--,--.--,--.--,--.--,--.--,0,21:03:09,2020-08-01,--.--,--.--,--.--,--.--,--.--,--.--,--.--,0.00,--.--,--.--,true,true,true,true,true,true,false,false,true,true,false,false,0.08,0.02,0.00,0.01,0.00,0.00,0.42,0.20,43.9468997,-78.8999497,17TPJ 68521 68118,0.0,0.0,253.1,3,10,--.--,--.--,--.--,0.0,0.0,0.0,0,0,0,--.--,--.--,--.--
2020-08-01 21:03:10.812,-4.8,-8.4,217,-1.5,-2.1,-45.6,0.9,-1.6,0.0,50.0,100.1,314.7,00:01:35,315.0,190,128,--.--,58,0002:41:26,11.32,51,0,-1.00,--.--,-11.32,--.--,0,--.--,--.--,--.--,--.--,--.--,--.--,--.--,0,21:03:10,2020-08-01,--.--,--.--,--.--,--.--,--.--,--.--,--.--,0.00,--.--,--.--,true,true,true,true,true,true,false,false,true,true,false,false,0.08,0.02,0.00,0.01,0.00,0.00,0.42,0.20,43.9468933,-78.8999552,17TPJ 68520 68118,0.0,0.0,194.6,3,10,--.--,--.--,--.--,0.0,0.0,0.0,0,0,0,--.--,--.--,--.--
2020-08-01 21:03:11.811,1.5,-15.1,178,-0.0,-6.4,-14.7,1.2,2.3,-0.0,50.0,100.1,316.7,00:01:36,314.4,190,127,--.--,59,0002:41:26,11.32,51,0,-1.00,--.--,-11.32,--.--,0,--.--,--.--,--.--,--.--,--.--,--.--,--.--,0,21:03:11,2020-08-01,--.--,--.--,--.--,--.--,--.--,--.--,--.--,0.00,--.--,--.--,true,true,true,true,true,true,false,false,true,true,false,false,0.09,0.01,0.00,0.02,0.00,0.00,0.42,0.20,43.9468833,-78.8999571,17TPJ 68520 68117,0.0,0.0,182.9,3,10,--.--,--.--,--.--,0.0,0.0,0.0,0,0,0,--.--,--.--,--.--
2020-08-01 21:03:12.809,3.9,-23.4,173,1.0,-6.9,-0.8,2.1,3.9,-0.0,50.0,100.1,318.7,00:01:37,313.2,190,127,--.--,62,0002:41:26,11.32,51,0,-1.00,--.--,-11.32,--.--,0,--.--,--.--,--.--,--.--,--.--,--.--,--.--,0,21:03:12,2020-08-01,--.--,--.--,--.--,--.--,--.--,--.--,--.--,0.00,--.--,--.--,true,true,true,true,true,true,false,false,true,true,false,false,0.09,0.01,0.00,0.02,0.00,0.00,0.42,0.20,43.9468682,-78.8999573,17TPJ 68520 68115,0.0,0.0,179.2,3,10,--.--,--.--,--.--,0.0,0.0,0.0,0,0,0,--.--,--.--,--.--
2020-08-01 21:03:13.808,5.3,-25.4,172,0.7,5.3,-4.4,3.2,1.7,-0.1,50.0,100.1,320.7,00:01:38,311.3,190,127,--.--,65,0002:41:26,11.32,51,0,-1.00,--.--,-11.32,--.--,0,--.--,--.--,--.--,--.--,--.--,--.--,--.--,0,21:03:13,2020-08-01,--.--,--.--,--.--,--.--,--.--,--.--,--.--,0.00,--.--,--.--,true,true,true,true,true,true,false,false,true,true,false,false,0.11,0.05,0.00,0.03,0.00,0.00,0.42,0.20,43.9468436,-78.8999564,17TPJ 68520 68112,0.0,0.0,178.3,3,10,--.--,--.--,--.--,0.0,0.0,0.0,0,0,0,--.--,--.--,--.--
2020-08-01 21:03:14.812,1.2,-25.6,176,4.9,-1.4,7.9,3.4,1.8,-0.0,50.0,100.1,324.8,00:01:39,309.2,180,126,--.--,65,0002:41:26,11.32,51,0,-1.00,--.--,-11.32,--.--,0,--.--,--.--,--.--,--.--,--.--,--.--,--.--,0,21:03:14,2020-08-01,--.--,--.--,--.--,--.--,--.--,--.--,--.--,0.00,--.--,--.--,true,true,true,true,true,true,false,false,true,true,false,false,0.11,0.05,0.00,0.03,0.00,0.00,0.42,0.20,43.9468106,-78.8999555,17TPJ 68520 68109,0.0,0.0,179.6,3,10,--.--,--.--,--.--,0.0,0.0,0.0,0,0,0,--.--,--.--,--.--
2020-08-01 21:03:15.804,2.3,-26.3,179,0.8,0.3,0.6,3.5,3.3,-0.0,50.0,100.1,328.8,00:01:40,306.9,180,126,--.--,66,0002:41:26,11.32,51,0,-1.00,--.--,-11.32,--.--,0,--.--,--.--,--.--,--.--,--.--,--.--,--.--,0,21:03:15,2020-08-01,--.--,--.--,--.--,--.--,--.--,--.--,--.--,0.00,--.--,--.--,true,true,true,true,true,true,false,false,true,true,false,false,0.09,0.03,0.00,0.01,0.00,0.00,0.44,0.20,43.9467768,-78.8999540,17TPJ 68521 68105,0.0,0.0,178.3,3,10,--.--,--.--,--.--,0.0,0.0,0.0,0,0,0,--.--,--.--,--.--
2020-08-01 21:03:16.804,2.6,-26.6,179,0.6,0.8,0.3,3.6,4.3,-0.0,50.0,100.1,332.8,00:01:41,304.6,180,125,--.--,66,0002:41:26,11.32,51,0,-1.00,--.--,-11.32,--.--,0,--.--,--.--,--.--,--.--,--.--,--.--,--.--,0,21:03:16,2020-08-01,--.--,--.--,--.--,--.--,--.--,--.--,--.--,0.00,--.--,--.--,true,true,true,true,true,true,false,false,true,true,false,false,0.09,0.03,0.00,0.01,0.00,0.00,0.44,0.20,43.9467418,-78.8999531,17TPJ 68521 68101,0.0,0.0,179.6,3,10,--.--,--.--,--.--,0.0,0.0,0.0,0,0,0,--.--,--.--,--.--
2020-08-01 21:03:17.805,2.5,-26.9,179,0.2,-0.4,0.4,3.8,3.0,-0.0,50.0,100.1,336.9,00:01:42,302.3,180,124,--.--,66,0002:41:26,11.32,51,0,-1.00,--.--,-11.32,--.--,0,--.--,--.--,--.--,--.--,--.--,--.--,--.--,0,21:03:17,2020-08-01,--.--,--.--,--.--,--.--,--.--,--.--,--.--,0.00,--.--,--.--,true,true,true,true,true,true,false,false,true,true,false,false,0.07,0.05,0.00,0.01,0.00,0.00,0.44,0.20,43.9467063,-78.8999532,17TPJ 68521 68097,0.0,0.0,180.0,3,10,--.--,--.--,--.--,0.0,0.0,0.0,0,0,0,--.--,--.--,--.--
2020-08-01 21:03:18.805,2.3,-27.2,179,0.0,-0.4,0.0,3.9,4.0,-0.0,50.0,100.1,340.9,00:01:43,300.0,180,124,--.--,66,0002:41:26,11.32,51,0,-1.00,--.--,-11.32,--.--,0,--.--,--.--,--.--,--.--,--.--,--.--,--.--,0,21:03:18,2020-08-01,--.--,--.--,--.--,--.--,--.--,--.--,--.--,0.00,--.--,--.--,true,true,true,true,true,true,false,false,true,true,false,false,0.07,0.05,0.00,0.01,0.00,0.00,0.44,0.20,43.9466700,-78.8999535,17TPJ 68521 68093,0.0,0.0,180.3,3,10,--.--,--.--,--.--,0.0,0.0,0.0,0,0,0,--.--,--.--,--.--
2020-08-01 21:03:19.804,2.3,-27.5,179,0.2,-0.7,0.4,4.0,2.7,-0.0,50.0,100.1,345.0,00:01:44,297.8,180,123,--.--,66,0002:41:26,11.32,51,0,-1.00,--.--,-11.32,--.--,0,--.--,--.--,--.--,--.--,--.--,--.--,--.--,0,21:03:19,2020-08-01,--.--,--.--,--.--,--.--,--.--,--.--,--.--,0.00,--.--,--.--,true,true,true,true,true,true,false,false,true,true,false,false,0.02,0.02,0.00,0.00,0.00,0.00,0.43,0.20,43.9466409,-78.8999537,17TPJ 68521 68090,0.0,0.0,180.3,3,10,--.--,--.--,--.--,0.0,0.0,0.0,0,0,0,--.--,--.--,--.--
2020-08-01 21:03:20.804,2.1,-27.9,179,-0.4,0.1,0.1,4.1,3.0,-0.0,50.0,100.1,347.0,00:01:45,295.6,180,122,--.--,67,0002:41:26,11.32,51,0,-1.00,--.--,-11.32,--.--,0,--.--,--.--,--.--,--.--,--.--,--.--,--.--,0,21:03:20,2020-08-01,--.--,--.--,--.--,--.--,--.--,--.--,--.--,0.00,--.--,--.--,true,true,true,true,true,true,false,false,true,true,false,false,0.02,0.02,0.00,0.00,0.00,0.00,0.43,0.20,43.9466040,-78.8999537,17TPJ 68521 68086,0.0,0.0,179.9,3,10,--.--,--.--,--.--,0.0,0.0,0.0,0,0,0,--.--,--.--,--.--
2020-08-01 21:03:21.804,2.1,-28.1,179,-0.1,-0.3,0.2,4.1,4.5,-0.0,50.0,100.1,351.1,00:01:46,293.4,180,122,--.--,67,0002:41:26,11.32,51,0,-1.00,--.--,-11.32,--.--,0,--.--,--.--,--.--,--.--,--.--,--.--,--.--,0,21:03:21,2020-08-01,--.--,--.--,--.--,--.--,--.--,--.--,--.--,0.00,--.--,--.--,true,true,true,true,true,true,false,false,true,true,false,false,0.01,0.02,0.00,0.01,0.00,0.00,0.42,0.20,43.9465665,-78.8999533,17TPJ 68521 68081,0.0,0.0,179.3,3,10,--.--,--.--,--.--,0.0,0.0,0.0,0,0,0,--.--,--.--,--.--
2020-08-01 21:03:22.804,2.2,-28.4,179,0.2,0.0,-0.0,4.2,3.6,-0.0,50.0,100.1,357.3,00:01:47,291.2,180,121,--.--,67,0002:41:26,11.32,51,0,-1.00,--.--,-11.32,--.--,0,--.--,--.--,--.--,--.--,--.--,--.--,--.--,0,21:03:22,2020-08-01,--.--,--.--,--.--,--.--,--.--,--.--,--.--,0.00,--.--,--.--,true,true,true,true,true,true,false,false,true,true,false,false,0.01,0.02,0.00,0.01,0.00,0.00,0.42,0.20,43.9465283,-78.8999528,17TPJ 68522 68077,0.0,0.0,179.3,3,10,--.--,--.--,--.--,0.0,0.0,0.0,0,0,0,--.--,--.--,--.--
2020-08-01 21:03:23.804,2.2,-28.6,180,0.1,-0.3,0.1,4.3,3.0,-0.0,50.0,100.1,361.4,00:01:48,289.0,180,120,--.--,67,0002:41:26,11.32,51,0,-1.00,--.--,-11.32,--.--,0,--.--,--.--,--.--,--.--,--.--,--.--,--.--,0,21:03:23,2020-08-01,--.--,--.--,--.--,--.--,--.--,--.--,--.--,0.00,--.--,--.--,true,true,true,true,true,true,false,false,true,true,false,false,0.01,0.03,0.00,0.01,0.00,0.00,0.42,0.20,43.9464898,-78.8999524,17TPJ 68522 68073,0.0,0.0,179.5,3,10,--.--,--.--,--.--,0.0,0.0,0.0,0,0,0,--.--,--.--,--.--
2020-08-01 21:03:24.804,2.2,-28.8,180,-0.3,-1.2,0.3,4.3,3.0,0.0,50.0,100.1,365.5,00:01:49,286.8,180,120,--.--,67,0002:41:26,11.32,51,0,-1.00,--.--,-11.32,--.--,0,--.--,--.--,--.--,--.--,--.--,--.--,--.--,0,21:03:24,2020-08-01,--.--,--.--,--.--,--.--,--.--,--.--,--.--,0.00,--.--,--.--,true,true,true,true,true,true,false,false,true,true,false,false,0.01,0.03,0.00,0.01,0.00,0.00,0.42,0.20,43.9464508,-78.8999519,17TPJ 68522 68069,0.0,0.0,179.4,3,10,--.--,--.--,--.--,0.0,0.0,0.0,0,0,0,--.--,--.--,--.--
2020-08-01 21:03:25.804,2.2,-29.3,180,0.9,-0.2,-0.0,4.4,3.8,0.0,50.0,100.1,369.7,00:01:50,284.7,180,119,--.--,68,0002:41:26,11.32,51,0,-1.00,--.--,-11.32,--.--,0,--.--,--.--,--.--,--.--,--.--,--.--,--.--,0,21:03:25,2020-08-01,--.--,--.--,--.--,--.--,--.--,--.--,--.--,0.00,--.--,--.--,true,true,true,true,true,true,false,false,true,true,false,false,0.03,0.03,0.00,0.01,0.00,0.00,0.44,0.21,43.9464111,-78.8999513,17TPJ 68522 68064,0.0,0.0,179.3,3,10,--.--,--.--,--.--,0.0,0.0,0.0,0,0,0,--.--,--.--,--.--
2020-08-01 21:03:26.804,2.3,-29.4,180,-0.1,-0.2,-0.2,4.4,4.0,0.0,50.0,100.1,373.7,00:01:51,282.6,180,118,--.--,68,0002:41:26,11.32,51,0,-1.00,--.--,-11.32,--.--,0,--.--,--.--,--.--,--.--,--.--,--.--,--.--,0,21:03:26,2020-08-01,--.--,--.--,--.--,--.--,--.--,--.--,--.--,0.00,--.--,--.--,true,true,true,true,true,true,false,false,true,true,false,false,0.03,0.03,0.00,0.01,0.00,0.00,0.44,0.21,43.9463710,-78.8999509,17TPJ 68522 68060,0.0,0.0,179.7,3,10,--.--,--.--,--.--,0.0,0.0,0.0,0,0,0,--.--,--.--,--.--
2020-08-01 21:03:27.804,2.3,-29.6,180,-0.4,0.2,0.1,4.5,4.6,0.0,50.0,100.1,377.8,00:01:52,280.5,180,117,--.--,68,0002:41:26,11.32,51,0,-1.00,--.--,-11.32,--.--,0,--.--,--.--,--.--,--.--,--.--,--.--,--.--,0,21:03:27,2020-08-01,--.--,--.--,--.--,--.--,--.--,--.--,--.--,0.00,--.--,--.--,true,true,true,true,true,true,false,false,true,true,false,false,0.02,0.01,0.01,0.01,0.00,0.00,0.43,0.20,43.9463301,-78.8999505,17TPJ 68522 68055,0.0,0.0,179.8,3,10,--.--,--.--,--.--,0.0,0.0,0.0,0,0,0,--.--,--.--,--.--
2020-08-01 21:03:28.805,2.5,-29.7,180,0.5,0.2,0.1,4.6,5.0,0.0,50.0,100.0,381.9,00:01:53,278.4,180,116,--.--,68,0002:41:26,11.32,51,0,-1.00,--.--,-11.32,--.--,0,--.--,--.--,--.--,--.--,--.--,--.--,--.--,0,21:03:28,2020-08-01,--.--,--.--,--.--,--.--,--.--,--.--,--.--,0.00,--.--,--.--,true,true,true,true,true,true,false,false,true,true,false,false,0.02,0.01,0.01,0.01,0.00,0.00,0.43,0.20,43.9462891,-78.8999501,17TPJ 68522 68051,0.0,0.0,179.6,3,10,--.--,--.--,--.--,0.0,0.0,0.0,0,0,0,--.--,--.--,--.--
2020-08-01 21:03:29.804,2.4,-29.9,180,-0.3,-1.0,0.1,4.6,2.1,0.0,50.0,100.1,388.0,00:01:54,276.4,180,116,--.--,68,0002:41:26,11.32,51,0,-1.00,--.--,-11.32,--.--,0,--.--,--.--,--.--,--.--,--.--,--.--,--.--,0,21:03:29,2020-08-01,--.--,--.--,--.--,--.--,--.--,--.--,--.--,0.00,--.--,--.--,true,true,true,true,true,true,false,false,true,true,false,false,0.03,0.02,0.00,0.02,0.00,0.00,0.43,0.20,43.9462475,-78.8999499,17TPJ 68523 68046,0.0,0.0,180.1,3,10,--.--,--.--,--.--,0.0,0.0,0.0,0,0,0,--.--,--.--,--.--
